{"type":"FeatureCollection","features":[{"type":"Feature","id":"node/3737018364","geometry":{"type":"Point","coordinates":[19.8584638,40.7779961]},"properties":{"osm_type":"node","osm_id":3737018364,"category":"winery","name":"Çobo Winery","tags":{"craft":"winery","name":"Çobo Winery","phone":"+355 3612 2088","website":"http://www.cobowineryonline.com/"}}},{"type":"Feature","id":"node/3955506514","geometry":{"type":"Point","coordinates":[19.5153792,42.0655769]},"properties":{"osm_type":"node","osm_id":3955506514,"category":"wine_shop","name":"Montenegro Grill","tags":{"amenity":"restaurant","name":"Montenegro Grill","shop":"wine","wheelchair":"limited"}}},{"type":"Feature","id":"node/4300592590","geometry":{"type":"Point","coordinates":[19.6372475,41.9659437]},"properties":{"osm_type":"node","osm_id":4300592590,"category":"wine_shop","name":"Kantina Zadrima","tags":{"addr:postcode":"4029","addr:street":"Hajmel, Shkoder","email":"zefpashuku@gmail.com","name":"Kantina Zadrima","opening_hours":"24/7","phone":"0697422474","shop":"wine"}}},{"type":"Feature","id":"node/4531679726","geometry":{"type":"Point","coordinates":[19.5184636,42.065375]},"properties":{"osm_type":"node","osm_id":4531679726,"category":"wine_shop","tags":{"shop":"wine"}}},{"type":"Feature","id":"node/4911491735","geometry":{"type":"Point","coordinates":[19.6260719,41.3009751]},"properties":{"osm_type":"node","osm_id":4911491735,"category":"winery","name":"Kantina Kokomani Vineyard","tags":{"addr:city":"Eminas i Vogel","craft":"winery","email":"info@kokomaniwinery.com","name":"Kantina Kokomani Vineyard","phone":"+355 692050870","website":"http://www.kokomani-winery.com/winery/"}}},{"type":"Feature","id":"node/5016263141","geometry":{"type":"Point","coordinates":[20.0817701,41.1185777]},"properties":{"osm_type":"node","osm_id":5016263141,"category":"wine_shop","name":"Magistravini","tags":{"name":"Magistravini","shop":"wine"}}},{"type":"Feature","id":"node/5237135010","geometry":{"type":"Point","coordinates":[19.5452773,41.4140704]},"properties":{"osm_type":"node","osm_id":5237135010,"category":"winery","name":"Kantina e Veres \"Enisa\"","tags":{"craft":"winery","name":"Kantina e Veres \"Enisa\"","phone":"+355 69 2073700","website":"http://wineroad.al/?page_id=527"}}},{"type":"Feature","id":"node/5237182570","geometry":{"type":"Point","coordinates":[19.6061252,41.3749451]},"properties":{"osm_type":"node","osm_id":5237182570,"category":"winery","name":"Kantina e Veres Herta","tags":{"craft":"winery","name":"Kantina e Veres Herta"}}},{"type":"Feature","id":"node/5252134321","geometry":{"type":"Point","coordinates":[19.8172568,41.332976]},"properties":{"osm_type":"node","osm_id":5252134321,"category":"wine_shop","name":"Napoleon wine&spirits","tags":{"name":"Napoleon wine&spirits","name:en":"Napoleon wine&spirits","shop":"wine"}}},{"type":"Feature","id":"node/5460099721","geometry":{"type":"Point","coordinates":[19.5596871,41.4292333]},"properties":{"osm_type":"node","osm_id":5460099721,"category":"wine_shop","name":"Fidanishte Xhakolli","tags":{"addr:postcode":"2012","addr:street":"Rruga Ismet Nanushi","email":"fidanishte_xhakolli@gmail.com","name":"Fidanishte Xhakolli","opening_hours":"Mo-Sa 08:00-16:00","phone":"+355672031351","shop":"wine","website":"https://fidanishtexhakolli.business.site/"}}},{"type":"Feature","id":"node/6192943185","geometry":{"type":"Point","coordinates":[20.0412593,40.6474784]},"properties":{"osm_type":"node","osm_id":6192943185,"category":"wine_shop","name":"Nurellari Winery Cellar","tags":{"name:en":"Nurellari Winery Cellar","shop":"wine"}}},{"type":"Feature","id":"node/6264365186","geometry":{"type":"Point","coordinates":[19.5594793,41.520287]},"properties":{"osm_type":"node","osm_id":6264365186,"category":"wine_shop","name":"Kantina e Veres DUKA","tags":{"addr:street":"Lalez Durres","email":"info@veraduka.al","name":"Kantina e Veres DUKA","name:en":"Duka Winery and Vineyard","phone":"0686011500","shop":"wine","website":"https://kantinaduka.al/"}}},{"type":"Feature","id":"node/6473852295","geometry":{"type":"Point","coordinates":[19.6786784,41.3638954]},"properties":{"osm_type":"node","osm_id":6473852295,"category":"wine_shop","name":"Vila Shehi Winery","tags":{"addr:street":"Rruga Sipri","email":"vilashehi@gmail.com","name":"Vila Shehi Winery","name:en":"Vila Shehi Winery","phone":"69 220 9157","shop":"wine"}}},{"type":"Feature","id":"node/6617204339","geometry":{"type":"Point","coordinates":[19.5610048,40.7284137]},"properties":{"osm_type":"node","osm_id":6617204339,"category":"winery","name":"Isabel Wine Shop","tags":{"craft":"winery","name":"Isabel Wine Shop","shop":"wine"}}},{"type":"Feature","id":"node/6617478019","geometry":{"type":"Point","coordinates":[19.5597261,40.7302286]},"properties":{"osm_type":"node","osm_id":6617478019,"category":"winery","name":"Kantina Faba","tags":{"craft":"winery","name":"Kantina Faba","opening_hours":"Mo-Su 08:00-20:00","phone":"+355692951806","shop":"wine","website":"https://www.fabakantina.al/"}}},{"type":"Feature","id":"node/9002143049","geometry":{"type":"Point","coordinates":[19.8409586,41.337609]},"properties":{"osm_type":"node","osm_id":9002143049,"category":"wine_shop","name":"Veneto Winery Shop","tags":{"name":"Veneto Winery Shop","shop":"wine"}}},{"type":"Feature","id":"node/9124938543","geometry":{"type":"Point","coordinates":[19.8337746,41.3328315]},"properties":{"osm_type":"node","osm_id":9124938543,"category":"wine_shop","tags":{"shop":"wine"}}},{"type":"Feature","id":"node/9138114334","geometry":{"type":"Point","coordinates":[19.4455433,41.3233847]},"properties":{"osm_type":"node","osm_id":9138114334,"category":"wine_shop","tags":{"shop":"wine"}}},{"type":"Feature","id":"node/9138114346","geometry":{"type":"Point","coordinates":[19.4506821,41.3163056]},"properties":{"osm_type":"node","osm_id":9138114346,"category":"wine_shop","tags":{"shop":"wine"}}},{"type":"Feature","id":"node/9153942948","geometry":{"type":"Point","coordinates":[19.9542808,40.7045532]},"properties":{"osm_type":"node","osm_id":9153942948,"category":"wine_shop","name":"Lodge of Wine","tags":{"name":"Lodge of Wine","shop":"wine"}}},{"type":"Feature","id":"node/9153950580","geometry":{"type":"Point","coordinates":[20.0850003,41.1146235]},"properties":{"osm_type":"node","osm_id":9153950580,"category":"wine_shop","tags":{"shop":"wine"}}},{"type":"Feature","id":"node/9836734804","geometry":{"type":"Point","coordinates":[20.0407091,40.6470262]},"properties":{"osm_type":"node","osm_id":9836734804,"category":"winery","name":"Nurellari Vinery","tags":{"craft":"winery","name":"Nurellari Vinery"}}},{"type":"Feature","id":"node/10118570806","geometry":{"type":"Point","coordinates":[20.7788458,40.6220952]},"properties":{"osm_type":"node","osm_id":10118570806,"category":"wine_shop","name":"Ideavino","tags":{"name":"Ideavino","opening_hours":"Mo-Sa 08:30-16:30,18:30-21:00; Su off","phone":"+355 69 522 2809","shop":"wine","wheelchair":"no"}}},{"type":"Feature","id":"node/10214388295","geometry":{"type":"Point","coordinates":[20.5815845,40.1745401]},"properties":{"osm_type":"node","osm_id":10214388295,"category":"winery","name":"Max Wine","tags":{"craft":"winery","email":"florianperi@yahoo.com","name":"Max Wine","phone":"+355 67 461 3445","website":"https://maxmavrud.com/"}}},{"type":"Feature","id":"node/10999113857","geometry":{"type":"Point","coordinates":[19.8005412,41.3204033]},"properties":{"osm_type":"node","osm_id":10999113857,"category":"wine_shop","name":"Enoalba","tags":{"addr:city":"Tirana","addr:housenumber":"31","addr:street":"Bulevardi Bajram Curri","name":"Enoalba","shop":"wine","website":"https://www.enoalba.com/"}}},{"type":"Feature","id":"node/11511437399","geometry":{"type":"Point","coordinates":[19.8144536,41.3181254]},"properties":{"osm_type":"node","osm_id":11511437399,"category":"wine_shop","name":"NAPOLEON WINE & SPIRITS","tags":{"name":"NAPOLEON WINE & SPIRITS","shop":"wine"}}},{"type":"Feature","id":"node/12018374814","geometry":{"type":"Point","coordinates":[19.4547569,41.3160815]},"properties":{"osm_type":"node","osm_id":12018374814,"category":"wine_shop","name":"Kantina skenderbeu","tags":{"name":"Kantina skenderbeu","shop":"wine"}}},{"type":"Feature","id":"way/422639373","geometry":{"type":"Point","coordinates":[19.6943194,41.8545728]},"properties":{"osm_type":"way","osm_id":422639373,"category":"winery","name":"Kantina Kallmet","tags":{"addr:city":"Kallmet","addr:housenumber":"5","addr:postcode":"4507","addr:street":"Rruga Kallemet i Vogel","building":"yes","craft":"winery","name":"Kantina Kallmet","operator":"Kantina Kallmet"}}},{"type":"Feature","id":"way/460315152","geometry":{"type":"Point","coordinates":[19.8585683,40.7782391]},"properties":{"osm_type":"way","osm_id":460315152,"category":"winery","name":"Kantina e Veres ÇOBO","tags":{"addr:city":"Ura Vajgurore","building":"no","craft":"winery","name":"Kantina e Veres ÇOBO"}}},{"type":"Feature","id":"way/750651913","geometry":{"type":"Point","coordinates":[19.4975863,41.3310356]},"properties":{"osm_type":"way","osm_id":750651913,"category":"winery","name":"Kantina e Pijeve Gjergj Kastrioti Skënderbeu","tags":{"building":"yes","craft":"winery","name":"Kantina e Pijeve Gjergj Kastrioti Skënderbeu"}}},{"type":"Feature","id":"way/1201364375","geometry":{"type":"Point","coordinates":[20.0412709,40.7288083]},"properties":{"osm_type":"way","osm_id":1201364375,"category":"winery","name":"Alpeta Agrotourism & Winery","tags":{"addr:city":"Roshnik","addr:housenumber":"4012","addr:street":"Qendër","building":"yes","craft":"winery","name":"Alpeta Agrotourism & Winery","operator":"Alp","phone":"+355682091617"}}},{"type":"Feature","id":"way/1226135569","geometry":{"type":"Point","coordinates":[19.5255553,41.3141908]},"properties":{"osm_type":"way","osm_id":1226135569,"category":"winery","name":"Abaia winery","tags":{"craft":"winery","name":"Abaia winery","website":"https://abaiawinery.al/"}}},{"type":"Feature","id":"way/1238423054","geometry":{"type":"Point","coordinates":[19.8377658,41.3749887]},"properties":{"osm_type":"way","osm_id":1238423054,"category":"vineyard","name":"Kodra e Vreshtit","tags":{"landuse":"vineyard","name":"Kodra e Vreshtit","operator":"coming soon"}}}]}