{"type":"FeatureCollection","features":[{"type":"Feature","id":"node/267314479","geometry":{"type":"Point","coordinates":[-79.3804665,43.6393081]},"properties":{"osm_type":"node","osm_id":267314479,"category":"wine_shop","name":"Wine Rack","tags":{"brand":"Wine Rack","name":"Wine Rack","opening_hours":"Mo-Sa 10:00-22:00; Su 11:00-18:00","shop":"wine","wheelchair":"yes"}}},{"type":"Feature","id":"node/267314749","geometry":{"type":"Point","coordinates":[-79.3830626,43.6396799]},"properties":{"osm_type":"node","osm_id":267314749,"category":"wine_shop","name":"The Wine Shop","tags":{"brand":"The Wine Shop","name":"The Wine Shop","shop":"wine","website":"https://www.thewineshops.com/"}}},{"type":"Feature","id":"node/269278647","geometry":{"type":"Point","coordinates":[-79.1255115,43.2523922]},"properties":{"osm_type":"node","osm_id":269278647,"category":"winery","name":"Strewn Winery","wikidata":"Q109833950","tags":{"addr:city":"Niagara-on-the-Lake","addr:housenumber":"1339","addr:postcode":"L0S 1J0","addr:street":"Lakeshore Road","craft":"winery","name":"Strewn Winery","phone":"+1-905-468-1229","shop":"wine","website":"https://www.strewnwinery.com/","wheelchair":"yes","wikidata":"Q109833950"}}},{"type":"Feature","id":"node/435334096","geometry":{"type":"Point","coordinates":[-79.3562702,43.6847403]},"properties":{"osm_type":"node","osm_id":435334096,"category":"wine_shop","name":"Vineyards Estate Wines","tags":{"name":"Vineyards Estate Wines","shop":"wine","wheelchair":"yes"}}},{"type":"Feature","id":"node/466941046","geometry":{"type":"Point","coordinates":[-77.4040716,43.9381064]},"properties":{"osm_type":"node","osm_id":466941046,"category":"vineyard","name":"Chadsey's Cairns Winery and Vineyard","tags":{"landuse":"vineyard","name":"Chadsey's Cairns Winery and Vineyard"}}},{"type":"Feature","id":"node/466941247","geometry":{"type":"Point","coordinates":[-77.4154672,43.9377924]},"properties":{"osm_type":"node","osm_id":466941247,"category":"winery","name":"Sandbanks Estate Winery","tags":{"craft":"winery","landuse":"vineyard","name":"Sandbanks Estate Winery"}}},{"type":"Feature","id":"node/526959131","geometry":{"type":"Point","coordinates":[-119.5659167,49.8428663]},"properties":{"osm_type":"node","osm_id":526959131,"category":"winery","name":"Quails' Gate Winery","tags":{"addr:housenumber":"3303","addr:postcode":"V1Z 2H3","addr:street":"Boucherie Road","craft":"winery","email":"info@quailsgate.com","name":"Quails' Gate Winery","phone":"+1-250-769-4451","shop":"alcohol","website":"https://www.quailsgate.com/"}}},{"type":"Feature","id":"node/526959504","geometry":{"type":"Point","coordinates":[-119.5502594,49.8551769]},"properties":{"osm_type":"node","osm_id":526959504,"category":"winery","name":"Mount Boucherie Estate Winery","tags":{"addr:housenumber":"829","addr:street":"Douglas Road","craft":"winery","email":"sales@mtboucherie.com","name":"Mount Boucherie Estate Winery","phone":"+1-778-940-1526","shop":"alcohol","website":"https://mtboucherie.com/"}}},{"type":"Feature","id":"node/538017587","geometry":{"type":"Point","coordinates":[-119.5630573,49.5371618]},"properties":{"osm_type":"node","osm_id":538017587,"category":"winery","name":"Hillside Winery","tags":{"addr:housenumber":"1350","addr:street":"Naramata Road","craft":"winery","email":"info@hillsidewinery.ca","name":"Hillside Winery","operator":"Hillside Winery","phone":"+1-250-493-6274","shop":"alcohol","website":"https://www.hillsidewinery.ca/"}}},{"type":"Feature","id":"node/605016257","geometry":{"type":"Point","coordinates":[-79.3906587,43.6885215]},"properties":{"osm_type":"node","osm_id":605016257,"category":"wine_shop","name":"Wine Rack","tags":{"brand":"Wine Rack","name":"Wine Rack","shop":"wine"}}},{"type":"Feature","id":"node/815496291","geometry":{"type":"Point","coordinates":[-63.6583347,44.6634941]},"properties":{"osm_type":"node","osm_id":815496291,"category":"wine_shop","name":"Wine Kitz","tags":{"addr:city":"Halifax","addr:housenumber":"287","addr:street":"Lacewood Drive","name":"Wine Kitz","shop":"wine"}}},{"type":"Feature","id":"node/946068082","geometry":{"type":"Point","coordinates":[-123.1354336,49.2721539]},"properties":{"osm_type":"node","osm_id":946068082,"category":"wine_shop","name":"Liberty Wines","tags":{"addr:city":"Vancouver","name":"Liberty Wines","opening_hours":"Mo-Th 09:30-20:00; Fr 09:30-21:00; Sa 09:00-21:00; Su 09:00-20:00","shop":"wine"}}},{"type":"Feature","id":"node/947592289","geometry":{"type":"Point","coordinates":[-72.0561952,45.2912118]},"properties":{"osm_type":"node","osm_id":947592289,"category":"winery","name":"Le Cep d'Argent","tags":{"addr:housenumber":"1257","addr:postcode":"J1X 3W5","addr:street":"Chemin de la Rivière","craft":"winery","name":"Le Cep d'Argent","website":"https://www.cepdargent.com/"}}},{"type":"Feature","id":"node/955336967","geometry":{"type":"Point","coordinates":[-123.1565479,49.2683466]},"properties":{"osm_type":"node","osm_id":955336967,"category":"wine_shop","name":"Kitsilano Wine Cellar","tags":{"addr:city":"Vancouver","addr:housenumber":"2239","addr:street":"West 4th Avenue","name":"Kitsilano Wine Cellar","shop":"wine"}}},{"type":"Feature","id":"node/975547501","geometry":{"type":"Point","coordinates":[-79.3941871,43.6711891]},"properties":{"osm_type":"node","osm_id":975547501,"category":"wine_shop","name":"Vineyards Estate Wines","tags":{"name":"Vineyards Estate Wines","shop":"wine"}}},{"type":"Feature","id":"node/1213568749","geometry":{"type":"Point","coordinates":[-79.3804862,43.66566]},"properties":{"osm_type":"node","osm_id":1213568749,"category":"wine_shop","name":"Wine Rack","tags":{"addr:city":"Toronto","addr:housenumber":"77","addr:street":"Wellesley Street East","brand":"Wine Rack","name":"Wine Rack","shop":"wine","wheelchair":"limited"}}},{"type":"Feature","id":"node/1353483096","geometry":{"type":"Point","coordinates":[-123.2549778,48.7793642]},"properties":{"osm_type":"node","osm_id":1353483096,"category":"winery","name":"Seastar Estate Farm and Vineyard","tags":{"addr:housenumber":"6621","addr:street":"Harbour Hill Drive","craft":"winery","email":"info@seastarvineyards.ca","name":"Seastar Estate Farm and Vineyard","phone":"+1-250-629-6960","shop":"alcohol","website":"https://www.seastarvineyards.ca/"}}},{"type":"Feature","id":"node/1368622167","geometry":{"type":"Point","coordinates":[-124.9802114,49.6707917]},"properties":{"osm_type":"node","osm_id":1368622167,"category":"wine_shop","name":"Riverside Wines","tags":{"name":"Riverside Wines","phone":"+1-250-338-7772","shop":"wine"}}},{"type":"Feature","id":"node/1394123202","geometry":{"type":"Point","coordinates":[-122.499087,49.1551375]},"properties":{"osm_type":"node","osm_id":1394123202,"category":"winery","name":"The Fort Wine Co.","tags":{"addr:housenumber":"26151","addr:street":"84 Avenue","craft":"winery","name":"The Fort Wine Co.","phone":"+1-604-857-1101","shop":"wine","website":"http://thefortwineco.com/"}}},{"type":"Feature","id":"node/1470047366","geometry":{"type":"Point","coordinates":[-119.3595378,50.9548516]},"properties":{"osm_type":"node","osm_id":1470047366,"category":"wine_shop","name":"Celista Estate Winery","tags":{"name":"Celista Estate Winery","shop":"wine","tourism":"attraction","website":"https://www.celistawine.com/"}}},{"type":"Feature","id":"node/1491980371","geometry":{"type":"Point","coordinates":[-79.0905924,43.8343584]},"properties":{"osm_type":"node","osm_id":1491980371,"category":"wine_shop","name":"Carousel Wines","tags":{"name":"Carousel Wines","shop":"wine"}}},{"type":"Feature","id":"node/1755470113","geometry":{"type":"Point","coordinates":[-79.42509,43.825542]},"properties":{"osm_type":"node","osm_id":1755470113,"category":"wine_shop","name":"Thornhill Winery","tags":{"name":"Thornhill Winery","shop":"wine"}}},{"type":"Feature","id":"node/1907599829","geometry":{"type":"Point","coordinates":[-79.5819711,43.6086419]},"properties":{"osm_type":"node","osm_id":1907599829,"category":"wine_shop","name":"Magnotta Winery","tags":{"name":"Magnotta Winery","shop":"wine","website":"https://www.magnotta.com/"}}},{"type":"Feature","id":"node/1968499457","geometry":{"type":"Point","coordinates":[-79.7474474,43.3981389]},"properties":{"osm_type":"node","osm_id":1968499457,"category":"wine_shop","name":"Wine Rack","tags":{"brand":"Wine Rack","name":"Wine Rack","shop":"wine"}}},{"type":"Feature","id":"node/1973987824","geometry":{"type":"Point","coordinates":[-71.9119391,45.3984927]},"properties":{"osm_type":"node","osm_id":1973987824,"category":"wine_shop","name":"Vinestrie","tags":{"addr:housenumber":"1444","addr:postcode":"J1J 2C2","addr:street":"Rue King Ouest","name":"Vinestrie","shop":"wine"}}},{"type":"Feature","id":"node/1983865939","geometry":{"type":"Point","coordinates":[-79.419754,43.805679]},"properties":{"osm_type":"node","osm_id":1983865939,"category":"wine_shop","name":"Wine Jan Vins","tags":{"name":"Wine Jan Vins","shop":"wine"}}},{"type":"Feature","id":"node/2018091043","geometry":{"type":"Point","coordinates":[-73.1173877,46.0929795]},"properties":{"osm_type":"node","osm_id":2018091043,"category":"winery","name":"Vignoble Clos St-Ignace","tags":{"craft":"winery","name":"Vignoble Clos St-Ignace"}}},{"type":"Feature","id":"node/2037786032","geometry":{"type":"Point","coordinates":[-123.7652001,48.8125352]},"properties":{"osm_type":"node","osm_id":2037786032,"category":"winery","name":"Averill Creek Vineyard","tags":{"addr:city":"Duncan","addr:housenumber":"6552","addr:postcode":"V9L6K9","addr:street":"North Road","craft":"winery","name":"Averill Creek Vineyard","phone":"+1-250-709-9986","shop":"wine","website":"https://www.averillcreek.ca/"}}},{"type":"Feature","id":"node/2088038881","geometry":{"type":"Point","coordinates":[-75.6470805,45.3766456]},"properties":{"osm_type":"node","osm_id":2088038881,"category":"wine_shop","name":"J & J Wines","tags":{"addr:housenumber":"1574","addr:street":"Walkley Road","name":"J & J Wines","shop":"wine"}}},{"type":"Feature","id":"node/2122906081","geometry":{"type":"Point","coordinates":[-79.2991075,43.7236077]},"properties":{"osm_type":"node","osm_id":2122906081,"category":"wine_shop","name":"Wine Rack","tags":{"brand":"Wine Rack","name":"Wine Rack","shop":"wine"}}},{"type":"Feature","id":"node/2135640248","geometry":{"type":"Point","coordinates":[-77.0825915,45.823294]},"properties":{"osm_type":"node","osm_id":2135640248,"category":"wine_shop","name":"Cork Culture","tags":{"name":"Cork Culture","shop":"wine"}}},{"type":"Feature","id":"node/2159618442","geometry":{"type":"Point","coordinates":[-79.5087537,43.5998191]},"properties":{"osm_type":"node","osm_id":2159618442,"category":"winery","name":"The Wine Palace","tags":{"addr:city":"Etobicoke","addr:housenumber":"3025","addr:postcode":"M8V 1K5","addr:street":"Lake Shore Boulevard West","craft":"winery","name":"The Wine Palace","phone":"+1-416-253-7081"}}},{"type":"Feature","id":"node/2188781416","geometry":{"type":"Point","coordinates":[-79.5621516,43.5729915]},"properties":{"osm_type":"node","osm_id":2188781416,"category":"winery","name":"The Wine Bulter","tags":{"addr:city":"Mississauga","addr:housenumber":"860","addr:street":"Lakeshore Road East","craft":"winery","name":"The Wine Bulter","website":"https://winebutler.ca/"}}},{"type":"Feature","id":"node/2240222184","geometry":{"type":"Point","coordinates":[-80.0895032,43.9216699]},"properties":{"osm_type":"node","osm_id":2240222184,"category":"wine_shop","name":"Winexpert","tags":{"name":"Winexpert","shop":"wine"}}},{"type":"Feature","id":"node/2356769836","geometry":{"type":"Point","coordinates":[-79.3481697,43.8467246]},"properties":{"osm_type":"node","osm_id":2356769836,"category":"wine_shop","name":"The Selected Winery","tags":{"name":"The Selected Winery","shop":"wine"}}},{"type":"Feature","id":"node/2398840932","geometry":{"type":"Point","coordinates":[-79.3896111,43.7064057]},"properties":{"osm_type":"node","osm_id":2398840932,"category":"wine_shop","name":"Wine Rack","tags":{"brand":"Wine Rack","name":"Wine Rack","shop":"wine","wheelchair":"yes"}}},{"type":"Feature","id":"node/2400999716","geometry":{"type":"Point","coordinates":[-61.7905464,47.4128877]},"properties":{"osm_type":"node","osm_id":2400999716,"category":"winery","name":"Le Barbocheux","tags":{"craft":"winery","name":"Le Barbocheux"}}},{"type":"Feature","id":"node/2477847935","geometry":{"type":"Point","coordinates":[-79.3896698,43.6707734]},"properties":{"osm_type":"node","osm_id":2477847935,"category":"wine_shop","name":"Wine Rack","tags":{"brand":"Wine Rack","name":"Wine Rack","shop":"wine"}}},{"type":"Feature","id":"node/2674284132","geometry":{"type":"Point","coordinates":[-79.6504729,43.499276]},"properties":{"osm_type":"node","osm_id":2674284132,"category":"wine_shop","name":"The Glass Half Full","tags":{"name":"The Glass Half Full","opening_hours":"Tu-Fr 10:00-19:00; Sa 10:00-16:00","phone":"+1-905-339-1604","shop":"wine","website":"http://GlassHalfFull.ca","wheelchair":"limited"}}},{"type":"Feature","id":"node/2681580826","geometry":{"type":"Point","coordinates":[-79.369253,43.6440214]},"properties":{"osm_type":"node","osm_id":2681580826,"category":"wine_shop","name":"Wine Rack","tags":{"brand":"Wine Rack","name":"Wine Rack","shop":"wine","website":"https://www.winerack.com/","wheelchair":"yes"}}},{"type":"Feature","id":"node/2895663529","geometry":{"type":"Point","coordinates":[-119.4882653,49.895039]},"properties":{"osm_type":"node","osm_id":2895663529,"category":"winery","name":"Calona Vineyards","tags":{"addr:housenumber":"1125","addr:street":"Richter Street","craft":"winery","name":"Calona Vineyards","phone":"+1-250-762-9144","shop":"alcohol","website":"https://www.andrewpeller.com/cascadia.php"}}},{"type":"Feature","id":"node/2895663530","geometry":{"type":"Point","coordinates":[-119.4882425,49.8947665]},"properties":{"osm_type":"node","osm_id":2895663530,"category":"winery","name":"Sandhill Wines","tags":{"addr:housenumber":"1125","addr:street":"Richter Street","craft":"winery","email":"requestinfo@sandhillwines.ca","name":"Sandhill Wines","phone":"+1-250-979-4211","shop":"wine","website":"https://www.sandhillwines.ca/"}}},{"type":"Feature","id":"node/3011763414","geometry":{"type":"Point","coordinates":[-66.657028,45.9406984]},"properties":{"osm_type":"node","osm_id":3011763414,"category":"wine_shop","name":"noble grape urban winery","tags":{"addr:city":"Fredericton","addr:housenumber":"1111","addr:postcode":"E3B 3Z2","addr:street":"Regent Street","name":"noble grape urban winery","opening_hours":"Mo-We 10:00-18:00, Th-Fr 10:00-19:00, Sa 10:00-17:00","shop":"wine"}}},{"type":"Feature","id":"node/3012507268","geometry":{"type":"Point","coordinates":[-64.5750699,44.5907338]},"properties":{"osm_type":"node","osm_id":3012507268,"category":"winery","name":"Lunenburg County Winery","tags":{"addr:housenumber":"813","addr:street":"Walburne Road","craft":"winery","name":"Lunenburg County Winery","shop":"alcohol"}}},{"type":"Feature","id":"node/3180221567","geometry":{"type":"Point","coordinates":[-123.3705525,48.4423044]},"properties":{"osm_type":"node","osm_id":3180221567,"category":"wine_shop","name":"Blanshard Street Winery","tags":{"addr:housenumber":"661","addr:street":"Burnside Road East","name":"Blanshard Street Winery","opening_hours":"Mo-Fr 10:00-18:00, Sa 09:00-17:00, Su 11:00-16:00","phone":"+1 250 475-3800","shop":"wine","website":"https://blanshardstreetwinery.com/"}}},{"type":"Feature","id":"node/3310750499","geometry":{"type":"Point","coordinates":[-122.2772626,49.0391319]},"properties":{"osm_type":"node","osm_id":3310750499,"category":"winery","name":"Abbotsford Wine","tags":{"craft":"winery","name":"Abbotsford Wine","opening_hours":"Mo-Fr 11:00-19:00; Sa 11:00-17:00; Su,PH off","phone":"+1-604-854-5353","shop":"doityourself","website":"https://abbotsfordwine.com/"}}},{"type":"Feature","id":"node/3366466465","geometry":{"type":"Point","coordinates":[-79.8049174,43.3431723]},"properties":{"osm_type":"node","osm_id":3366466465,"category":"winery","name":"Better Bitters Brewing Co","tags":{"addr:city":"Burlington","addr:housenumber":"864","addr:street":"Drury Lane","craft":"winery","name":"Better Bitters Brewing Co","website":"http://betterbitters.ca/"}}},{"type":"Feature","id":"node/3384377191","geometry":{"type":"Point","coordinates":[-79.4762412,43.1849055]},"properties":{"osm_type":"node","osm_id":3384377191,"category":"winery","name":"Magnotta","tags":{"craft":"winery","name":"Magnotta"}}},{"type":"Feature","id":"node/3396312924","geometry":{"type":"Point","coordinates":[-79.3939858,43.640586]},"properties":{"osm_type":"node","osm_id":3396312924,"category":"wine_shop","name":"The Wine Shop","tags":{"brand":"The Wine Shop","name":"The Wine Shop","opening_hours":"Mo-Sa 11:00-22:00; Su 12:00-21:00","shop":"wine","wheelchair":"yes"}}},{"type":"Feature","id":"node/3410784120","geometry":{"type":"Point","coordinates":[-79.7599648,43.5833789]},"properties":{"osm_type":"node","osm_id":3410784120,"category":"wine_shop","name":"Wine Rack","tags":{"addr:city":"Mississauga","addr:housenumber":"6677","addr:street":"Meadowvale Town Centre Circle","brand":"Wine Rack","name":"Wine Rack","shop":"wine"}}},{"type":"Feature","id":"node/3444992048","geometry":{"type":"Point","coordinates":[-79.8369679,43.5079448]},"properties":{"osm_type":"node","osm_id":3444992048,"category":"wine_shop","name":"Wine Rack","tags":{"brand":"Wine Rack","name":"Wine Rack","shop":"wine","website":"https://www.winerack.com/"}}},{"type":"Feature","id":"node/3451273266","geometry":{"type":"Point","coordinates":[-79.4487754,43.9121168]},"properties":{"osm_type":"node","osm_id":3451273266,"category":"wine_shop","name":"The Wine Shop","tags":{"brand":"The Wine Shop","name":"The Wine Shop","shop":"wine"}}},{"type":"Feature","id":"node/3465464196","geometry":{"type":"Point","coordinates":[-79.2910232,43.6895338]},"properties":{"osm_type":"node","osm_id":3465464196,"category":"wine_shop","name":"Wine Rack","tags":{"addr:city":"East York","addr:housenumber":"3003","addr:postcode":"M4C 1M9","addr:street":"Danforth Avenue","brand":"Wine Rack","name":"Wine Rack","opening_hours":"10:00-21:00","phone":"+14166944880","shop":"wine","website":"https://winerack.com"}}},{"type":"Feature","id":"node/3508238488","geometry":{"type":"Point","coordinates":[-68.3288783,47.3623618]},"properties":{"osm_type":"node","osm_id":3508238488,"category":"wine_shop","name":"Boutique J'Embouteille Le Kado","tags":{"addr:housenumber":"65","addr:street":"Rue Saint-François","name":"Boutique J'Embouteille Le Kado","phone":"+1-506-739-6862","shop":"wine","website":"http://www.jembouteille.com"}}},{"type":"Feature","id":"node/3531127948","geometry":{"type":"Point","coordinates":[-112.840434,49.6944735]},"properties":{"osm_type":"node","osm_id":3531127948,"category":"wine_shop","name":"Steel & Vines","tags":{"addr:housenumber":"332","addr:postcode":"T1J 0N3","addr:street":"5 Street S","email":"steelandvines@gmail.com","name":"Steel & Vines","opening_hours":"Th-Sa 17:00-22:00; Su-We off","phone":"+1-587-486-5433","shop":"wine"}}},{"type":"Feature","id":"node/3556414490","geometry":{"type":"Point","coordinates":[-76.3548612,45.4351636]},"properties":{"osm_type":"node","osm_id":3556414490,"category":"wine_shop","name":"Priority Wines","tags":{"addr:city":"Arnprior","addr:housenumber":"67","addr:postcode":"K7S 1S1","addr:street":"Madawaska Street","name":"Priority Wines","shop":"wine"}}},{"type":"Feature","id":"node/3587203893","geometry":{"type":"Point","coordinates":[-122.2910024,49.0488671]},"properties":{"osm_type":"node","osm_id":3587203893,"category":"wine_shop","name":"Amici Wine Bar Osteria & Enoteca","tags":{"addr:housenumber":"33724","addr:postcode":"V2S 2G9","addr:street":"Essendene Avenue","amenity":"restaurant","cuisine":"italian","name":"Amici Wine Bar Osteria & Enoteca","shop":"wine","website":"https://www.amiciwinebar.com"}}},{"type":"Feature","id":"node/3641697938","geometry":{"type":"Point","coordinates":[-75.7820157,45.3710296]},"properties":{"osm_type":"node","osm_id":3641697938,"category":"wine_shop","name":"Premium Vintages","tags":{"addr:housenumber":"102 C","addr:street":"McEwen Avenue","name":"Premium Vintages","shop":"wine"}}},{"type":"Feature","id":"node/3655902591","geometry":{"type":"Point","coordinates":[-76.5816735,44.2590782]},"properties":{"osm_type":"node","osm_id":3655902591,"category":"wine_shop","name":"winexpert","tags":{"name":"winexpert","shop":"wine"}}},{"type":"Feature","id":"node/3655927593","geometry":{"type":"Point","coordinates":[-76.5913333,44.251726]},"properties":{"osm_type":"node","osm_id":3655927593,"category":"wine_shop","name":"Bayridge Cask & Keg","tags":{"name":"Bayridge Cask & Keg","shop":"wine"}}},{"type":"Feature","id":"node/3655955617","geometry":{"type":"Point","coordinates":[-76.5037674,44.2686263]},"properties":{"osm_type":"node","osm_id":3655955617,"category":"wine_shop","name":"Magnotta Winery","tags":{"name":"Magnotta Winery","shop":"wine"}}},{"type":"Feature","id":"node/3710067744","geometry":{"type":"Point","coordinates":[-79.4818068,43.6597854]},"properties":{"osm_type":"node","osm_id":3710067744,"category":"wine_shop","name":"Wine Lovers Agency","tags":{"name":"Wine Lovers Agency","shop":"wine"}}},{"type":"Feature","id":"node/3710067746","geometry":{"type":"Point","coordinates":[-79.4817341,43.659804]},"properties":{"osm_type":"node","osm_id":3710067746,"category":"wine_shop","name":"enostore","tags":{"addr:housenumber":"590","addr:street":"Annette Street","name":"enostore","shop":"wine","website":"https://www.enostore.ca/"}}},{"type":"Feature","id":"node/3731044749","geometry":{"type":"Point","coordinates":[-77.1659786,43.9988708]},"properties":{"osm_type":"node","osm_id":3731044749,"category":"wine_shop","name":"Black Prince Winery","tags":{"addr:housenumber":"13370","addr:street":"Highway 33","name":"Black Prince Winery","shop":"wine"}}},{"type":"Feature","id":"node/3735212949","geometry":{"type":"Point","coordinates":[-79.4807384,43.6307512]},"properties":{"osm_type":"node","osm_id":3735212949,"category":"wine_shop","name":"The Wine Shop","tags":{"brand":"The Wine Shop","name":"The Wine Shop","phone":"+1-416-201-8221","shop":"wine","website":"https://www.thewineshops.com/"}}},{"type":"Feature","id":"node/3746073209","geometry":{"type":"Point","coordinates":[-79.7067526,43.6036285]},"properties":{"osm_type":"node","osm_id":3746073209,"category":"wine_shop","name":"Vintner's Cellar","tags":{"name":"Vintner's Cellar","shop":"wine","website":"https://www.vintnerscellar.ca/"}}},{"type":"Feature","id":"node/3758770299","geometry":{"type":"Point","coordinates":[-79.071754,43.205982]},"properties":{"osm_type":"node","osm_id":3758770299,"category":"winery","name":"Marynissen Estates","tags":{"addr:city":"Niagara-On-The-Lake","addr:housenumber":"1208","addr:street":"Concession 1","craft":"winery","name":"Marynissen Estates","phone":"+1-905-469-7270","shop":"wine","website":"https://marynissen.com/"}}},{"type":"Feature","id":"node/3783348293","geometry":{"type":"Point","coordinates":[-63.3772268,45.7965861]},"properties":{"osm_type":"node","osm_id":3783348293,"category":"wine_shop","name":"Jost Winery","tags":{"addr:city":"Malagasy","addr:housenumber":"48","addr:postcode":"B0K 1E0","addr:street":"Vintage Lane","name":"Jost Winery","opening_hours":"Oct,Nov,Dec,Jan,Feb,Mar,Apr 09:00-17:00; Jun,Jul,Aug,Sep 09:00-18:00","operator":"Jost Vineyards","shop":"wine"}}},{"type":"Feature","id":"node/3805570956","geometry":{"type":"Point","coordinates":[-80.1062032,44.3265338]},"properties":{"osm_type":"node","osm_id":3805570956,"category":"wine_shop","name":"Chin Chin","tags":{"addr:city":"Creemore","addr:housenumber":"180","addr:postcode":"L0M 1G0","addr:street":"Mill Street","name":"Chin Chin","shop":"wine","website":"https://chinchinshop.ca"}}},{"type":"Feature","id":"node/3849723174","geometry":{"type":"Point","coordinates":[-79.720759,43.71556]},"properties":{"osm_type":"node","osm_id":3849723174,"category":"wine_shop","name":"The Wine Shop","tags":{"brand":"The Wine Shop","name":"The Wine Shop","shop":"wine"}}},{"type":"Feature","id":"node/3882118306","geometry":{"type":"Point","coordinates":[-79.5002858,43.1644754]},"properties":{"osm_type":"node","osm_id":3882118306,"category":"winery","name":"Domaine Le Clos Jordanne","tags":{"addr:city":"Beamsville","addr:housenumber":"4260","addr:street":"Mountainview Road","craft":"winery","name":"Domaine Le Clos Jordanne","opening_hours":"Mo-Su 11:00-17:00","phone":"+1-905-563-3942","shop":"wine","website":"https://www.leclosjordanne.com"}}},{"type":"Feature","id":"node/3882118308","geometry":{"type":"Point","coordinates":[-79.4955211,43.1521401]},"properties":{"osm_type":"node","osm_id":3882118308,"category":"winery","name":"Fielding Estate Winery","tags":{"addr:city":"Beamsville","addr:housenumber":"4020","addr:street":"Locust Lane","craft":"winery","name":"Fielding Estate Winery","phone":"+1-905-563-0668","shop":"wine","website":"https://fieldingwines.com/"}}},{"type":"Feature","id":"node/3882118317","geometry":{"type":"Point","coordinates":[-79.494948,43.1565031]},"properties":{"osm_type":"node","osm_id":3882118317,"category":"winery","name":"The Organized Crime Winery","tags":{"addr:city":"Beamsville","addr:housenumber":"4043","addr:street":"Mountainview Road","craft":"winery","name":"The Organized Crime Winery","opening_hours":"Th-Tu 11:00-17:00","phone":"+1-905-563-9802","shop":"wine","website":"https://www.organizedcrimewinery.com/"}}},{"type":"Feature","id":"node/3882118319","geometry":{"type":"Point","coordinates":[-79.4956306,43.1660198]},"properties":{"osm_type":"node","osm_id":3882118319,"category":"winery","name":"Thirty Bench Wine Makers","tags":{"addr:city":"Beamsville","addr:housenumber":"4281","addr:street":"Mountainview Road","craft":"winery","name":"Thirty Bench Wine Makers","phone":"+1-905-563-1698","shop":"wine","website":"https://thirtybench.com/"}}},{"type":"Feature","id":"node/3918887694","geometry":{"type":"Point","coordinates":[-78.3726917,44.5864264]},"properties":{"osm_type":"node","osm_id":3918887694,"category":"winery","name":"Kawartha Country Wines","tags":{"addr:city":"Township of Galway-Cavendish and Harvey","addr:housenumber":"2452","addr:street":"County Road 36","craft":"winery","name":"Kawartha Country Wines","website":"https://kawarthacountrywines.ca/"}}},{"type":"Feature","id":"node/3949994210","geometry":{"type":"Point","coordinates":[-79.5487883,43.6493053]},"properties":{"osm_type":"node","osm_id":3949994210,"category":"winery","name":"Haus of Vine","tags":{"addr:housenumber":"139","addr:street":"Martin Grove Road","craft":"winery","name":"Haus of Vine","shop":"wine","website":"https://www.hausofvine.ca/"}}},{"type":"Feature","id":"node/3976485266","geometry":{"type":"Point","coordinates":[-79.7778652,43.5838012]},"properties":{"osm_type":"node","osm_id":3976485266,"category":"wine_shop","name":"Wine Rack","tags":{"brand":"Wine Rack","name":"Wine Rack","shop":"wine"}}},{"type":"Feature","id":"node/3997798097","geometry":{"type":"Point","coordinates":[-79.7325181,43.3682757]},"properties":{"osm_type":"node","osm_id":3997798097,"category":"wine_shop","name":"The Wine Shop","tags":{"brand":"The Wine Shop","name":"The Wine Shop","shop":"wine"}}},{"type":"Feature","id":"node/4058370159","geometry":{"type":"Point","coordinates":[-79.1695449,43.7837325]},"properties":{"osm_type":"node","osm_id":4058370159,"category":"wine_shop","name":"Wine Kitz","tags":{"name":"Wine Kitz","shop":"wine"}}},{"type":"Feature","id":"node/4079501191","geometry":{"type":"Point","coordinates":[-122.297974,49.0597925]},"properties":{"osm_type":"node","osm_id":4079501191,"category":"winery","name":"Calder's Wine Cellar","tags":{"addr:housenumber":"33465","addr:street":"Maclure Road","alt_name":"Calders Wine","craft":"winery","name":"Calder's Wine Cellar","opening_hours":"Su-Mo off; Tu-Sa 10:00-17:00","phone":"+1-604-504-3600","website":"https://www.calderswine.com/"}}},{"type":"Feature","id":"node/4130719610","geometry":{"type":"Point","coordinates":[-82.8882314,41.9912044]},"properties":{"osm_type":"node","osm_id":4130719610,"category":"winery","name":"Oxley Estate Winery","tags":{"addr:city":"Harrow","addr:housenumber":"533","addr:street":"County Road 50","craft":"winery","name":"Oxley Estate Winery","phone":"+1-519-738-3264","website":"https://www.oxleyestatewinery.com/"}}},{"type":"Feature","id":"node/4194436789","geometry":{"type":"Point","coordinates":[-78.9866504,44.0439018]},"properties":{"osm_type":"node","osm_id":4194436789,"category":"winery","name":"Ocala Orchards Farm Winery","tags":{"addr:city":"Port Perry","addr:housenumber":"971","addr:postcode":"L9L 1B3","addr:street":"High Point Road","craft":"winery","name":"Ocala Orchards Farm Winery","phone":"+1-905-985-9924","website":"https://www.ocalawinery.com/"}}},{"type":"Feature","id":"node/4211270019","geometry":{"type":"Point","coordinates":[-79.1413337,43.2502065]},"properties":{"osm_type":"node","osm_id":4211270019,"category":"wine_shop","name":"Konzelmann Estate Winery","tags":{"addr:city":"Niagara-On-The-Lake","addr:housenumber":"1096","addr:street":"Lakeshore Road","name":"Konzelmann Estate Winery","phone":"+1-905-935-2866","shop":"wine","website":"https://konzelmann.ca/"}}},{"type":"Feature","id":"node/4254446993","geometry":{"type":"Point","coordinates":[-80.3906893,42.6709799]},"properties":{"osm_type":"node","osm_id":4254446993,"category":"winery","name":"Blueberry Hill Estates","tags":{"addr:city":"St. Williams","addr:housenumber":"1195","addr:street":"Front Road","craft":"winery","name":"Blueberry Hill Estates","phone":"+1-519-586-8712","shop":"wine","website":"http://blueberry-hill.ca/"}}},{"type":"Feature","id":"node/4254446994","geometry":{"type":"Point","coordinates":[-80.3523672,42.6882897]},"properties":{"osm_type":"node","osm_id":4254446994,"category":"winery","name":"Burning Kiln Winery","tags":{"addr:city":"St. Williams","addr:housenumber":"1709","addr:street":"Front Road","craft":"winery","name":"Burning Kiln Winery","phone":"+1-519-586-9858","shop":"wine","website":"https://www.burningkilnwinery.ca/"}}},{"type":"Feature","id":"node/4274049889","geometry":{"type":"Point","coordinates":[-119.5589343,49.3897085]},"properties":{"osm_type":"node","osm_id":4274049889,"category":"wine_shop","name":"Blasted Church Vineyards","tags":{"addr:housenumber":"378","addr:street":"Parsons Road","name":"Blasted Church Vineyards","opening_hours":"Mo-Su 11:00-17:00","phone":"+1-250-497-1125","shop":"wine","website":"https://blastedchurch.com/"}}},{"type":"Feature","id":"node/4290431994","geometry":{"type":"Point","coordinates":[-119.5409244,49.7892215]},"properties":{"osm_type":"node","osm_id":4290431994,"category":"winery","name":"CedarCreek Estate Winery","tags":{"addr:city":"Kelowna","addr:housenumber":"5445","addr:postcode":"V1W 4S5","addr:street":"Lakeshore Road","alt_name":"Cedar Creek Estate Winery","craft":"winery","name":"CedarCreek Estate Winery","phone":"+1-778-738-1020","shop":"alcohol","website":"https://www.cedarcreek.bc.ca/"}}},{"type":"Feature","id":"node/4299509595","geometry":{"type":"Point","coordinates":[-119.6075679,49.4945103]},"properties":{"osm_type":"node","osm_id":4299509595,"category":"wine_shop","name":"VQA Wine Store","tags":{"addr:housenumber":"400","name":"VQA Wine Store","shop":"wine"}}},{"type":"Feature","id":"node/4307915120","geometry":{"type":"Point","coordinates":[-73.5689466,45.4874464]},"properties":{"osm_type":"node","osm_id":4307915120,"category":"wine_bar","name":"Code Ambiance","tags":{"addr:city":"Montréal","addr:housenumber":"1874","addr:street":"Rue Notre-Dame Ouest","amenity":"restaurant","cuisine":"wine","name":"Code Ambiance"}}},{"type":"Feature","id":"node/4308220424","geometry":{"type":"Point","coordinates":[-79.5683236,43.1972422]},"properties":{"osm_type":"node","osm_id":4308220424,"category":"wine_shop","name":"Wine Rack","tags":{"brand":"Wine Rack","name":"Wine Rack","shop":"wine"}}},{"type":"Feature","id":"node/4331452390","geometry":{"type":"Point","coordinates":[-71.1133399,46.8634125]},"properties":{"osm_type":"node","osm_id":4331452390,"category":"wine_shop","name":"Vignoble Ste-Pétronille","tags":{"addr:housenumber":"8705","addr:street":"Chemin Royal","name":"Vignoble Ste-Pétronille","shop":"wine"}}},{"type":"Feature","id":"node/4331502989","geometry":{"type":"Point","coordinates":[-71.0941797,46.8769454]},"properties":{"osm_type":"node","osm_id":4331502989,"category":"wine_shop","name":"Cassis Mona & Filles","tags":{"addr:housenumber":"1225","addr:street":"Chemin Royal","name":"Cassis Mona & Filles","shop":"wine"}}},{"type":"Feature","id":"node/4331502990","geometry":{"type":"Point","coordinates":[-70.9659181,46.9667746]},"properties":{"osm_type":"node","osm_id":4331502990,"category":"wine_shop","name":"Domaine de la source a Marguerite","tags":{"addr:housenumber":"2388","addr:street":"Chemin Royal","name":"Domaine de la source a Marguerite","shop":"wine"}}},{"type":"Feature","id":"node/4340260224","geometry":{"type":"Point","coordinates":[-119.549106,49.1099108]},"properties":{"osm_type":"node","osm_id":4340260224,"category":"winery","name":"Black Hills Estate Winery","tags":{"addr:housenumber":"4190","addr:street":"Black Sage Road","craft":"winery","email":"info@blackhillswinery.com","name":"Black Hills Estate Winery","phone":"+1-250-498-0666","shop":"alcohol","website":"https://www.blackhillswinery.com/"}}},{"type":"Feature","id":"node/4340408693","geometry":{"type":"Point","coordinates":[-119.4291385,49.8392609]},"properties":{"osm_type":"node","osm_id":4340408693,"category":"wine_shop","name":"Spierhead Winery","tags":{"name":"Spierhead Winery","shop":"wine"}}},{"type":"Feature","id":"node/4340420689","geometry":{"type":"Point","coordinates":[-119.4593038,49.8342405]},"properties":{"osm_type":"node","osm_id":4340420689,"category":"winery","name":"Tantalus Vineyards","tags":{"addr:housenumber":"1670","addr:street":"DeHart Road","alt_name":"Tantalus Wines","craft":"winery","email":"info@tantalus.ca","name":"Tantalus Vineyards","phone":"+1-250-764-0078","shop":"alcohol","website":"https://tantalus.ca/"}}},{"type":"Feature","id":"node/4341949189","geometry":{"type":"Point","coordinates":[-119.5640465,49.5078817]},"properties":{"osm_type":"node","osm_id":4341949189,"category":"winery","name":"South Upper Bench Road","tags":{"addr:housenumber":"170","addr:street":"Upper Bench Road South","craft":"winery","email":"info@upperbench.ca","name":"South Upper Bench Road","phone":"+1-250-770-1733","shop":"alcohol","website":"https://www.upperbench.ca/"}}},{"type":"Feature","id":"node/4346317863","geometry":{"type":"Point","coordinates":[-123.5093796,48.8597516]},"properties":{"osm_type":"node","osm_id":4346317863,"category":"winery","name":"Bishop's Brew House","tags":{"addr:housenumber":"346","addr:street":"Lower Ganges Road","craft":"winery","name":"Bishop's Brew House","opening_hours":"Tu-Fr 10:00-14:00","phone":"+1-250-537-1429","shop":"brewing_supplies"}}},{"type":"Feature","id":"node/4357734392","geometry":{"type":"Point","coordinates":[-79.4394829,43.6701111]},"properties":{"osm_type":"node","osm_id":4357734392,"category":"winery","name":"Macedo Winery","tags":{"addr:city":"Toronto","addr:housenumber":"1381","addr:postcode":"M6H 4C7","addr:street":"Dufferin Street","craft":"winery","email":"daisy@macedowinery.ca","name":"Macedo Winery","phone":"+1-416-535-0416","website":"http://www.macedowinery.ca"}}},{"type":"Feature","id":"node/4395612348","geometry":{"type":"Point","coordinates":[-106.5685378,52.1477621]},"properties":{"osm_type":"node","osm_id":4395612348,"category":"winery","name":"Vintner's Cellar","tags":{"craft":"winery","name":"Vintner's Cellar"}}},{"type":"Feature","id":"node/4397887294","geometry":{"type":"Point","coordinates":[-79.2732045,43.9816136]},"properties":{"osm_type":"node","osm_id":4397887294,"category":"wine_shop","name":"Willow Springs Winery","tags":{"addr:housenumber":"5572","addr:street":"Bethesda Sideroad","name":"Willow Springs Winery","name:en":"Willow Springs Winery","shop":"wine"}}},{"type":"Feature","id":"node/4397917993","geometry":{"type":"Point","coordinates":[-79.2619995,43.989952]},"properties":{"osm_type":"node","osm_id":4397917993,"category":"wine_shop","name":"Gallucci Winery","tags":{"addr:housenumber":"13204","addr:street":"9th Line","name":"Gallucci Winery","name:en":"Gallucci Winery","shop":"wine"}}},{"type":"Feature","id":"node/4397978289","geometry":{"type":"Point","coordinates":[-79.3048695,43.9597403]},"properties":{"osm_type":"node","osm_id":4397978289,"category":"wine_shop","name":"Applewood Orchard Winery","tags":{"addr:housenumber":"12442","addr:street":"McCowan Road","name":"Applewood Orchard Winery","name:en":"Applewood Orchard Winery","shop":"wine"}}},{"type":"Feature","id":"node/4400524818","geometry":{"type":"Point","coordinates":[-77.3578474,44.1671109]},"properties":{"osm_type":"node","osm_id":4400524818,"category":"wine_shop","name":"Wine Rack","tags":{"brand":"Wine Rack","name":"Wine Rack","shop":"wine"}}},{"type":"Feature","id":"node/4413315336","geometry":{"type":"Point","coordinates":[-73.0381738,45.4568374]},"properties":{"osm_type":"node","osm_id":4413315336,"category":"winery","name":"Cidrerie Michel Jodoin","tags":{"addr:city":"Rougemont","addr:housenumber":"1130","addr:street":"La Petite-Caroline","craft":"winery","name":"Cidrerie Michel Jodoin"}}},{"type":"Feature","id":"node/4438778351","geometry":{"type":"Point","coordinates":[-123.0955492,49.2841795]},"properties":{"osm_type":"node","osm_id":4438778351,"category":"winery","name":"Vancouver Urban Winery","tags":{"addr:housenumber":"55","addr:street":"Dunlevy Avenue","craft":"winery","email":"info@vancouverurbanwinery.com","name":"Vancouver Urban Winery","opening_hours":"Mo-We 11:00-23:00; Th-Fr 11:00-00:00; Sa 10:00-00:00; Su 10:00-23:00","phone":"+1-604-566-9463","shop":"alcohol","website":"https://www.vancouverurbanwinery.com/"}}},{"type":"Feature","id":"node/4444939280","geometry":{"type":"Point","coordinates":[-119.5970088,49.1435037]},"properties":{"osm_type":"node","osm_id":4444939280,"category":"winery","name":"Hester Creek Winery","tags":{"addr:city":"Oliver","addr:housenumber":"877","addr:postcode":"V0H !T0","addr:street":"Road 8","craft":"winery","email":"info@hestercreek.com","name":"Hester Creek Winery","phone":"+1-250-498-4435","shop":"alcohol","website":"https://hestercreek.com/"}}},{"type":"Feature","id":"node/4465522246","geometry":{"type":"Point","coordinates":[-81.1452732,44.0932909]},"properties":{"osm_type":"node","osm_id":4465522246,"category":"winery","name":"Hoity Toity Cellars","tags":{"addr:city":"Mildmay","addr:housenumber":"1723","addr:postcode":"N0G 2V0","addr:street":"Highway 9","craft":"winery","name":"Hoity Toity Cellars","opening_hours":"10:00-17:30; Mo-Tu off; Su 11:00-16:00","phone":"+1-519-507-1723","shop":"wine","website":"http://www.hoitytoitycellars.ca/"}}},{"type":"Feature","id":"node/4466619484","geometry":{"type":"Point","coordinates":[-75.6306194,45.4108235]},"properties":{"osm_type":"node","osm_id":4466619484,"category":"wine_shop","name":"Magnotta","tags":{"addr:housenumber":"1010","addr:street":"Belfast Road","name":"Magnotta","opening_hours":"Mo-Fr 9:00-19:00; Sa 9:00-18:00; Su 11:00-18:00","phone":"+1 613-971-0633","shop":"wine","website":"https://magnotta.com/"}}},{"type":"Feature","id":"node/4565218500","geometry":{"type":"Point","coordinates":[-72.7843632,45.0268508]},"properties":{"osm_type":"node","osm_id":4565218500,"category":"winery","name":"Domaine Héritage","tags":{"addr:housenumber":"150","addr:street":"Chemin de Richford","craft":"winery","name":"Domaine Héritage"}}},{"type":"Feature","id":"node/4565219210","geometry":{"type":"Point","coordinates":[-72.8593664,45.1098653]},"properties":{"osm_type":"node","osm_id":4565219210,"category":"winery","name":"Vignoble de l'Orpailleur","tags":{"addr:city":"Dunham","addr:housenumber":"1086","addr:street":"Rue Bruce","craft":"winery","name":"Vignoble de l'Orpailleur"}}},{"type":"Feature","id":"node/4565219212","geometry":{"type":"Point","coordinates":[-72.8564506,45.1097782]},"properties":{"osm_type":"node","osm_id":4565219212,"category":"winery","name":"Vignoble Gagliano","tags":{"addr:city":"Dunham","addr:housenumber":"1046","addr:street":"Rue Bruce","craft":"winery","name":"Vignoble Gagliano"}}},{"type":"Feature","id":"node/4565219214","geometry":{"type":"Point","coordinates":[-72.8564956,45.1091289]},"properties":{"osm_type":"node","osm_id":4565219214,"category":"winery","name":"UNION LIBRE cidre & vin","tags":{"addr:city":"Dunham","addr:housenumber":"1047","addr:street":"Rue Bruce","craft":"winery","name":"UNION LIBRE cidre & vin"}}},{"type":"Feature","id":"node/4565219215","geometry":{"type":"Point","coordinates":[-72.8159134,45.1257182]},"properties":{"osm_type":"node","osm_id":4565219215,"category":"winery","name":"Vignoble les Trois Clochers Enr.","tags":{"addr:housenumber":"341","addr:street":"Rue Bruce","craft":"winery","name":"Vignoble les Trois Clochers Enr."}}},{"type":"Feature","id":"node/4565219216","geometry":{"type":"Point","coordinates":[-72.8012405,45.129706]},"properties":{"osm_type":"node","osm_id":4565219216,"category":"winery","name":"Vignoble Centaure","tags":{"addr:housenumber":"3848","addr:street":"Rue Principale","craft":"winery","name":"Vignoble Centaure"}}},{"type":"Feature","id":"node/4565744956","geometry":{"type":"Point","coordinates":[-73.1502327,45.3476028]},"properties":{"osm_type":"node","osm_id":4565744956,"category":"winery","name":"Vergers et Cidrerie Denis Charbonneau","tags":{"craft":"winery","name":"Vergers et Cidrerie Denis Charbonneau"}}},{"type":"Feature","id":"node/4569917946","geometry":{"type":"Point","coordinates":[-72.9380554,45.0403451]},"properties":{"osm_type":"node","osm_id":4569917946,"category":"winery","name":"Vignoble Pigeon Hill","tags":{"addr:city":"Saint-Armand","addr:housenumber":"395","addr:street":"Chemin des Érables","craft":"winery","name":"Vignoble Pigeon Hill"}}},{"type":"Feature","id":"node/4586898090","geometry":{"type":"Point","coordinates":[-79.1079855,43.2331671]},"properties":{"osm_type":"node","osm_id":4586898090,"category":"wine_shop","name":"Joseph's Estate Wines","tags":{"addr:housenumber":"1811","addr:street":"Niagara Stone Road","name":"Joseph's Estate Wines","name:en":"Joseph's Estate Wines","phone":"+1-905-468-1259","shop":"wine","website":"https://josephsestatewines.com/"}}},{"type":"Feature","id":"node/4586898698","geometry":{"type":"Point","coordinates":[-79.0966355,43.2407542]},"properties":{"osm_type":"node","osm_id":4586898698,"category":"wine_shop","name":"Stratus Wineyards","wikidata":"Q109902145","tags":{"addr:housenumber":"2059","addr:postcode":"L0S 1J0","addr:street":"Niagara Stone Road","name":"Stratus Wineyards","name:en":"Stratus Wineyards","phone":"+1-905-468-1806","shop":"wine","website":"https://stratuswines.com/","wikidata":"Q109902145"}}},{"type":"Feature","id":"node/4606558211","geometry":{"type":"Point","coordinates":[-119.652123,49.580956]},"properties":{"osm_type":"node","osm_id":4606558211,"category":"winery","name":"Heaven's Gate Estate Winery","tags":{"addr:city":"Summerland","addr:housenumber":"8001","addr:postcode":"V0H 1Z4","addr:street":"Happy Valley Road","craft":"winery","email":"info@heavensgatewinery.com","name":"Heaven's Gate Estate Winery","phone":"+1-778-516-5505","shop":"alcohol","website":"https://heavensgatewinery.com/"}}},{"type":"Feature","id":"node/4618645648","geometry":{"type":"Point","coordinates":[-73.2220071,46.1160108]},"properties":{"osm_type":"node","osm_id":4618645648,"category":"winery","name":"Vignoble du Vent Maudit","tags":{"craft":"winery","name":"Vignoble du Vent Maudit"}}},{"type":"Feature","id":"node/4685699295","geometry":{"type":"Point","coordinates":[-72.6666577,45.1190419]},"properties":{"osm_type":"node","osm_id":4685699295,"category":"winery","name":"Le Domaine Perdu","tags":{"craft":"winery","name":"Le Domaine Perdu"}}},{"type":"Feature","id":"node/4737293921","geometry":{"type":"Point","coordinates":[-79.4619705,43.6985586]},"properties":{"osm_type":"node","osm_id":4737293921,"category":"wine_shop","name":"Magnotta Winery","tags":{"addr:housenumber":"1320","addr:street":"Castlefield Avenue","name":"Magnotta Winery","phone":"+1-416-783-5753","shop":"wine"}}},{"type":"Feature","id":"node/4740902882","geometry":{"type":"Point","coordinates":[-123.003942,49.2294931]},"properties":{"osm_type":"node","osm_id":4740902882,"category":"wine_shop","name":"Pillitteri","tags":{"addr:housenumber":"4500","addr:street":"Kingsway","name":"Pillitteri","name:en":"Pillitteri","shop":"wine"}}},{"type":"Feature","id":"node/4756216521","geometry":{"type":"Point","coordinates":[-73.5710667,45.0457332]},"properties":{"osm_type":"node","osm_id":4756216521,"category":"winery","name":"Domaine Neige","tags":{"addr:housenumber":"617","addr:street":"Route 202 Est","craft":"winery","name":"Domaine Neige"}}},{"type":"Feature","id":"node/4756216522","geometry":{"type":"Point","coordinates":[-73.5673305,45.0457306]},"properties":{"osm_type":"node","osm_id":4756216522,"category":"winery","name":"Vignoble Le Chat Botté","tags":{"addr:housenumber":"633","addr:street":"Route 202 Est","craft":"winery","name":"Vignoble Le Chat Botté"}}},{"type":"Feature","id":"node/4781903123","geometry":{"type":"Point","coordinates":[-75.6966382,45.4150884]},"properties":{"osm_type":"node","osm_id":4781903123,"category":"wine_shop","name":"Wine Rack","tags":{"addr:housenumber":"296","addr:street":"Bank Street","brand":"Wine Rack","name":"Wine Rack","opening_hours":"Mo-Sa 09:00-22:00; Su 09:00-21:00","shop":"wine"}}},{"type":"Feature","id":"node/4783356570","geometry":{"type":"Point","coordinates":[-73.9754427,45.5637069]},"properties":{"osm_type":"node","osm_id":4783356570,"category":"winery","name":"Vignoble Rivière du Chêne","tags":{"craft":"winery","name":"Vignoble Rivière du Chêne"}}},{"type":"Feature","id":"node/4784678023","geometry":{"type":"Point","coordinates":[-77.5266691,43.9738456]},"properties":{"osm_type":"node","osm_id":4784678023,"category":"wine_shop","name":"Redtail Vineyard","tags":{"addr:housenumber":"422","addr:street":"Partridge Hollow Road","name":"Redtail Vineyard","name:en":"Redtail Vineyard","shop":"wine"}}},{"type":"Feature","id":"node/4784678024","geometry":{"type":"Point","coordinates":[-77.4366802,43.9553218]},"properties":{"osm_type":"node","osm_id":4784678024,"category":"wine_shop","name":"Norman Hardie winerie","tags":{"addr:housenumber":"1152","addr:street":"Greer Road","name":"Norman Hardie winerie","name:en":"Norman Hardie winerie","shop":"wine"}}},{"type":"Feature","id":"node/4793060224","geometry":{"type":"Point","coordinates":[-119.4421228,50.0527584]},"properties":{"osm_type":"node","osm_id":4793060224,"category":"wine_shop","name":"Gray Monk Estate Winery","tags":{"addr:city":"Lake Country","addr:housenumber":"1055","addr:street":"Camp Road","name":"Gray Monk Estate Winery","shop":"wine"}}},{"type":"Feature","id":"node/4800188686","geometry":{"type":"Point","coordinates":[-79.1203484,43.2526112]},"properties":{"osm_type":"node","osm_id":4800188686,"category":"winery","name":"Sunnybrook Winery","wikidata":"Q109916240","tags":{"addr:housenumber":"1425","addr:postcode":"L0S 1J0","addr:street":"Lakeshore Road","craft":"winery","email":"info@sunnybrookwine.com","name":"Sunnybrook Winery","phone":"+1-905-468-1122","shop":"wine","website":"http://www.sunnybrookwine.com/","wikidata":"Q109916240"}}},{"type":"Feature","id":"node/4800188720","geometry":{"type":"Point","coordinates":[-79.1718295,43.2247069]},"properties":{"osm_type":"node","osm_id":4800188720,"category":"winery","name":"Small Talk Vinyards","tags":{"addr:housenumber":"1242","addr:postcode":"L0S 1J0","addr:street":"Irving Road","craft":"winery","email":"gossip@smalltalkvineyards.com","name":"Small Talk Vinyards","phone":"+1-905-935-3535","website":"http://smalltalkvineyards.com"}}},{"type":"Feature","id":"node/4847467588","geometry":{"type":"Point","coordinates":[-72.5551775,45.3099105]},"properties":{"osm_type":"node","osm_id":4847467588,"category":"winery","name":"La Belle Alliance","tags":{"addr:housenumber":"239","addr:street":"Chemin de Fulford","craft":"winery","name":"La Belle Alliance"}}},{"type":"Feature","id":"node/4893051922","geometry":{"type":"Point","coordinates":[-119.5592655,49.8456006]},"properties":{"osm_type":"node","osm_id":4893051922,"category":"winery","name":"The hatch","tags":{"addr:housenumber":"3225","addr:street":"Boucherie Road","craft":"winery","name":"The hatch","opening_hours":"Su-Sa 11:00-19:00","phone":"+1-778-755-6013","shop":"alcohol","website":"https://thehatchwines.com/"}}},{"type":"Feature","id":"node/4893051923","geometry":{"type":"Point","coordinates":[-119.5753603,49.5949552]},"properties":{"osm_type":"node","osm_id":4893051923,"category":"winery","name":"Daydreamer Wines","tags":{"addr:housenumber":"1305","addr:street":"Smethurst Road","craft":"winery","email":"wine@daydreamerwines.ca","name":"Daydreamer Wines","phone":"+1-778-514-0026","shop":"alcohol"}}},{"type":"Feature","id":"node/4893051924","geometry":{"type":"Point","coordinates":[-119.7403281,49.6984731]},"properties":{"osm_type":"node","osm_id":4893051924,"category":"winery","name":"Fitzpatrick Family Vineyards at Greata Ranch","tags":{"addr:housenumber":"697","addr:street":"Okanagan Highway","craft":"winery","email":"nfo@fitzwine.com","name":"Fitzpatrick Family Vineyards at Greata Ranch","phone":"+1-250-767-2768","shop":"alcohol","website":"https://www.fitzwine.com/"}}},{"type":"Feature","id":"node/4893055521","geometry":{"type":"Point","coordinates":[-119.5591061,49.522483]},"properties":{"osm_type":"node","osm_id":4893055521,"category":"winery","name":"Little Engine Wines","tags":{"addr:housenumber":"851","addr:street":"Naramata Road","craft":"winery","email":"info@littleenginewines.com","name":"Little Engine Wines","phone":"+1-250-493-0033","shop":"alcohol","website":"https://www.littleenginewines.com/"}}},{"type":"Feature","id":"node/4893055721","geometry":{"type":"Point","coordinates":[-119.4777883,49.0374002]},"properties":{"osm_type":"node","osm_id":4893055721,"category":"winery","name":"Bordertown Cider & Winery","tags":{"addr:housenumber":"9140","addr:street":"92nd Avenue","craft":"winery","email":"info@bordertownwinery.com","name":"Bordertown Cider & Winery","phone":"+1-250-495-3332","shop":"alcohol","website":"https://bordertownwinery.com/"}}},{"type":"Feature","id":"node/4951218624","geometry":{"type":"Point","coordinates":[-79.4277562,43.6425714]},"properties":{"osm_type":"node","osm_id":4951218624,"category":"wine_shop","name":"The Wine Shop","tags":{"addr:city":"Toronto","addr:housenumber":"1230","addr:street":"Queen Street West","brand":"The Wine Shop","name":"The Wine Shop","opening_hours":"Su 11:00-18:00; Mo-Sa 09:30-23:00","shop":"wine"}}},{"type":"Feature","id":"node/4964897022","geometry":{"type":"Point","coordinates":[-72.2386592,45.7230092]},"properties":{"osm_type":"node","osm_id":4964897022,"category":"winery","name":"Les Vallons de Wadleigh","tags":{"craft":"winery","name":"Les Vallons de Wadleigh"}}},{"type":"Feature","id":"node/4978680309","geometry":{"type":"Point","coordinates":[-80.4883607,43.4399643]},"properties":{"osm_type":"node","osm_id":4978680309,"category":"wine_shop","name":"Wine Butler","tags":{"addr:city":"Kitchener","addr:housenumber":"232","addr:street":"Madison Avenue South","brand":"Wine Butler","name":"Wine Butler","phone":"+1-226-241-9169","shop":"wine"}}},{"type":"Feature","id":"node/4990823325","geometry":{"type":"Point","coordinates":[-77.3699907,44.0032964]},"properties":{"osm_type":"node","osm_id":4990823325,"category":"wine_shop","name":"Vignobles","tags":{"name":"Vignobles","shop":"wine"}}},{"type":"Feature","id":"node/4991413306","geometry":{"type":"Point","coordinates":[-63.6790247,44.7146826]},"properties":{"osm_type":"node","osm_id":4991413306,"category":"winery","name":"Vinter's Cellar","tags":{"craft":"winery","name":"Vinter's Cellar"}}},{"type":"Feature","id":"node/5010475434","geometry":{"type":"Point","coordinates":[-79.419242,43.6831186]},"properties":{"osm_type":"node","osm_id":5010475434,"category":"wine_shop","name":"Wine Rack","tags":{"addr:city":"Toronto","addr:housenumber":"522","addr:street":"St. Clair Avenue West","brand":"Wine Rack","name":"Wine Rack","opening_hours":"Mo-Su 11:00-23:00","shop":"wine"}}},{"type":"Feature","id":"node/5017043221","geometry":{"type":"Point","coordinates":[-119.5015797,49.8065127]},"properties":{"osm_type":"node","osm_id":5017043221,"category":"winery","name":"Summerhill Pyramid Winery","tags":{"addr:housenumber":"4870","addr:street":"Chute Lake Road","craft":"winery","email":"info@summerhill.bc.ca","name":"Summerhill Pyramid Winery","phone":"+1-250-764-8000","shop":"alcohol","website":"https://www.summerhill.bc.ca"}}},{"type":"Feature","id":"node/5027623025","geometry":{"type":"Point","coordinates":[-64.5430723,46.2193012]},"properties":{"osm_type":"node","osm_id":5027623025,"category":"winery","name":"Wine Down","tags":{"craft":"winery","name":"Wine Down","name:fr":"la Brasserie du coin","opening_hours":"Mo,We-Fr 10:00-18:00; Tu 10:00-17:00; Sa 10:00-15:00; Su off","shop":"doityourself"}}},{"type":"Feature","id":"node/5035534921","geometry":{"type":"Point","coordinates":[-64.7791836,46.0883076]},"properties":{"osm_type":"node","osm_id":5035534921,"category":"wine_shop","name":"Third Glass Wine & Martinis","tags":{"addr:housenumber":"819","addr:postcode":"E1C 1G1","addr:street":"Main Street","email":"info@thethirdglass.com","name":"Third Glass Wine & Martinis","name:en":"Third Glass Wine & Martinis","opening_hours":"Su-Tu 16:00-23:00; We-Th,Sa 16:00-02:00; Fr 14:00-02:00","phone":"+1-506-830-9463","shop":"wine","website":"https://www.thethirdglass.com/"}}},{"type":"Feature","id":"node/5058147796","geometry":{"type":"Point","coordinates":[-73.253342,45.9121405]},"properties":{"osm_type":"node","osm_id":5058147796,"category":"winery","name":"Vignoble Lano d’Or","tags":{"craft":"winery","name":"Vignoble Lano d’Or"}}},{"type":"Feature","id":"node/5058921728","geometry":{"type":"Point","coordinates":[-124.9827519,49.7019763]},"properties":{"osm_type":"node","osm_id":5058921728,"category":"wine_shop","name":"The Wine Cottage","tags":{"name":"The Wine Cottage","phone":"+1-250-338-2686","shop":"wine"}}},{"type":"Feature","id":"node/5065263384","geometry":{"type":"Point","coordinates":[-80.3699264,42.6783928]},"properties":{"osm_type":"node","osm_id":5065263384,"category":"winery","name":"Inasphere Winery","tags":{"craft":"winery","name":"Inasphere Winery"}}},{"type":"Feature","id":"node/5067442766","geometry":{"type":"Point","coordinates":[-79.6336799,43.2048317]},"properties":{"osm_type":"node","osm_id":5067442766,"category":"winery","name":"Puddicombe Farms","tags":{"craft":"winery","name":"Puddicombe Farms"}}},{"type":"Feature","id":"node/5113733421","geometry":{"type":"Point","coordinates":[-96.6796999,49.5234384]},"properties":{"osm_type":"node","osm_id":5113733421,"category":"wine_shop","name":"Home Wine & Brew","tags":{"name":"Home Wine & Brew","shop":"wine"}}},{"type":"Feature","id":"node/5118665976","geometry":{"type":"Point","coordinates":[-122.7938295,49.0466785]},"properties":{"osm_type":"node","osm_id":5118665976,"category":"wine_shop","name":"Wine Kitz","tags":{"addr:city":"Surrey","addr:housenumber":"2428","addr:postcode":"V4P 1H5","addr:street":"King George Boulevard","name":"Wine Kitz","opening_hours":"Mo-Fr 09:30-18:00, Sa 09:30-17:00","phone":"+1-604-538-6778","shop":"wine","website":"https://winekitz-southsurrey.com/"}}},{"type":"Feature","id":"node/5166402421","geometry":{"type":"Point","coordinates":[-79.6202087,43.6828581]},"properties":{"osm_type":"node","osm_id":5166402421,"category":"wine_shop","name":"Toronto Duty Free","tags":{"name":"Toronto Duty Free","shop":"wine"}}},{"type":"Feature","id":"node/5268885160","geometry":{"type":"Point","coordinates":[-125.0127725,49.7626223]},"properties":{"osm_type":"node","osm_id":5268885160,"category":"winery","name":"Beaufort Vineyard and Estate Winery","tags":{"addr:housenumber":"5854","addr:postcode":"V9J 1T4","addr:street":"Pickering Road","craft":"winery","email":"greatwines@beaufortwines.ca","name":"Beaufort Vineyard and Estate Winery","phone":"+1-250-338-1357","shop":"alcohol","website":"https://www.beaufortwines.ca/"}}},{"type":"Feature","id":"node/5315676706","geometry":{"type":"Point","coordinates":[-72.4859988,46.3448124]},"properties":{"osm_type":"node","osm_id":5315676706,"category":"winery","name":"Vignoble Domaine du Clos de L'Isle","tags":{"craft":"winery","name":"Vignoble Domaine du Clos de L'Isle"}}},{"type":"Feature","id":"node/5326336018","geometry":{"type":"Point","coordinates":[-119.446213,49.9142117]},"properties":{"osm_type":"node","osm_id":5326336018,"category":"wine_shop","name":"Wine Kitz","tags":{"addr:city":"Kelowna","addr:housenumber":"437","addr:postcode":"V1V 1Y5","addr:street":"Glenmore Road","name":"Wine Kitz","shop":"wine"}}},{"type":"Feature","id":"node/5368912120","geometry":{"type":"Point","coordinates":[-79.3992871,43.7638605]},"properties":{"osm_type":"node","osm_id":5368912120,"category":"wine_shop","name":"Sheppard Wine Works","tags":{"name":"Sheppard Wine Works","shop":"wine"}}},{"type":"Feature","id":"node/5376895660","geometry":{"type":"Point","coordinates":[-125.2148638,49.970091]},"properties":{"osm_type":"node","osm_id":5376895660,"category":"wine_shop","name":"Willow Point Wines","tags":{"addr:postcode":"V9W 1C3","name":"Willow Point Wines","shop":"wine"}}},{"type":"Feature","id":"node/5394615012","geometry":{"type":"Point","coordinates":[-80.5255785,43.4769924]},"properties":{"osm_type":"node","osm_id":5394615012,"category":"wine_shop","name":"Wine Rack","tags":{"brand":"Wine Rack","name":"Wine Rack","shop":"wine"}}},{"type":"Feature","id":"node/5418559222","geometry":{"type":"Point","coordinates":[-72.5924291,45.2591048]},"properties":{"osm_type":"node","osm_id":5418559222,"category":"winery","name":"Domaine les Brome Léon Courville","tags":{"addr:housenumber":"285","addr:postcode":"J0E 1S0","addr:street":"Chemin de Brome","craft":"winery","name":"Domaine les Brome Léon Courville","phone":"+1-450-243-0266"}}},{"type":"Feature","id":"node/5423573010","geometry":{"type":"Point","coordinates":[-114.471897,51.1894566]},"properties":{"osm_type":"node","osm_id":5423573010,"category":"winery","name":"Vinter's Cellar","tags":{"craft":"winery","name":"Vinter's Cellar"}}},{"type":"Feature","id":"node/5438116121","geometry":{"type":"Point","coordinates":[-79.3467977,43.6783944]},"properties":{"osm_type":"node","osm_id":5438116121,"category":"wine_shop","name":"Wine Rack","tags":{"addr:city":"Toronto","addr:housenumber":"573","addr:street":"Danforth Avenue","brand":"Wine Rack","name":"Wine Rack","phone":"+1-416-465-6241","shop":"wine","wheelchair":"yes"}}},{"type":"Feature","id":"node/5507881314","geometry":{"type":"Point","coordinates":[-72.8542268,45.2342304]},"properties":{"osm_type":"node","osm_id":5507881314,"category":"winery","name":"Vignoble de la Bauge","tags":{"addr:housenumber":"155","addr:street":"Chemin des Érables","craft":"winery","name":"Vignoble de la Bauge"}}},{"type":"Feature","id":"node/5518992548","geometry":{"type":"Point","coordinates":[-66.6524541,45.9918978]},"properties":{"osm_type":"node","osm_id":5518992548,"category":"winery","name":"Wine Kitz","tags":{"craft":"winery","name":"Wine Kitz"}}},{"type":"Feature","id":"node/5546015596","geometry":{"type":"Point","coordinates":[-79.4131056,43.7741769]},"properties":{"osm_type":"node","osm_id":5546015596,"category":"wine_shop","name":"Wine Rack","tags":{"brand":"Wine Rack","name":"Wine Rack","shop":"wine"}}},{"type":"Feature","id":"node/5548759821","geometry":{"type":"Point","coordinates":[-79.0812397,43.2370687]},"properties":{"osm_type":"node","osm_id":5548759821,"category":"wine_shop","name":"Chateau des Charmes Wines Ltd.","tags":{"addr:city":"Niagara-on-the-Lake","addr:housenumber":"1025","addr:postcode":"L0S 1J0","addr:street":"York Road","name":"Chateau des Charmes Wines Ltd.","phone":"+1-905-262-4219","shop":"wine","website":"https://www.fromtheboscfamily.com/chateau-des-charmes","wheelchair":"yes"}}},{"type":"Feature","id":"node/5548766721","geometry":{"type":"Point","coordinates":[-79.16141,43.1898859]},"properties":{"osm_type":"node","osm_id":5548766721,"category":"winery","name":"Southbrook Organic Vineyards Winery","tags":{"addr:city":"Niagara-on-the-Lake","addr:housenumber":"581","addr:postcode":"L0S 1J0","addr:street":"Niagara Stone Road","craft":"winery","name":"Southbrook Organic Vineyards Winery","opening_hours":"Mo-Su 11:00-16:00","operator":"Southbrook Farms Limited","phone":"+1-905-641-2548","shop":"wine","website":"https://www.southbrook.com/","wheelchair":"yes"}}},{"type":"Feature","id":"node/5548773522","geometry":{"type":"Point","coordinates":[-79.0957931,43.2428159]},"properties":{"osm_type":"node","osm_id":5548773522,"category":"wine_shop","name":"Trius Winery at Hillebrand","tags":{"addr:city":"Niagara-on-the-Lake","addr:housenumber":"1249","addr:postcode":"L0S 1J0","addr:street":"Niagara Stone Rd","name":"Trius Winery at Hillebrand","phone":"+1-905-468-7123","shop":"wine","website":"https://www.triuswines.com/","wheelchair":"yes"}}},{"type":"Feature","id":"node/5548799621","geometry":{"type":"Point","coordinates":[-79.0636819,43.2106678]},"properties":{"osm_type":"node","osm_id":5548799621,"category":"winery","name":"Inniskillin Winery","wikidata":"Q12981725","wikipedia":"en:Inniskillin","tags":{"addr:city":"Niagara-on-the-Lake","addr:housenumber":"1499","addr:postcode":"L0S 1J0","addr:street":"Line 3","craft":"winery","name":"Inniskillin Winery","phone":"+1-905-468-2187","shop":"wine","website":"https://www.inniskillin.com/","wheelchair":"yes","wikidata":"Q12981725","wikipedia":"en:Inniskillin"}}},{"type":"Feature","id":"node/5548808821","geometry":{"type":"Point","coordinates":[-79.0916732,43.2438506]},"properties":{"osm_type":"node","osm_id":5548808821,"category":"winery","name":"Jackson-Triggs Niagara Estate Winery","wikidata":"Q6116925","wikipedia":"en:Jackson-Triggs","tags":{"addr:city":"Niagara-on-the-Lake","addr:housenumber":"2145","addr:postcode":"L0S 1J0","addr:street":"Niagara Stone Rd","craft":"winery","name":"Jackson-Triggs Niagara Estate Winery","phone":"+1-866-589-4637","shop":"wine","website":"http://www.jacksontriggswinery.com/","wheelchair":"yes","wikidata":"Q6116925","wikipedia":"en:Jackson-Triggs"}}},{"type":"Feature","id":"node/5548814421","geometry":{"type":"Point","coordinates":[-79.0939683,43.2541922]},"properties":{"osm_type":"node","osm_id":5548814421,"category":"wine_shop","name":"Konzelmann Estate Winery","tags":{"addr:city":"Niagara-on-the-Lake","addr:housenumber":"1096","addr:postcode":"L0S 1J0","addr:street":"Lakeshore Road","name":"Konzelmann Estate Winery","phone":"+1-905-935-2866","shop":"wine","website":"https://www.konzelmann.ca/","wheelchair":"yes"}}},{"type":"Feature","id":"node/5548820521","geometry":{"type":"Point","coordinates":[-79.0631017,43.2317837]},"properties":{"osm_type":"node","osm_id":5548820521,"category":"winery","name":"Lailey Winery","tags":{"addr:city":"Niagara-on-the-Lake","addr:housenumber":"15940","addr:postcode":"L0S 1J0","addr:street":"Niagara River Parkway","craft":"winery","name":"Lailey Winery","phone":"+1-905-468-8188","shop":"wine","website":"http://www.laileywinery.com/","wheelchair":"yes"}}},{"type":"Feature","id":"node/5548824428","geometry":{"type":"Point","coordinates":[-79.0939221,43.2541926]},"properties":{"osm_type":"node","osm_id":5548824428,"category":"wine_shop","name":"Palatine Hills Estate Winery","tags":{"addr:city":"Niagara-on-the-Lake","addr:housenumber":"911","addr:postcode":"L0S 1J0","addr:street":"Lakeshore Rd","name":"Palatine Hills Estate Winery","phone":"+1-905-646-9617","shop":"wine","wheelchair":"yes"}}},{"type":"Feature","id":"node/5550326435","geometry":{"type":"Point","coordinates":[-79.1139114,43.229242]},"properties":{"osm_type":"node","osm_id":5550326435,"category":"wine_shop","name":"Pillitteri Estates Winery","tags":{"addr:city":"Niagara-on-the-Lake","addr:housenumber":"1696","addr:postcode":"L0S 1J0","addr:street":"Niagara Stone Road","name":"Pillitteri Estates Winery","phone":"+1-905-468-3147","shop":"wine","website":"https://www.pillitteri.com/","wheelchair":"yes"}}},{"type":"Feature","id":"node/5550372028","geometry":{"type":"Point","coordinates":[-79.067047,43.2385798]},"properties":{"osm_type":"node","osm_id":5550372028,"category":"winery","name":"Peller Estates Winery & Restaurant","wikidata":"Q109869265","tags":{"addr:city":"Niagara-on-the-Lake","addr:housenumber":"290","addr:postcode":"L0S 1J0","addr:street":"John Street East","craft":"winery","name":"Peller Estates Winery & Restaurant","name:en":"Peller Estates Winery & Restaurant","name:fr":"Peller Estates Winery & Restaurant","name:ko":"펠러 에스테이트 와이너리","phone":"+1-905-468-4678","shop":"wine","website":"https://www.peller.com/","wheelchair":"yes","wikidata":"Q109869265"}}},{"type":"Feature","id":"node/5550399131","geometry":{"type":"Point","coordinates":[-79.0609002,43.2173587]},"properties":{"osm_type":"node","osm_id":5550399131,"category":"winery","name":"Reif Estate Winery Inc.","wikidata":"Q7310059","wikipedia":"en:Reif Estate Winery","tags":{"addr:city":"Niagara-on-the-Lake","addr:housenumber":"15608","addr:postcode":"L0S 1J0","addr:street":"Niagara Parkway","craft":"winery","name":"Reif Estate Winery Inc.","phone":"+1-905-468-9463","shop":"wine","website":"https://reifwinery.com/","wheelchair":"yes","wikidata":"Q7310059","wikipedia":"en:Reif Estate Winery"}}},{"type":"Feature","id":"node/5550467121","geometry":{"type":"Point","coordinates":[-79.059504,43.2057479]},"properties":{"osm_type":"node","osm_id":5550467121,"category":"winery","name":"Riverview Cellars Estate Winery","tags":{"addr:city":"Niagara-on-the-Lake","addr:housenumber":"15376","addr:postcode":"L0S 1J0","addr:street":"Niagara Parkway","craft":"winery","name":"Riverview Cellars Estate Winery","phone":"+1-905-262-0636","shop":"wine","website":"https://www.riverviewcellars.com/","wheelchair":"yes"}}},{"type":"Feature","id":"node/5550470722","geometry":{"type":"Point","coordinates":[-79.1715413,43.2239261]},"properties":{"osm_type":"node","osm_id":5550470722,"category":"wine_shop","name":"Stonechurch Winery","tags":{"addr:city":"Niagara-on-the-Lake","addr:housenumber":"1242","addr:postcode":"L0S 1J0","addr:street":"Irvine Rd","name":"Stonechurch Winery","phone":"+1-905-935-3535","shop":"wine","website":"http://www.stonechurch.com/","wheelchair":"yes"}}},{"type":"Feature","id":"node/5550498823","geometry":{"type":"Point","coordinates":[-79.3790269,43.1301299]},"properties":{"osm_type":"node","osm_id":5550498823,"category":"winery","name":"Calamus Estate Winery","tags":{"addr:city":"Jordan Station","addr:housenumber":"3100","addr:postcode":"L0R 1S0","addr:street":"Glen Rd","craft":"winery","name":"Calamus Estate Winery","phone":"+1-905-562-9303","shop":"wine","website":"https://calamuswines.com/","wheelchair":"yes"}}},{"type":"Feature","id":"node/5550511922","geometry":{"type":"Point","coordinates":[-79.3330568,43.1524027]},"properties":{"osm_type":"node","osm_id":5550511922,"category":"wine_shop","name":"Creekside Estate Winery","wikidata":"Q109916174","tags":{"addr:city":"Jordan Station","addr:housenumber":"2170","addr:postcode":"L0R 1S0","addr:street":"Fourth Avenue","name":"Creekside Estate Winery","phone":"+1-905-562-0035","shop":"wine","website":"https://creeksidewine.com/","wheelchair":"yes","wikidata":"Q109916174"}}},{"type":"Feature","id":"node/5550528022","geometry":{"type":"Point","coordinates":[-79.3701699,43.1493606]},"properties":{"osm_type":"node","osm_id":5550528022,"category":"wine_shop","name":"Cave Spring Cellars Ltd.","tags":{"addr:city":"Jordan Station","addr:housenumber":"3836","addr:postcode":"L0R 1S0","addr:street":"Main St","name":"Cave Spring Cellars Ltd.","phone":"+1-905-562-3581","shop":"wine","website":"https://www.cavespring.ca/","wheelchair":"yes"}}},{"type":"Feature","id":"node/5550541021","geometry":{"type":"Point","coordinates":[-79.3614042,43.1738317]},"properties":{"osm_type":"node","osm_id":5550541021,"category":"wine_shop","name":"Harbour Estates Winery Ltd.","tags":{"addr:city":"Jordan Station","addr:housenumber":"4362","addr:postcode":"L0R 1S0","addr:street":"Jordan Road","name":"Harbour Estates Winery Ltd.","phone":"+1-905-562-6279","shop":"wine","website":"https://www.hewwine.com/","wheelchair":"yes"}}},{"type":"Feature","id":"node/5555218644","geometry":{"type":"Point","coordinates":[-64.3810642,45.0632461]},"properties":{"osm_type":"node","osm_id":5555218644,"category":"winery","name":"Benjamin Bridge Winery","tags":{"addr:city":"Gaspereau","addr:housenumber":"1996","addr:postcode":"B4P 2R1","addr:street":"White Rock Road","craft":"winery","name":"Benjamin Bridge Winery","shop":"wine"}}},{"type":"Feature","id":"node/5555229446","geometry":{"type":"Point","coordinates":[-64.3567943,45.0690367]},"properties":{"osm_type":"node","osm_id":5555229446,"category":"winery","name":"Gaspereau Winery","tags":{"addr:city":"Gaspereau","addr:housenumber":"2239","addr:postcode":"B4P 2R1","addr:street":"White Rock Road","craft":"winery","name":"Gaspereau Winery","phone":"+1-855-387-4564","shop":"wine","website":"https://gaspereauwine.ca"}}},{"type":"Feature","id":"node/5555238246","geometry":{"type":"Point","coordinates":[-64.1234378,45.0219684]},"properties":{"osm_type":"node","osm_id":5555238246,"category":"wine_shop","name":"Avondale winery","tags":{"name":"Avondale winery","name:en":"Avondale Sky winery","shop":"wine"}}},{"type":"Feature","id":"node/5555266093","geometry":{"type":"Point","coordinates":[-64.1955672,44.9658221]},"properties":{"osm_type":"node","osm_id":5555266093,"category":"wine_shop","name":"Sainte - famille winery","tags":{"name":"Sainte - famille winery","shop":"wine"}}},{"type":"Feature","id":"node/5555312422","geometry":{"type":"Point","coordinates":[-64.3336236,45.0656085]},"properties":{"osm_type":"node","osm_id":5555312422,"category":"wine_shop","name":"L'Acadie vineyards","tags":{"name":"L'Acadie vineyards","shop":"wine"}}},{"type":"Feature","id":"node/5555356522","geometry":{"type":"Point","coordinates":[-64.4633424,44.2387622]},"properties":{"osm_type":"node","osm_id":5555356522,"category":"wine_shop","name":"Petite rivière vineyards","tags":{"name":"Petite rivière vineyards","shop":"wine"}}},{"type":"Feature","id":"node/5555359621","geometry":{"type":"Point","coordinates":[-64.3834934,45.1592448]},"properties":{"osm_type":"node","osm_id":5555359621,"category":"wine_shop","name":"Blomidon Estate Winery","tags":{"name":"Blomidon Estate Winery","shop":"wine"}}},{"type":"Feature","id":"node/5555413924","geometry":{"type":"Point","coordinates":[-65.6041486,44.5951045]},"properties":{"osm_type":"node","osm_id":5555413924,"category":"wine_shop","name":"Annapolis highland vineyards","tags":{"name":"Annapolis highland vineyards","shop":"wine"}}},{"type":"Feature","id":"node/5555416222","geometry":{"type":"Point","coordinates":[-65.6376092,44.5803329]},"properties":{"osm_type":"node","osm_id":5555416222,"category":"wine_shop","name":"Bear river vineyards","tags":{"name":"Bear river vineyards","shop":"wine"}}},{"type":"Feature","id":"node/5555428222","geometry":{"type":"Point","coordinates":[-65.163532,44.8737409]},"properties":{"osm_type":"node","osm_id":5555428222,"category":"wine_shop","name":"Beaver Creek Vineyard","tags":{"addr:city":"Lawrencetown","addr:housenumber":"496","addr:street":"Carleton Road","name":"Beaver Creek Vineyard","phone":"+1 902-489-0977","shop":"wine","website":"https://beavercreekvineyard.ca/"}}},{"type":"Feature","id":"node/5555466821","geometry":{"type":"Point","coordinates":[-64.5128432,44.8305801]},"properties":{"osm_type":"node","osm_id":5555466821,"category":"wine_shop","name":"Muwin Estate Wines","tags":{"name":"Muwin Estate Wines","shop":"wine"}}},{"type":"Feature","id":"node/5568252794","geometry":{"type":"Point","coordinates":[-124.9823409,49.6767391]},"properties":{"osm_type":"node","osm_id":5568252794,"category":"wine_shop","name":"Vanisle Wine and Beer Makers","tags":{"name":"Vanisle Wine and Beer Makers","phone":"+1-250-334-3055","shop":"wine"}}},{"type":"Feature","id":"node/5569298655","geometry":{"type":"Point","coordinates":[-123.0305283,49.2056758]},"properties":{"osm_type":"node","osm_id":5569298655,"category":"wine_shop","name":"Everything Wine","tags":{"addr:housenumber":"8570","addr:postcode":"V5S 0C2","addr:street":"River District Crossing","name":"Everything Wine","opening_hours":"Mo-Sa 10:00-21:00; Su 11:00-19:00","phone":"+1 844 989 9463","shop":"wine","website":"https://www.everythingwine.ca/vancouver"}}},{"type":"Feature","id":"node/5635388431","geometry":{"type":"Point","coordinates":[-80.561005,43.578608]},"properties":{"osm_type":"node","osm_id":5635388431,"category":"winery","name":"Jacobs Wine kits.com","tags":{"craft":"winery","name":"Jacobs Wine kits.com"}}},{"type":"Feature","id":"node/5717803223","geometry":{"type":"Point","coordinates":[-54.215992,48.7711986]},"properties":{"osm_type":"node","osm_id":5717803223,"category":"wine_shop","name":"Gambo vineyards","tags":{"name":"Gambo vineyards","shop":"wine"}}},{"type":"Feature","id":"node/5717968724","geometry":{"type":"Point","coordinates":[-62.536627,46.0208616]},"properties":{"osm_type":"node","osm_id":5717968724,"category":"wine_shop","name":"New man estate winery","tags":{"name":"New man estate winery","shop":"wine"}}},{"type":"Feature","id":"node/5717980821","geometry":{"type":"Point","coordinates":[-63.2855931,46.3377592]},"properties":{"osm_type":"node","osm_id":5717980821,"category":"wine_shop","name":"Islam honey wine","tags":{"name":"Islam honey wine","shop":"wine"}}},{"type":"Feature","id":"node/5717980822","geometry":{"type":"Point","coordinates":[-62.6324322,45.9666769]},"properties":{"osm_type":"node","osm_id":5717980822,"category":"wine_shop","name":"Rossignol winery","tags":{"name":"Rossignol winery","shop":"wine"}}},{"type":"Feature","id":"node/5720834521","geometry":{"type":"Point","coordinates":[-79.4186592,43.655354]},"properties":{"osm_type":"node","osm_id":5720834521,"category":"wine_shop","name":"Wine Rack","tags":{"addr:city":"Toronto","addr:housenumber":"714","addr:street":"College Street","brand":"Wine Rack","name":"Wine Rack","opening_hours":"Mo-Su 12:00-23:00","shop":"wine"}}},{"type":"Feature","id":"node/5722357726","geometry":{"type":"Point","coordinates":[-80.0166203,43.1987372]},"properties":{"osm_type":"node","osm_id":5722357726,"category":"wine_shop","name":"Wine Kitza","tags":{"name":"Wine Kitza","shop":"wine"}}},{"type":"Feature","id":"node/5739855495","geometry":{"type":"Point","coordinates":[-75.7218558,45.324483]},"properties":{"osm_type":"node","osm_id":5739855495,"category":"wine_shop","name":"Vinbella Winery","tags":{"addr:housenumber":"15","addr:street":"Grenfell Crescent","name":"Vinbella Winery","shop":"wine"}}},{"type":"Feature","id":"node/5750297326","geometry":{"type":"Point","coordinates":[-64.0582367,45.989234]},"properties":{"osm_type":"node","osm_id":5750297326,"category":"wine_shop","name":"winegarden estate","tags":{"name":"winegarden estate","shop":"wine"}}},{"type":"Feature","id":"node/5750297527","geometry":{"type":"Point","coordinates":[-64.6906164,46.0201401]},"properties":{"osm_type":"node","osm_id":5750297527,"category":"wine_shop","name":"Domaine latitude estate winery","tags":{"name":"Domaine latitude estate winery","shop":"wine"}}},{"type":"Feature","id":"node/5750320345","geometry":{"type":"Point","coordinates":[-75.9034856,45.3393688]},"properties":{"osm_type":"node","osm_id":5750320345,"category":"wine_shop","name":"Wine Garden","tags":{"addr:housenumber":"100","addr:street":"Schneider Road","name":"Wine Garden","shop":"wine"}}},{"type":"Feature","id":"node/5750333122","geometry":{"type":"Point","coordinates":[-65.836179,45.6693384]},"properties":{"osm_type":"node","osm_id":5750333122,"category":"wine_shop","name":"Gillis of Belleisle","tags":{"name":"Gillis of Belleisle","shop":"wine"}}},{"type":"Feature","id":"node/5750351622","geometry":{"type":"Point","coordinates":[-66.0426573,45.5219888]},"properties":{"osm_type":"node","osm_id":5750351622,"category":"wine_shop","name":"Dunhams run winery","tags":{"addr:housenumber":"35","addr:street":"Gorhams Bluff Road","name":"Dunhams run winery","shop":"wine"}}},{"type":"Feature","id":"node/5750357023","geometry":{"type":"Point","coordinates":[-64.9062083,46.6155263]},"properties":{"osm_type":"node","osm_id":5750357023,"category":"wine_shop","name":"Richibucto River Wine Estate","tags":{"addr:housenumber":"940","addr:street":"route 495","name":"Richibucto River Wine Estate","shop":"wine"}}},{"type":"Feature","id":"node/5781655771","geometry":{"type":"Point","coordinates":[-76.2576637,45.5001894]},"properties":{"osm_type":"node","osm_id":5781655771,"category":"wine_shop","name":"Domaine de Pontiac Village","tags":{"addr:housenumber":"1259","addr:street":"Chemin du Cimetière","name":"Domaine de Pontiac Village","opening_hours":"Th-Fr 13:00-18:00; Sa,Su 10:00-17:00","phone":"+1-819-458-3628","shop":"wine","website":"https://www.domainepontiac.com/"}}},{"type":"Feature","id":"node/5793138426","geometry":{"type":"Point","coordinates":[-119.5553553,49.8582515]},"properties":{"osm_type":"node","osm_id":5793138426,"category":"winery","name":"Beaumont Family Estate Winery","tags":{"addr:city":"West Kelowna","addr:housenumber":"2775","addr:street":"Boucherie Road","craft":"winery","email":"info@beaumontwinery.com","name":"Beaumont Family Estate Winery","phone":"+1-250-769-1222","shop":"alcohol","website":"https://beaumontwinery.com/"}}},{"type":"Feature","id":"node/5804896153","geometry":{"type":"Point","coordinates":[-124.7493467,49.4977359]},"properties":{"osm_type":"node","osm_id":5804896153,"category":"wine_shop","name":"CorLan Vineyard & Farm","tags":{"name":"CorLan Vineyard & Farm","name:en":"CorLan Vineyard & Farm","shop":"wine","website":"https://corlanvineyard.ca/"}}},{"type":"Feature","id":"node/5809664384","geometry":{"type":"Point","coordinates":[-75.6442293,45.014982]},"properties":{"osm_type":"node","osm_id":5809664384,"category":"wine_shop","name":"Brewing Oasis","tags":{"addr:housenumber":"210","addr:street":"Prescott Street","name":"Brewing Oasis","shop":"wine"}}},{"type":"Feature","id":"node/5827413585","geometry":{"type":"Point","coordinates":[-123.5634566,48.7134882]},"properties":{"osm_type":"node","osm_id":5827413585,"category":"winery","name":"Cherry Point Estate Wines","tags":{"addr:city":"Cobble Hill","addr:housenumber":"840","addr:street":"Cherry Point Road","craft":"winery","email":"info@cherrypointestatewines.com","name":"Cherry Point Estate Wines","opening_hours":"Mo-Su 10:00-17:00","phone":"+1-250-743-1272","shop":"wine"}}},{"type":"Feature","id":"node/5873978888","geometry":{"type":"Point","coordinates":[-77.1228783,43.8912819]},"properties":{"osm_type":"node","osm_id":5873978888,"category":"winery","name":"Lighthall","tags":{"addr:housenumber":"308","addr:street":"Lighthall Road","craft":"winery","name":"Lighthall","phone":"+1-613-767-9155","website":"https://www.lighthallvineyards.com/"}}},{"type":"Feature","id":"node/5874028385","geometry":{"type":"Point","coordinates":[-77.0092032,43.9358563]},"properties":{"osm_type":"node","osm_id":5874028385,"category":"wine_shop","name":"Half Moon Bay Winery","tags":{"name":"Half Moon Bay Winery","shop":"wine"}}},{"type":"Feature","id":"node/5875805285","geometry":{"type":"Point","coordinates":[-77.1160033,44.1288792]},"properties":{"osm_type":"node","osm_id":5875805285,"category":"winery","name":"3 Dogs Winery","tags":{"addr:housenumber":"120","addr:street":"Fish Lake Road","craft":"winery","name":"3 Dogs Winery","website":"https://www.threedogwine.com/"}}},{"type":"Feature","id":"node/5877135998","geometry":{"type":"Point","coordinates":[-125.041234,49.6924702]},"properties":{"osm_type":"node","osm_id":5877135998,"category":"winery","name":"Raven's Moon Estate Winery","tags":{"addr:housenumber":"4905","addr:postcode":"V9J 1R5","addr:street":"Darcy Road","craft":"winery","email":"orders@ravensmooncraftcider.ca","name":"Raven's Moon Estate Winery","phone":"+1-250-338-9765","shop":"alcohol","website":"https://ravensmooncraftcider.ca/"}}},{"type":"Feature","id":"node/5923058890","geometry":{"type":"Point","coordinates":[-119.6355712,49.5787357]},"properties":{"osm_type":"node","osm_id":5923058890,"category":"wine_shop","name":"8th generation vineyard","tags":{"addr:housenumber":"6807","addr:street":"Highway 97","name":"8th generation vineyard","shop":"wine"}}},{"type":"Feature","id":"node/5923058892","geometry":{"type":"Point","coordinates":[-119.6581222,49.5685713]},"properties":{"osm_type":"node","osm_id":5923058892,"category":"wine_shop","name":"Sleeping Giant Fruit Winery","tags":{"addr:housenumber":"6206","addr:street":"Canyon View Road","email":"sleepinggiant@telus.net","name":"Sleeping Giant Fruit Winery","opening_hours":"Mo-Sa 10:00-17:00; Su 11:00-17:00","phone":"+1-800-577-1277;+1-250-494-0377","shop":"wine","website":"https://sleepinggiantfruitwinery.ca/"}}},{"type":"Feature","id":"node/5923058897","geometry":{"type":"Point","coordinates":[-119.6951094,49.651487]},"properties":{"osm_type":"node","osm_id":5923058897,"category":"wine_shop","name":"Savard Vines","tags":{"addr:housenumber":"25200","addr:street":"Callan Road","name":"Savard Vines","opening_hours":"Mo-Su 11:00-17:00","phone":"+1-250-494-1926","shop":"wine","website":"https://www.savardvines.ca"}}},{"type":"Feature","id":"node/5923065188","geometry":{"type":"Point","coordinates":[-119.6861875,49.6393914]},"properties":{"osm_type":"node","osm_id":5923065188,"category":"wine_shop","name":"Summerland Estate Winery","tags":{"addr:housenumber":"21606","addr:street":"Bridgeman Road","name":"Summerland Estate Winery","shop":"wine"}}},{"type":"Feature","id":"node/5928662486","geometry":{"type":"Point","coordinates":[-61.0550512,45.8099525]},"properties":{"osm_type":"node","osm_id":5928662486,"category":"wine_shop","name":"EILEANAN BRÈAGHA VINEYARDS","tags":{"addr:housenumber":"5349","addr:street":"Marble Mountain Road","name":"EILEANAN BRÈAGHA VINEYARDS","phone":"+1-902-756-3533","shop":"wine"}}},{"type":"Feature","id":"node/5983185605","geometry":{"type":"Point","coordinates":[-77.4023764,43.9962748]},"properties":{"osm_type":"node","osm_id":5983185605,"category":"winery","name":"Lacey Estates Winery","tags":{"addr:city":"Hillier","addr:housenumber":"804","addr:postcode":"K0K 2J0","addr:street":"804, Closson Road","craft":"winery","name":"Lacey Estates Winery"}}},{"type":"Feature","id":"node/5983864085","geometry":{"type":"Point","coordinates":[-64.1745366,44.9502152]},"properties":{"osm_type":"node","osm_id":5983864085,"category":"wine_shop","name":"Bent Ridge Winery","tags":{"addr:housenumber":"4499","addr:street":"Highway 14","name":"Bent Ridge Winery","opening_hours":"Mo-Su 11:00-19:00","phone":"+1-902-441-3530","shop":"wine"}}},{"type":"Feature","id":"node/6028210743","geometry":{"type":"Point","coordinates":[-76.6854595,45.4728163]},"properties":{"osm_type":"node","osm_id":6028210743,"category":"wine_shop","name":"Priority Wines","tags":{"addr:housenumber":"128","addr:street":"Raglan Street South","name":"Priority Wines","shop":"wine"}}},{"type":"Feature","id":"node/6028989337","geometry":{"type":"Point","coordinates":[-80.4473572,43.3981075]},"properties":{"osm_type":"node","osm_id":6028989337,"category":"winery","name":"Wine Expert","tags":{"craft":"winery","name":"Wine Expert","opening_hours":"Tu-Sa 10:00-18:00"}}},{"type":"Feature","id":"node/6030967876","geometry":{"type":"Point","coordinates":[-82.6697116,42.0710819]},"properties":{"osm_type":"node","osm_id":6030967876,"category":"winery","tags":{"addr:housenumber":"1542","addr:street":"Talbot Road","craft":"winery"}}},{"type":"Feature","id":"node/6114108761","geometry":{"type":"Point","coordinates":[-75.6394248,45.3550602]},"properties":{"osm_type":"node","osm_id":6114108761,"category":"wine_shop","name":"Wine Garden","tags":{"addr:housenumber":"1501","addr:street":"Sieveright Avenue","name":"Wine Garden","shop":"wine"}}},{"type":"Feature","id":"node/6138154560","geometry":{"type":"Point","coordinates":[-79.4146071,43.6413545]},"properties":{"osm_type":"node","osm_id":6138154560,"category":"wine_shop","name":"Wine Rack","tags":{"brand":"Wine Rack","name":"Wine Rack","opening_hours":"11:00-22:00","shop":"wine"}}},{"type":"Feature","id":"node/6187041120","geometry":{"type":"Point","coordinates":[-75.1525454,45.2186696]},"properties":{"osm_type":"node","osm_id":6187041120,"category":"wine_shop","name":"Mayfair Craft Wines","tags":{"name":"Mayfair Craft Wines","shop":"wine"}}},{"type":"Feature","id":"node/6195149181","geometry":{"type":"Point","coordinates":[-70.3771239,47.4219309]},"properties":{"osm_type":"node","osm_id":6195149181,"category":"winery","name":"Cidrerie Vergers Pedneault","tags":{"craft":"winery","name":"Cidrerie Vergers Pedneault"}}},{"type":"Feature","id":"node/6201102885","geometry":{"type":"Point","coordinates":[-79.4195069,43.6441743]},"properties":{"osm_type":"node","osm_id":6201102885,"category":"wine_shop","name":"Wine Rack","tags":{"addr:city":"Toronto","addr:housenumber":"1018","addr:street":"Queen Street West","brand":"Wine Rack","name":"Wine Rack","shop":"wine"}}},{"type":"Feature","id":"node/6213232515","geometry":{"type":"Point","coordinates":[-79.2649493,42.9956373]},"properties":{"osm_type":"node","osm_id":6213232515,"category":"wine_shop","name":"Vin Bon Wine Store","tags":{"name":"Vin Bon Wine Store","shop":"wine","website":"https://www.vinbon.com/locations/vinbon-welland/"}}},{"type":"Feature","id":"node/6259173877","geometry":{"type":"Point","coordinates":[-125.248046,50.0118381]},"properties":{"osm_type":"node","osm_id":6259173877,"category":"wine_shop","name":"Home Brew Factory & Wine Boutique","tags":{"addr:housenumber":"250","addr:street":"Dogwood Street","name":"Home Brew Factory & Wine Boutique","phone":"+1-250-287-2611","shop":"wine","website":"https://homebrewfactory.ca/"}}},{"type":"Feature","id":"node/6292558627","geometry":{"type":"Point","coordinates":[-79.4466878,43.1717291]},"properties":{"osm_type":"node","osm_id":6292558627,"category":"winery","name":"Cornerstone Estate Winery","tags":{"addr:city":"Beamsville","addr:housenumber":"4390","addr:postcode":"L0R 1B1","addr:street":"Tufford Road","craft":"winery","name":"Cornerstone Estate Winery","opening_hours":"We 12:00-17:00; Th-Su 11:00-18:00","phone":"+1-905-563-6758","shop":"wine","website":"https://cornerstonewinery.com/"}}},{"type":"Feature","id":"node/6302634257","geometry":{"type":"Point","coordinates":[-79.5375556,43.639776]},"properties":{"osm_type":"node","osm_id":6302634257,"category":"wine_shop","name":"Wine Rack","tags":{"addr:housenumber":"5230","addr:street":"Dundas Street West","brand":"Wine Rack","name":"Wine Rack","shop":"wine"}}},{"type":"Feature","id":"node/6316494088","geometry":{"type":"Point","coordinates":[-76.893032,44.1251002]},"properties":{"osm_type":"node","osm_id":6316494088,"category":"wine_shop","name":"Wynn Farms","tags":{"addr:street":"Loyalist Parkway","name":"Wynn Farms","shop":"wine"}}},{"type":"Feature","id":"node/6334441784","geometry":{"type":"Point","coordinates":[-79.4784908,43.6505098]},"properties":{"osm_type":"node","osm_id":6334441784,"category":"wine_shop","name":"The Wine Shop","tags":{"addr:city":"Toronto","addr:housenumber":"2273","addr:street":"Bloor Street West","brand":"The Wine Shop","name":"The Wine Shop","opening_hours":"Mo-We,Su 11:00-19:00; Th-Sa 10:00-20:00","shop":"wine","wheelchair":"yes"}}},{"type":"Feature","id":"node/6335841666","geometry":{"type":"Point","coordinates":[-79.4032279,43.6669267]},"properties":{"osm_type":"node","osm_id":6335841666,"category":"wine_shop","name":"Wine Rack","tags":{"addr:city":"Toronto","addr:housenumber":"320","addr:postcode":"M5S 1W5","addr:street":"Bloor Street West","brand":"Wine Rack","name":"Wine Rack","shop":"wine"}}},{"type":"Feature","id":"node/6340806327","geometry":{"type":"Point","coordinates":[-79.4308037,43.6609796]},"properties":{"osm_type":"node","osm_id":6340806327,"category":"wine_shop","name":"Blue Door Wine Shop","tags":{"addr:city":"Toronto","addr:housenumber":"1010","addr:postcode":"M6H 1M2","addr:street":"Bloor Street West","name":"Blue Door Wine Shop","shop":"wine","website":"https://bluedoorwineshop.com/"}}},{"type":"Feature","id":"node/6341542344","geometry":{"type":"Point","coordinates":[-79.4422792,43.6585752]},"properties":{"osm_type":"node","osm_id":6341542344,"category":"wine_shop","name":"Wine Rack","tags":{"addr:city":"Toronto","addr:housenumber":"1298","addr:street":"Bloor Street West","brand":"Wine Rack","name":"Wine Rack","opening_hours":"11:00-22:00","shop":"wine"}}},{"type":"Feature","id":"node/6348659388","geometry":{"type":"Point","coordinates":[-79.5414224,43.7526516]},"properties":{"osm_type":"node","osm_id":6348659388,"category":"winery","name":"North Spirit Distillery","tags":{"craft":"winery","name":"North Spirit Distillery"}}},{"type":"Feature","id":"node/6369142349","geometry":{"type":"Point","coordinates":[-79.4032587,43.647468]},"properties":{"osm_type":"node","osm_id":6369142349,"category":"wine_shop","name":"Wine Rack","tags":{"addr:housenumber":"560","addr:street":"Queen Street West","brand":"Wine Rack","name":"Wine Rack","phone":"+1-416-504-3647","shop":"wine","website":"https://www.winerack.com/"}}},{"type":"Feature","id":"node/6386975407","geometry":{"type":"Point","coordinates":[-79.4048841,43.6436246]},"properties":{"osm_type":"node","osm_id":6386975407,"category":"wine_shop","name":"Wine Rack","tags":{"addr:city":"Toronto","addr:housenumber":"746","addr:street":"King Street West","brand":"Wine Rack","name":"Wine Rack","shop":"wine"}}},{"type":"Feature","id":"node/6392713962","geometry":{"type":"Point","coordinates":[-119.6314638,49.575529]},"properties":{"osm_type":"node","osm_id":6392713962,"category":"winery","name":"8th Generation Vineyard","tags":{"addr:city":"Summerland","addr:housenumber":"6807","addr:postcode":"V0H 1Z9","addr:street":"Highway 97","craft":"winery","email":"info@8thgeneration.com","name":"8th Generation Vineyard","opening_hours":"Apr Mo-Su 11:00-16:00; May,Jun,Jul,Aug,Sep,Oct Mo-Su 10:00-17:30","operator":"8th generation Vineyard","phone":"+1-250-494-1783","shop":"alcohol","website":"https://www.8thgeneration.com/"}}},{"type":"Feature","id":"node/6401671405","geometry":{"type":"Point","coordinates":[-79.3004043,43.688272]},"properties":{"osm_type":"node","osm_id":6401671405,"category":"wine_shop","name":"Wine Rack","tags":{"brand":"Wine Rack","name":"Wine Rack","shop":"wine"}}},{"type":"Feature","id":"node/6402291786","geometry":{"type":"Point","coordinates":[-79.3364541,43.6617405]},"properties":{"osm_type":"node","osm_id":6402291786,"category":"wine_shop","name":"Wine Rack","tags":{"brand":"Wine Rack","name":"Wine Rack","shop":"wine"}}},{"type":"Feature","id":"node/6405130187","geometry":{"type":"Point","coordinates":[-75.3575353,45.2569591]},"properties":{"osm_type":"node","osm_id":6405130187,"category":"winery","name":"We make wine","tags":{"addr:housenumber":"92","addr:street":"Mill Street","craft":"winery","name":"We make wine"}}},{"type":"Feature","id":"node/6407758909","geometry":{"type":"Point","coordinates":[-75.6832832,44.5903488]},"properties":{"osm_type":"node","osm_id":6407758909,"category":"wine_shop","name":"Bodega Wines","tags":{"addr:housenumber":"12","addr:street":"King Street West","name":"Bodega Wines","shop":"wine"}}},{"type":"Feature","id":"node/6430893468","geometry":{"type":"Point","coordinates":[-119.794266,49.2138927]},"properties":{"osm_type":"node","osm_id":6430893468,"category":"winery","name":"Corcelettes Estate Winery","tags":{"addr:city":"Keremeos","addr:housenumber":"2582","addr:postcode":"V0X 1N4","addr:street":"Upper Bench Rd","craft":"winery","name":"Corcelettes Estate Winery","phone":"+1-250-499-5595","shop":"alcohol","website":"https://www.corceletteswine.ca/"}}},{"type":"Feature","id":"node/6431024687","geometry":{"type":"Point","coordinates":[-119.4499553,50.1310248]},"properties":{"osm_type":"node","osm_id":6431024687,"category":"wine_shop","name":"50th Parallel & Block One","tags":{"addr:street":"Terrace View Road","name":"50th Parallel & Block One","shop":"wine"}}},{"type":"Feature","id":"node/6471141546","geometry":{"type":"Point","coordinates":[-76.9490106,44.2482579]},"properties":{"osm_type":"node","osm_id":6471141546,"category":"wine_shop","name":"The Wine Store","tags":{"name":"The Wine Store","shop":"wine"}}},{"type":"Feature","id":"node/6471612673","geometry":{"type":"Point","coordinates":[-77.7325107,44.0422769]},"properties":{"osm_type":"node","osm_id":6471612673,"category":"wine_shop","name":"The Cellar Door","tags":{"name":"The Cellar Door","shop":"wine"}}},{"type":"Feature","id":"node/6475860797","geometry":{"type":"Point","coordinates":[-119.5662626,49.1388918]},"properties":{"osm_type":"node","osm_id":6475860797,"category":"winery","name":"Stoneboat Vineyards","tags":{"addr:city":"Oliver","addr:housenumber":"356","addr:postcode":"V0H 1T1","addr:street":"Orchard Grove Lane","alt_name":"Stone Boat Vineyards","craft":"winery","email":"info@stoneboatvineyards.com","name":"Stoneboat Vineyards","phone":"+1-250-498-2226","shop":"alcohol","website":"https://www.stoneboatvineyards.com/"}}},{"type":"Feature","id":"node/6484747349","geometry":{"type":"Point","coordinates":[-122.3177655,49.1341394]},"properties":{"osm_type":"node","osm_id":6484747349,"category":"winery","name":"A Grape in Time Winemaking Academy","tags":{"addr:city":"Mission","addr:housenumber":"32757","addr:postcode":"v2v 6k7","addr:street":"Logan Avenue","craft":"winery","name":"A Grape in Time Winemaking Academy","shop":"craft wine making","website":"https://www.agrapeintime.com/"}}},{"type":"Feature","id":"node/6496863267","geometry":{"type":"Point","coordinates":[-79.2537319,43.2005987]},"properties":{"osm_type":"node","osm_id":6496863267,"category":"wine_shop","name":"The Wine Shop","tags":{"brand":"The Wine Shop","name":"The Wine Shop","shop":"wine"}}},{"type":"Feature","id":"node/6501154828","geometry":{"type":"Point","coordinates":[-76.5342093,45.6173615]},"properties":{"osm_type":"node","osm_id":6501154828,"category":"winery","name":"Little Red Wagon Winery","tags":{"addr:housenumber":"165","addr:street":"Chemin de Calumet Ouest","craft":"winery","name":"Little Red Wagon Winery","name:fr":"Vignoble Petit Chariot Rouge","opening_hours":"Fr-Su 13:00-17:00","phone":"+1-819-744-0842"}}},{"type":"Feature","id":"node/6504168391","geometry":{"type":"Point","coordinates":[-79.2277533,43.1884816]},"properties":{"osm_type":"node","osm_id":6504168391,"category":"wine_shop","name":"The Wine Shop","tags":{"brand":"The Wine Shop","name":"The Wine Shop","shop":"wine"}}},{"type":"Feature","id":"node/6510233958","geometry":{"type":"Point","coordinates":[-79.2080463,43.1783196]},"properties":{"osm_type":"node","osm_id":6510233958,"category":"wine_shop","name":"Wine Rack","tags":{"brand":"Wine Rack","name":"Wine Rack","shop":"wine"}}},{"type":"Feature","id":"node/6516868323","geometry":{"type":"Point","coordinates":[-79.2635863,43.1718297]},"properties":{"osm_type":"node","osm_id":6516868323,"category":"wine_shop","name":"Vinter's Cellar","tags":{"name":"Vinter's Cellar","shop":"wine"}}},{"type":"Feature","id":"node/6530534168","geometry":{"type":"Point","coordinates":[-77.2982021,44.0142112]},"properties":{"osm_type":"node","osm_id":6530534168,"category":"winery","name":"TerraChello","tags":{"craft":"winery","name":"TerraChello"}}},{"type":"Feature","id":"node/6545539547","geometry":{"type":"Point","coordinates":[-79.4708627,43.730018]},"properties":{"osm_type":"node","osm_id":6545539547,"category":"wine_shop","name":"Vin Bon Wine Emporium","tags":{"name":"Vin Bon Wine Emporium","shop":"wine"}}},{"type":"Feature","id":"node/6548307604","geometry":{"type":"Point","coordinates":[-79.4579175,43.7193798]},"properties":{"osm_type":"node","osm_id":6548307604,"category":"wine_shop","name":"Wine Kitz","tags":{"name":"Wine Kitz","shop":"wine"}}},{"type":"Feature","id":"node/6556450085","geometry":{"type":"Point","coordinates":[-123.8383488,48.3735893]},"properties":{"osm_type":"node","osm_id":6556450085,"category":"wine_shop","name":"Tugwell Creek Honey Farm and Meadery","tags":{"name":"Tugwell Creek Honey Farm and Meadery","shop":"wine"}}},{"type":"Feature","id":"node/6561283495","geometry":{"type":"Point","coordinates":[-79.5659535,43.7849155]},"properties":{"osm_type":"node","osm_id":6561283495,"category":"wine_shop","name":"Wine Craft","tags":{"name":"Wine Craft","shop":"wine"}}},{"type":"Feature","id":"node/6564183256","geometry":{"type":"Point","coordinates":[-79.6824384,43.5438241]},"properties":{"osm_type":"node","osm_id":6564183256,"category":"wine_shop","name":"The Wine Shop","tags":{"brand":"The Wine Shop","name":"The Wine Shop","shop":"wine"}}},{"type":"Feature","id":"node/6577717973","geometry":{"type":"Point","coordinates":[-79.4841747,44.056556]},"properties":{"osm_type":"node","osm_id":6577717973,"category":"wine_shop","name":"The Wine Shop","tags":{"addr:housenumber":"17600","addr:street":"Yonge Street","brand":"The Wine Shop","name":"The Wine Shop","shop":"wine"}}},{"type":"Feature","id":"node/6580689207","geometry":{"type":"Point","coordinates":[-75.1811439,44.9013535]},"properties":{"osm_type":"node","osm_id":6580689207,"category":"wine_shop","name":"The Cook's Corner","tags":{"name":"The Cook's Corner","shop":"wine"}}},{"type":"Feature","id":"node/6596667442","geometry":{"type":"Point","coordinates":[-81.7308868,43.3112094]},"properties":{"osm_type":"node","osm_id":6596667442,"category":"winery","name":"Dark Horse Estate Winery","tags":{"addr:city":"Grand Bend","addr:housenumber":"70665","addr:postcode":"N0M 1T0","addr:street":"B Line","craft":"winery","name":"Dark Horse Estate Winery","phone":"+1-519-238-5000","website":"https://www.darkhorseestatewinery.com/"}}},{"type":"Feature","id":"node/6606480670","geometry":{"type":"Point","coordinates":[-79.0119184,43.8634348]},"properties":{"osm_type":"node","osm_id":6606480670,"category":"wine_shop","name":"Vin Bon","tags":{"name":"Vin Bon","shop":"wine"}}},{"type":"Feature","id":"node/6614712072","geometry":{"type":"Point","coordinates":[-78.3442474,44.2814126]},"properties":{"osm_type":"node","osm_id":6614712072,"category":"wine_shop","name":"Vintner's Cellar","tags":{"name":"Vintner's Cellar","shop":"wine"}}},{"type":"Feature","id":"node/6617018744","geometry":{"type":"Point","coordinates":[-78.339513,44.3260345]},"properties":{"osm_type":"node","osm_id":6617018744,"category":"wine_shop","name":"Wine by You","tags":{"name":"Wine by You","shop":"wine"}}},{"type":"Feature","id":"node/6621164837","geometry":{"type":"Point","coordinates":[-79.4246173,44.5970241]},"properties":{"osm_type":"node","osm_id":6621164837,"category":"wine_shop","name":"Fellini","tags":{"name":"Fellini","shop":"wine"}}},{"type":"Feature","id":"node/6627737844","geometry":{"type":"Point","coordinates":[-79.7114097,44.4150294]},"properties":{"osm_type":"node","osm_id":6627737844,"category":"wine_shop","name":"Wine Rack","tags":{"addr:city":"Barrie","addr:street":"Bayfield Street","brand":"Wine Rack","name":"Wine Rack","shop":"wine"}}},{"type":"Feature","id":"node/6636605696","geometry":{"type":"Point","coordinates":[-80.2382958,42.7813045]},