{"type":"FeatureCollection","features":[{"type":"Feature","id":"node/267314479","geometry":{"type":"Point","coordinates":[-79.38047,43.63931]},"properties":{"osm_type":"node","osm_id":267314479,"category":"wine_shop","name":"Wine Rack","tags":{"brand":"Wine Rack","name":"Wine Rack","opening_hours":"Mo-Sa 10:00-22:00; Su 11:00-18:00","shop":"wine","wheelchair":"yes"}}},{"type":"Feature","id":"node/267314749","geometry":{"type":"Point","coordinates":[-79.38306,43.63968]},"properties":{"osm_type":"node","osm_id":267314749,"category":"wine_shop","name":"The Wine Shop","tags":{"brand":"The Wine Shop","name":"The Wine Shop","shop":"wine","website":"https://www.thewineshops.com/"}}},{"type":"Feature","id":"node/269278647","geometry":{"type":"Point","coordinates":[-79.12551,43.25239]},"properties":{"osm_type":"node","osm_id":269278647,"category":"winery","name":"Strewn Winery","wikidata":"Q109833950","tags":{"addr:city":"Niagara-on-the-Lake","addr:housenumber":"1339","addr:postcode":"L0S 1J0","addr:street":"Lakeshore Road","craft":"winery","name":"Strewn Winery","phone":"+1-905-468-1229","shop":"wine","website":"https://www.strewnwinery.com/","wheelchair":"yes","wikidata":"Q109833950"}}},{"type":"Feature","id":"node/435334096","geometry":{"type":"Point","coordinates":[-79.35627,43.68474]},"properties":{"osm_type":"node","osm_id":435334096,"category":"wine_shop","name":"Vineyards Estate Wines","tags":{"name":"Vineyards Estate Wines","shop":"wine","wheelchair":"yes"}}},{"type":"Feature","id":"node/466941046","geometry":{"type":"Point","coordinates":[-77.40407,43.93811]},"properties":{"osm_type":"node","osm_id":466941046,"category":"vineyard","name":"Chadsey's Cairns Winery and Vineyard","tags":{"landuse":"vineyard","name":"Chadsey's Cairns Winery and Vineyard"}}},{"type":"Feature","id":"node/466941247","geometry":{"type":"Point","coordinates":[-77.41547,43.93779]},"properties":{"osm_type":"node","osm_id":466941247,"category":"winery","name":"Sandbanks Estate Winery","tags":{"craft":"winery","landuse":"vineyard","name":"Sandbanks Estate Winery"}}},{"type":"Feature","id":"node/526959131","geometry":{"type":"Point","coordinates":[-119.56592,49.84287]},"properties":{"osm_type":"node","osm_id":526959131,"category":"winery","name":"Quails' Gate Winery","tags":{"addr:housenumber":"3303","addr:postcode":"V1Z 2H3","addr:street":"Boucherie Road","craft":"winery","email":"info@quailsgate.com","name":"Quails' Gate Winery","phone":"+1-250-769-4451","shop":"alcohol","website":"https://www.quailsgate.com/"}}},{"type":"Feature","id":"node/526959504","geometry":{"type":"Point","coordinates":[-119.55026,49.85518]},"properties":{"osm_type":"node","osm_id":526959504,"category":"winery","name":"Mount Boucherie Estate Winery","tags":{"addr:housenumber":"829","addr:street":"Douglas Road","craft":"winery","email":"sales@mtboucherie.com","name":"Mount Boucherie Estate Winery","phone":"+1-778-940-1526","shop":"alcohol","website":"https://mtboucherie.com/"}}},{"type":"Feature","id":"node/538017587","geometry":{"type":"Point","coordinates":[-119.56306,49.53716]},"properties":{"osm_type":"node","osm_id":538017587,"category":"winery","name":"Hillside Winery","tags":{"addr:housenumber":"1350","addr:street":"Naramata Road","craft":"winery","email":"info@hillsidewinery.ca","name":"Hillside Winery","operator":"Hillside Winery","phone":"+1-250-493-6274","shop":"alcohol","website":"https://www.hillsidewinery.ca/"}}},{"type":"Feature","id":"node/605016257","geometry":{"type":"Point","coordinates":[-79.39066,43.68852]},"properties":{"osm_type":"node","osm_id":605016257,"category":"wine_shop","name":"Wine Rack","tags":{"brand":"Wine Rack","name":"Wine Rack","shop":"wine"}}},{"type":"Feature","id":"node/815496291","geometry":{"type":"Point","coordinates":[-63.65833,44.66349]},"properties":{"osm_type":"node","osm_id":815496291,"category":"wine_shop","name":"Wine Kitz","tags":{"addr:city":"Halifax","addr:housenumber":"287","addr:street":"Lacewood Drive","name":"Wine Kitz","shop":"wine"}}},{"type":"Feature","id":"node/946068082","geometry":{"type":"Point","coordinates":[-123.13543,49.27215]},"properties":{"osm_type":"node","osm_id":946068082,"category":"wine_shop","name":"Liberty Wines","tags":{"addr:city":"Vancouver","addr:housenumber":"1660","addr:street":"Johnston Street","name":"Liberty Wines","opening_hours":"Mo-Th 09:30-20:00; Fr 09:30-21:00; Sa 09:00-21:00; Su 09:00-20:00","phone":"+1-604-602-1120","shop":"wine","website":"https://www.libertywinemerchants.com/locations/#1551299163938-662c5297-5844"}}},{"type":"Feature","id":"node/947592289","geometry":{"type":"Point","coordinates":[-72.0562,45.29121]},"properties":{"osm_type":"node","osm_id":947592289,"category":"winery","name":"Le Cep d'Argent","tags":{"addr:housenumber":"1257","addr:postcode":"J1X 3W5","addr:street":"Chemin de la Rivière","craft":"winery","name":"Le Cep d'Argent","website":"https://www.cepdargent.com/"}}},{"type":"Feature","id":"node/955336967","geometry":{"type":"Point","coordinates":[-123.15655,49.26835]},"properties":{"osm_type":"node","osm_id":955336967,"category":"wine_shop","name":"Kitsilano Wine Cellar","tags":{"addr:city":"Vancouver","addr:housenumber":"2239","addr:street":"West 4th Avenue","name":"Kitsilano Wine Cellar","opening_hours":"09:00-23:00","phone":"+1-604-736-7660","shop":"wine","website":"https://www.kitsilanowinecellar.com/"}}},{"type":"Feature","id":"node/975547501","geometry":{"type":"Point","coordinates":[-79.39419,43.67119]},"properties":{"osm_type":"node","osm_id":975547501,"category":"wine_shop","name":"Vineyards Estate Wines","tags":{"name":"Vineyards Estate Wines","shop":"wine"}}},{"type":"Feature","id":"node/1213568749","geometry":{"type":"Point","coordinates":[-79.38049,43.66566]},"properties":{"osm_type":"node","osm_id":1213568749,"category":"wine_shop","name":"Wine Rack","tags":{"addr:city":"Toronto","addr:housenumber":"77","addr:street":"Wellesley Street East","brand":"Wine Rack","name":"Wine Rack","shop":"wine","wheelchair":"limited"}}},{"type":"Feature","id":"node/1353483096","geometry":{"type":"Point","coordinates":[-123.25498,48.77936]},"properties":{"osm_type":"node","osm_id":1353483096,"category":"winery","name":"Seastar Estate Farm and Vineyard","tags":{"addr:housenumber":"6621","addr:street":"Harbour Hill Drive","craft":"winery","email":"info@seastarvineyards.ca","name":"Seastar Estate Farm and Vineyard","phone":"+1-250-629-6960","shop":"alcohol","website":"https://www.seastarvineyards.ca/"}}},{"type":"Feature","id":"node/1368622167","geometry":{"type":"Point","coordinates":[-124.98021,49.67079]},"properties":{"osm_type":"node","osm_id":1368622167,"category":"wine_shop","name":"Riverside Wines","tags":{"name":"Riverside Wines","phone":"+1-250-338-7772","shop":"wine"}}},{"type":"Feature","id":"node/1394123202","geometry":{"type":"Point","coordinates":[-122.49909,49.15514]},"properties":{"osm_type":"node","osm_id":1394123202,"category":"winery","name":"The Fort Wine Co.","tags":{"addr:housenumber":"26151","addr:street":"84 Avenue","craft":"winery","name":"The Fort Wine Co.","phone":"+1-604-857-1101","shop":"wine","website":"http://thefortwineco.com/"}}},{"type":"Feature","id":"node/1470047366","geometry":{"type":"Point","coordinates":[-119.35954,50.95485]},"properties":{"osm_type":"node","osm_id":1470047366,"category":"wine_shop","name":"Celista Estate Winery","tags":{"name":"Celista Estate Winery","shop":"wine","tourism":"attraction","website":"https://www.celistawine.com/"}}},{"type":"Feature","id":"node/1491980371","geometry":{"type":"Point","coordinates":[-79.09059,43.83436]},"properties":{"osm_type":"node","osm_id":1491980371,"category":"wine_shop","name":"Carousel Wines","tags":{"name":"Carousel Wines","shop":"wine"}}},{"type":"Feature","id":"node/1755470113","geometry":{"type":"Point","coordinates":[-79.42509,43.82554]},"properties":{"osm_type":"node","osm_id":1755470113,"category":"wine_shop","name":"Thornhill Winery","tags":{"name":"Thornhill Winery","shop":"wine"}}},{"type":"Feature","id":"node/1907599829","geometry":{"type":"Point","coordinates":[-79.58197,43.60864]},"properties":{"osm_type":"node","osm_id":1907599829,"category":"wine_shop","name":"Magnotta Winery","tags":{"name":"Magnotta Winery","shop":"wine","website":"https://www.magnotta.com/"}}},{"type":"Feature","id":"node/1968499457","geometry":{"type":"Point","coordinates":[-79.74745,43.39814]},"properties":{"osm_type":"node","osm_id":1968499457,"category":"wine_shop","name":"Wine Rack","tags":{"brand":"Wine Rack","name":"Wine Rack","shop":"wine"}}},{"type":"Feature","id":"node/1973987824","geometry":{"type":"Point","coordinates":[-71.91194,45.39849]},"properties":{"osm_type":"node","osm_id":1973987824,"category":"wine_shop","name":"Vinestrie","tags":{"addr:housenumber":"1444","addr:postcode":"J1J 2C2","addr:street":"Rue King Ouest","name":"Vinestrie","shop":"wine"}}},{"type":"Feature","id":"node/1983865939","geometry":{"type":"Point","coordinates":[-79.41975,43.80568]},"properties":{"osm_type":"node","osm_id":1983865939,"category":"wine_shop","name":"Wine Jan Vins","tags":{"name":"Wine Jan Vins","shop":"wine"}}},{"type":"Feature","id":"node/2018091043","geometry":{"type":"Point","coordinates":[-73.11739,46.09298]},"properties":{"osm_type":"node","osm_id":2018091043,"category":"winery","name":"Vignoble Clos St-Ignace","tags":{"craft":"winery","name":"Vignoble Clos St-Ignace"}}},{"type":"Feature","id":"node/2037786032","geometry":{"type":"Point","coordinates":[-123.7652,48.81254]},"properties":{"osm_type":"node","osm_id":2037786032,"category":"winery","name":"Averill Creek Vineyard","tags":{"addr:city":"Duncan","addr:housenumber":"6552","addr:postcode":"V9L6K9","addr:street":"North Road","craft":"winery","name":"Averill Creek Vineyard","phone":"+1-250-709-9986","shop":"wine","website":"https://www.averillcreek.ca/"}}},{"type":"Feature","id":"node/2088038881","geometry":{"type":"Point","coordinates":[-75.64708,45.37665]},"properties":{"osm_type":"node","osm_id":2088038881,"category":"wine_shop","name":"J & J Wines","tags":{"addr:housenumber":"1574","addr:street":"Walkley Road","name":"J & J Wines","shop":"wine"}}},{"type":"Feature","id":"node/2122906081","geometry":{"type":"Point","coordinates":[-79.29911,43.72361]},"properties":{"osm_type":"node","osm_id":2122906081,"category":"wine_shop","name":"Wine Rack","tags":{"brand":"Wine Rack","name":"Wine Rack","shop":"wine"}}},{"type":"Feature","id":"node/2135640248","geometry":{"type":"Point","coordinates":[-77.08259,45.82329]},"properties":{"osm_type":"node","osm_id":2135640248,"category":"wine_shop","name":"Cork Culture","tags":{"name":"Cork Culture","shop":"wine"}}},{"type":"Feature","id":"node/2159618442","geometry":{"type":"Point","coordinates":[-79.50875,43.59982]},"properties":{"osm_type":"node","osm_id":2159618442,"category":"winery","name":"The Wine Palace","tags":{"addr:city":"Etobicoke","addr:housenumber":"3025","addr:postcode":"M8V 1K5","addr:street":"Lake Shore Boulevard West","craft":"winery","name":"The Wine Palace","phone":"+1-416-253-7081"}}},{"type":"Feature","id":"node/2188781416","geometry":{"type":"Point","coordinates":[-79.56215,43.57299]},"properties":{"osm_type":"node","osm_id":2188781416,"category":"winery","name":"The Wine Bulter","tags":{"addr:city":"Mississauga","addr:housenumber":"860","addr:street":"Lakeshore Road East","craft":"winery","name":"The Wine Bulter","website":"https://winebutler.ca/"}}},{"type":"Feature","id":"node/2240222184","geometry":{"type":"Point","coordinates":[-80.0895,43.92167]},"properties":{"osm_type":"node","osm_id":2240222184,"category":"wine_shop","name":"Winexpert","tags":{"name":"Winexpert","shop":"wine"}}},{"type":"Feature","id":"node/2356769836","geometry":{"type":"Point","coordinates":[-79.34817,43.84672]},"properties":{"osm_type":"node","osm_id":2356769836,"category":"wine_shop","name":"The Selected Winery","tags":{"name":"The Selected Winery","shop":"wine"}}},{"type":"Feature","id":"node/2398840932","geometry":{"type":"Point","coordinates":[-79.38961,43.70641]},"properties":{"osm_type":"node","osm_id":2398840932,"category":"wine_shop","name":"Wine Rack","tags":{"brand":"Wine Rack","name":"Wine Rack","shop":"wine","wheelchair":"yes"}}},{"type":"Feature","id":"node/2400999716","geometry":{"type":"Point","coordinates":[-61.79055,47.41289]},"properties":{"osm_type":"node","osm_id":2400999716,"category":"winery","name":"Le Barbocheux","tags":{"craft":"winery","name":"Le Barbocheux"}}},{"type":"Feature","id":"node/2477847935","geometry":{"type":"Point","coordinates":[-79.38967,43.67077]},"properties":{"osm_type":"node","osm_id":2477847935,"category":"wine_shop","name":"Wine Rack","tags":{"brand":"Wine Rack","name":"Wine Rack","shop":"wine"}}},{"type":"Feature","id":"node/2674284132","geometry":{"type":"Point","coordinates":[-79.65047,43.49928]},"properties":{"osm_type":"node","osm_id":2674284132,"category":"wine_shop","name":"The Glass Half Full","tags":{"name":"The Glass Half Full","opening_hours":"Tu-Fr 10:00-19:00; Sa 10:00-16:00","phone":"+1-905-339-1604","shop":"wine","website":"http://GlassHalfFull.ca","wheelchair":"limited"}}},{"type":"Feature","id":"node/2681580826","geometry":{"type":"Point","coordinates":[-79.36925,43.64402]},"properties":{"osm_type":"node","osm_id":2681580826,"category":"wine_shop","name":"Wine Rack","tags":{"brand":"Wine Rack","name":"Wine Rack","shop":"wine","website":"https://www.winerack.com/","wheelchair":"yes"}}},{"type":"Feature","id":"node/2895663529","geometry":{"type":"Point","coordinates":[-119.48827,49.89504]},"properties":{"osm_type":"node","osm_id":2895663529,"category":"winery","name":"Calona Vineyards","tags":{"addr:housenumber":"1125","addr:street":"Richter Street","craft":"winery","name":"Calona Vineyards","phone":"+1-250-762-9144","shop":"alcohol","website":"https://www.andrewpeller.com/cascadia.php"}}},{"type":"Feature","id":"node/2895663530","geometry":{"type":"Point","coordinates":[-119.48824,49.89477]},"properties":{"osm_type":"node","osm_id":2895663530,"category":"winery","name":"Sandhill Wines","tags":{"addr:housenumber":"1125","addr:street":"Richter Street","craft":"winery","email":"requestinfo@sandhillwines.ca","name":"Sandhill Wines","phone":"+1-250-979-4211","shop":"wine","website":"https://www.sandhillwines.ca/"}}},{"type":"Feature","id":"node/3011763414","geometry":{"type":"Point","coordinates":[-66.65703,45.9407]},"properties":{"osm_type":"node","osm_id":3011763414,"category":"wine_shop","name":"noble grape urban winery","tags":{"addr:city":"Fredericton","addr:housenumber":"1111","addr:postcode":"E3B 3Z2","addr:street":"Regent Street","name":"noble grape urban winery","opening_hours":"Mo-We 10:00-18:00, Th-Fr 10:00-19:00, Sa 10:00-17:00","shop":"wine"}}},{"type":"Feature","id":"node/3012507268","geometry":{"type":"Point","coordinates":[-64.57507,44.59073]},"properties":{"osm_type":"node","osm_id":3012507268,"category":"winery","name":"Lunenburg County Winery","tags":{"addr:housenumber":"813","addr:street":"Walburne Road","craft":"winery","name":"Lunenburg County Winery","shop":"alcohol"}}},{"type":"Feature","id":"node/3180221567","geometry":{"type":"Point","coordinates":[-123.37055,48.4423]},"properties":{"osm_type":"node","osm_id":3180221567,"category":"wine_shop","name":"Blanshard Street Winery","tags":{"addr:housenumber":"661","addr:street":"Burnside Road East","name":"Blanshard Street Winery","opening_hours":"Mo-Fr 10:00-18:00, Sa 09:00-17:00, Su 11:00-16:00","phone":"+1 250 475-3800","shop":"wine","website":"https://blanshardstreetwinery.com/"}}},{"type":"Feature","id":"node/3310750499","geometry":{"type":"Point","coordinates":[-122.27726,49.03913]},"properties":{"osm_type":"node","osm_id":3310750499,"category":"winery","name":"Abbotsford Wine","tags":{"craft":"winery","name":"Abbotsford Wine","opening_hours":"Mo-Fr 11:00-19:00; Sa 11:00-17:00; Su,PH off","phone":"+1-604-854-5353","shop":"doityourself","website":"https://abbotsfordwine.com/"}}},{"type":"Feature","id":"node/3366466465","geometry":{"type":"Point","coordinates":[-79.80492,43.34317]},"properties":{"osm_type":"node","osm_id":3366466465,"category":"winery","name":"Better Bitters Brewing Co","tags":{"addr:city":"Burlington","addr:housenumber":"864","addr:street":"Drury Lane","craft":"winery","name":"Better Bitters Brewing Co","website":"http://betterbitters.ca/"}}},{"type":"Feature","id":"node/3384377191","geometry":{"type":"Point","coordinates":[-79.47624,43.18491]},"properties":{"osm_type":"node","osm_id":3384377191,"category":"winery","name":"Magnotta","tags":{"craft":"winery","name":"Magnotta"}}},{"type":"Feature","id":"node/3396312924","geometry":{"type":"Point","coordinates":[-79.39399,43.64059]},"properties":{"osm_type":"node","osm_id":3396312924,"category":"wine_shop","name":"The Wine Shop","tags":{"brand":"The Wine Shop","name":"The Wine Shop","opening_hours":"Mo-Sa 11:00-22:00; Su 12:00-21:00","shop":"wine","wheelchair":"yes"}}},{"type":"Feature","id":"node/3410784120","geometry":{"type":"Point","coordinates":[-79.75996,43.58338]},"properties":{"osm_type":"node","osm_id":3410784120,"category":"wine_shop","name":"Wine Rack","tags":{"addr:city":"Mississauga","addr:housenumber":"6677","addr:street":"Meadowvale Town Centre Circle","brand":"Wine Rack","name":"Wine Rack","shop":"wine"}}},{"type":"Feature","id":"node/3444992048","geometry":{"type":"Point","coordinates":[-79.83697,43.50794]},"properties":{"osm_type":"node","osm_id":3444992048,"category":"wine_shop","name":"Wine Rack","tags":{"brand":"Wine Rack","name":"Wine Rack","shop":"wine","website":"https://www.winerack.com/"}}},{"type":"Feature","id":"node/3451273266","geometry":{"type":"Point","coordinates":[-79.44878,43.91212]},"properties":{"osm_type":"node","osm_id":3451273266,"category":"wine_shop","name":"The Wine Shop","tags":{"brand":"The Wine Shop","name":"The Wine Shop","shop":"wine"}}},{"type":"Feature","id":"node/3465464196","geometry":{"type":"Point","coordinates":[-79.29102,43.68953]},"properties":{"osm_type":"node","osm_id":3465464196,"category":"wine_shop","name":"Wine Rack","tags":{"addr:city":"East York","addr:housenumber":"3003","addr:postcode":"M4C 1M9","addr:street":"Danforth Avenue","brand":"Wine Rack","name":"Wine Rack","opening_hours":"10:00-21:00","phone":"+14166944880","shop":"wine","website":"https://winerack.com"}}},{"type":"Feature","id":"node/3508238488","geometry":{"type":"Point","coordinates":[-68.32888,47.36236]},"properties":{"osm_type":"node","osm_id":3508238488,"category":"wine_shop","name":"Boutique J'Embouteille Le Kado","tags":{"addr:housenumber":"65","addr:street":"Rue Saint-François","name":"Boutique J'Embouteille Le Kado","phone":"+1-506-739-6862","shop":"wine","website":"http://www.jembouteille.com"}}},{"type":"Feature","id":"node/3531127948","geometry":{"type":"Point","coordinates":[-112.84043,49.69447]},"properties":{"osm_type":"node","osm_id":3531127948,"category":"wine_shop","name":"Steel & Vines","tags":{"addr:housenumber":"332","addr:postcode":"T1J 0N3","addr:street":"5 Street S","email":"steelandvines@gmail.com","name":"Steel & Vines","opening_hours":"Th-Sa 17:00-22:00; Su-We off","phone":"+1-587-486-5433","shop":"wine"}}},{"type":"Feature","id":"node/3556414490","geometry":{"type":"Point","coordinates":[-76.35486,45.43516]},"properties":{"osm_type":"node","osm_id":3556414490,"category":"wine_shop","name":"Priority Wines","tags":{"addr:city":"Arnprior","addr:housenumber":"67","addr:postcode":"K7S 1S1","addr:street":"Madawaska Street","name":"Priority Wines","shop":"wine"}}},{"type":"Feature","id":"node/3587203893","geometry":{"type":"Point","coordinates":[-122.291,49.04887]},"properties":{"osm_type":"node","osm_id":3587203893,"category":"wine_shop","name":"Amici Wine Bar Osteria & Enoteca","tags":{"addr:housenumber":"33724","addr:postcode":"V2S 2G9","addr:street":"Essendene Avenue","amenity":"restaurant","cuisine":"italian","name":"Amici Wine Bar Osteria & Enoteca","shop":"wine","website":"https://www.amiciwinebar.com"}}},{"type":"Feature","id":"node/3641697938","geometry":{"type":"Point","coordinates":[-75.78202,45.37103]},"properties":{"osm_type":"node","osm_id":3641697938,"category":"wine_shop","name":"Premium Vintages","tags":{"addr:housenumber":"102 C","addr:street":"McEwen Avenue","name":"Premium Vintages","shop":"wine"}}},{"type":"Feature","id":"node/3655902591","geometry":{"type":"Point","coordinates":[-76.58167,44.25908]},"properties":{"osm_type":"node","osm_id":3655902591,"category":"wine_shop","name":"winexpert","tags":{"name":"winexpert","shop":"wine"}}},{"type":"Feature","id":"node/3655927593","geometry":{"type":"Point","coordinates":[-76.59133,44.25173]},"properties":{"osm_type":"node","osm_id":3655927593,"category":"wine_shop","name":"Bayridge Cask & Keg","tags":{"name":"Bayridge Cask & Keg","shop":"wine"}}},{"type":"Feature","id":"node/3655955617","geometry":{"type":"Point","coordinates":[-76.50377,44.26863]},"properties":{"osm_type":"node","osm_id":3655955617,"category":"wine_shop","name":"Magnotta Winery","tags":{"name":"Magnotta Winery","shop":"wine"}}},{"type":"Feature","id":"node/3710067744","geometry":{"type":"Point","coordinates":[-79.48181,43.65979]},"properties":{"osm_type":"node","osm_id":3710067744,"category":"wine_shop","name":"Wine Lovers Agency","tags":{"name":"Wine Lovers Agency","shop":"wine"}}},{"type":"Feature","id":"node/3710067746","geometry":{"type":"Point","coordinates":[-79.48173,43.6598]},"properties":{"osm_type":"node","osm_id":3710067746,"category":"wine_shop","name":"enostore","tags":{"addr:housenumber":"590","addr:street":"Annette Street","name":"enostore","shop":"wine","website":"https://www.enostore.ca/"}}},{"type":"Feature","id":"node/3731044749","geometry":{"type":"Point","coordinates":[-77.16598,43.99887]},"properties":{"osm_type":"node","osm_id":3731044749,"category":"wine_shop","name":"Black Prince Winery","tags":{"addr:housenumber":"13370","addr:street":"Highway 33","name":"Black Prince Winery","shop":"wine"}}},{"type":"Feature","id":"node/3735212949","geometry":{"type":"Point","coordinates":[-79.48074,43.63075]},"properties":{"osm_type":"node","osm_id":3735212949,"category":"wine_shop","name":"The Wine Shop","tags":{"brand":"The Wine Shop","name":"The Wine Shop","phone":"+1-416-201-8221","shop":"wine","website":"https://www.thewineshops.com/"}}},{"type":"Feature","id":"node/3746073209","geometry":{"type":"Point","coordinates":[-79.70675,43.60363]},"properties":{"osm_type":"node","osm_id":3746073209,"category":"wine_shop","name":"Vintner's Cellar","tags":{"name":"Vintner's Cellar","shop":"wine","website":"https://www.vintnerscellar.ca/"}}},{"type":"Feature","id":"node/3758770299","geometry":{"type":"Point","coordinates":[-79.07175,43.20598]},"properties":{"osm_type":"node","osm_id":3758770299,"category":"winery","name":"Marynissen Estates","tags":{"addr:city":"Niagara-On-The-Lake","addr:housenumber":"1208","addr:street":"Concession 1","craft":"winery","name":"Marynissen Estates","phone":"+1-905-469-7270","shop":"wine","website":"https://marynissen.com/"}}},{"type":"Feature","id":"node/3783348293","geometry":{"type":"Point","coordinates":[-63.37723,45.79659]},"properties":{"osm_type":"node","osm_id":3783348293,"category":"wine_shop","name":"Jost Winery","tags":{"addr:city":"Malagasy","addr:housenumber":"48","addr:postcode":"B0K 1E0","addr:street":"Vintage Lane","name":"Jost Winery","opening_hours":"Oct,Nov,Dec,Jan,Feb,Mar,Apr 09:00-17:00; Jun,Jul,Aug,Sep 09:00-18:00","operator":"Jost Vineyards","shop":"wine"}}},{"type":"Feature","id":"node/3805570956","geometry":{"type":"Point","coordinates":[-80.1062,44.32653]},"properties":{"osm_type":"node","osm_id":3805570956,"category":"wine_shop","name":"Chin Chin","tags":{"addr:city":"Creemore","addr:housenumber":"180","addr:postcode":"L0M 1G0","addr:street":"Mill Street","name":"Chin Chin","shop":"wine","website":"https://chinchinshop.ca"}}},{"type":"Feature","id":"node/3849723174","geometry":{"type":"Point","coordinates":[-79.72076,43.71556]},"properties":{"osm_type":"node","osm_id":3849723174,"category":"wine_shop","name":"The Wine Shop","tags":{"brand":"The Wine Shop","name":"The Wine Shop","shop":"wine"}}},{"type":"Feature","id":"node/3882118306","geometry":{"type":"Point","coordinates":[-79.50029,43.16448]},"properties":{"osm_type":"node","osm_id":3882118306,"category":"winery","name":"Domaine Le Clos Jordanne","tags":{"addr:city":"Beamsville","addr:housenumber":"4260","addr:street":"Mountainview Road","craft":"winery","name":"Domaine Le Clos Jordanne","opening_hours":"Mo-Su 11:00-17:00","phone":"+1-905-563-3942","shop":"wine","website":"https://www.leclosjordanne.com"}}},{"type":"Feature","id":"node/3882118308","geometry":{"type":"Point","coordinates":[-79.49552,43.15214]},"properties":{"osm_type":"node","osm_id":3882118308,"category":"winery","name":"Fielding Estate Winery","tags":{"addr:city":"Beamsville","addr:housenumber":"4020","addr:street":"Locust Lane","craft":"winery","name":"Fielding Estate Winery","phone":"+1-905-563-0668","shop":"wine","website":"https://fieldingwines.com/"}}},{"type":"Feature","id":"node/3882118317","geometry":{"type":"Point","coordinates":[-79.49495,43.1565]},"properties":{"osm_type":"node","osm_id":3882118317,"category":"winery","name":"The Organized Crime Winery","tags":{"addr:city":"Beamsville","addr:housenumber":"4043","addr:street":"Mountainview Road","craft":"winery","name":"The Organized Crime Winery","opening_hours":"Th-Tu 11:00-17:00","phone":"+1-905-563-9802","shop":"wine","website":"https://www.organizedcrimewinery.com/"}}},{"type":"Feature","id":"node/3882118319","geometry":{"type":"Point","coordinates":[-79.49563,43.16602]},"properties":{"osm_type":"node","osm_id":3882118319,"category":"winery","name":"Thirty Bench Wine Makers","tags":{"addr:city":"Beamsville","addr:housenumber":"4281","addr:street":"Mountainview Road","craft":"winery","name":"Thirty Bench Wine Makers","phone":"+1-905-563-1698","shop":"wine","website":"https://thirtybench.com/"}}},{"type":"Feature","id":"node/3918887694","geometry":{"type":"Point","coordinates":[-78.37269,44.58643]},"properties":{"osm_type":"node","osm_id":3918887694,"category":"winery","name":"Kawartha Country Wines","tags":{"addr:city":"Township of Galway-Cavendish and Harvey","addr:housenumber":"2452","addr:street":"County Road 36","craft":"winery","name":"Kawartha Country Wines","website":"https://kawarthacountrywines.ca/"}}},{"type":"Feature","id":"node/3949994210","geometry":{"type":"Point","coordinates":[-79.54879,43.64931]},"properties":{"osm_type":"node","osm_id":3949994210,"category":"winery","name":"Haus of Vine","tags":{"addr:housenumber":"139","addr:street":"Martin Grove Road","craft":"winery","name":"Haus of Vine","shop":"wine","website":"https://www.hausofvine.ca/"}}},{"type":"Feature","id":"node/3976485266","geometry":{"type":"Point","coordinates":[-79.77787,43.5838]},"properties":{"osm_type":"node","osm_id":3976485266,"category":"wine_shop","name":"Wine Rack","tags":{"brand":"Wine Rack","name":"Wine Rack","shop":"wine"}}},{"type":"Feature","id":"node/3997798097","geometry":{"type":"Point","coordinates":[-79.73252,43.36828]},"properties":{"osm_type":"node","osm_id":3997798097,"category":"wine_shop","name":"The Wine Shop","tags":{"brand":"The Wine Shop","name":"The Wine Shop","shop":"wine"}}},{"type":"Feature","id":"node/4058370159","geometry":{"type":"Point","coordinates":[-79.16954,43.78373]},"properties":{"osm_type":"node","osm_id":4058370159,"category":"wine_shop","name":"Wine Kitz","tags":{"name":"Wine Kitz","shop":"wine"}}},{"type":"Feature","id":"node/4079501191","geometry":{"type":"Point","coordinates":[-122.29797,49.05979]},"properties":{"osm_type":"node","osm_id":4079501191,"category":"winery","name":"Calder's Wine Cellar","tags":{"addr:housenumber":"33465","addr:street":"Maclure Road","alt_name":"Calders Wine","craft":"winery","name":"Calder's Wine Cellar","opening_hours":"Su-Mo off; Tu-Sa 10:00-17:00","phone":"+1-604-504-3600","website":"https://www.calderswine.com/"}}},{"type":"Feature","id":"node/4130719610","geometry":{"type":"Point","coordinates":[-82.88823,41.9912]},"properties":{"osm_type":"node","osm_id":4130719610,"category":"winery","name":"Oxley Estate Winery","tags":{"addr:city":"Harrow","addr:housenumber":"533","addr:street":"County Road 50","craft":"winery","name":"Oxley Estate Winery","phone":"+1-519-738-3264","website":"https://www.oxleyestatewinery.com/"}}},{"type":"Feature","id":"node/4194436789","geometry":{"type":"Point","coordinates":[-78.98665,44.0439]},"properties":{"osm_type":"node","osm_id":4194436789,"category":"winery","name":"Ocala Orchards Farm Winery","tags":{"addr:city":"Port Perry","addr:housenumber":"971","addr:postcode":"L9L 1B3","addr:street":"High Point Road","craft":"winery","name":"Ocala Orchards Farm Winery","phone":"+1-905-985-9924","website":"https://www.ocalawinery.com/"}}},{"type":"Feature","id":"node/4211270019","geometry":{"type":"Point","coordinates":[-79.14133,43.25021]},"properties":{"osm_type":"node","osm_id":4211270019,"category":"wine_shop","name":"Konzelmann Estate Winery","tags":{"addr:city":"Niagara-On-The-Lake","addr:housenumber":"1096","addr:street":"Lakeshore Road","name":"Konzelmann Estate Winery","phone":"+1-905-935-2866","shop":"wine","website":"https://konzelmann.ca/"}}},{"type":"Feature","id":"node/4254446993","geometry":{"type":"Point","coordinates":[-80.39069,42.67098]},"properties":{"osm_type":"node","osm_id":4254446993,"category":"winery","name":"Blueberry Hill Estates","tags":{"addr:city":"St. Williams","addr:housenumber":"1195","addr:street":"Front Road","craft":"winery","name":"Blueberry Hill Estates","phone":"+1-519-586-8712","shop":"wine","website":"http://blueberry-hill.ca/"}}},{"type":"Feature","id":"node/4254446994","geometry":{"type":"Point","coordinates":[-80.35237,42.68829]},"properties":{"osm_type":"node","osm_id":4254446994,"category":"winery","name":"Burning Kiln Winery","tags":{"addr:city":"St. Williams","addr:housenumber":"1709","addr:street":"Front Road","craft":"winery","name":"Burning Kiln Winery","phone":"+1-519-586-9858","shop":"wine","website":"https://www.burningkilnwinery.ca/"}}},{"type":"Feature","id":"node/4274049889","geometry":{"type":"Point","coordinates":[-119.55893,49.38971]},"properties":{"osm_type":"node","osm_id":4274049889,"category":"wine_shop","name":"Blasted Church Vineyards","tags":{"addr:housenumber":"378","addr:street":"Parsons Road","name":"Blasted Church Vineyards","opening_hours":"Mo-Su 11:00-17:00","phone":"+1-250-497-1125","shop":"wine","website":"https://blastedchurch.com/"}}},{"type":"Feature","id":"node/4290431994","geometry":{"type":"Point","coordinates":[-119.54092,49.78922]},"properties":{"osm_type":"node","osm_id":4290431994,"category":"winery","name":"CedarCreek Estate Winery","tags":{"addr:city":"Kelowna","addr:housenumber":"5445","addr:postcode":"V1W 4S5","addr:street":"Lakeshore Road","alt_name":"Cedar Creek Estate Winery","craft":"winery","name":"CedarCreek Estate Winery","phone":"+1-778-738-1020","shop":"alcohol","website":"https://www.cedarcreek.bc.ca/"}}},{"type":"Feature","id":"node/4299509595","geometry":{"type":"Point","coordinates":[-119.60757,49.49451]},"properties":{"osm_type":"node","osm_id":4299509595,"category":"wine_shop","name":"VQA Wine Store","tags":{"addr:housenumber":"400","name":"VQA Wine Store","shop":"wine"}}},{"type":"Feature","id":"node/4307915120","geometry":{"type":"Point","coordinates":[-73.56895,45.48745]},"properties":{"osm_type":"node","osm_id":4307915120,"category":"wine_bar","name":"Code Ambiance","tags":{"addr:city":"Montréal","addr:housenumber":"1874","addr:street":"Rue Notre-Dame Ouest","amenity":"restaurant","cuisine":"wine","name":"Code Ambiance"}}},{"type":"Feature","id":"node/4308220424","geometry":{"type":"Point","coordinates":[-79.56832,43.19724]},"properties":{"osm_type":"node","osm_id":4308220424,"category":"wine_shop","name":"Wine Rack","tags":{"brand":"Wine Rack","name":"Wine Rack","shop":"wine"}}},{"type":"Feature","id":"node/4331452390","geometry":{"type":"Point","coordinates":[-71.11334,46.86341]},"properties":{"osm_type":"node","osm_id":4331452390,"category":"wine_shop","name":"Vignoble Ste-Pétronille","tags":{"addr:housenumber":"8705","addr:street":"Chemin Royal","name":"Vignoble Ste-Pétronille","shop":"wine"}}},{"type":"Feature","id":"node/4331502989","geometry":{"type":"Point","coordinates":[-71.09418,46.87695]},"properties":{"osm_type":"node","osm_id":4331502989,"category":"wine_shop","name":"Cassis Mona & Filles","tags":{"addr:housenumber":"1225","addr:street":"Chemin Royal","name":"Cassis Mona & Filles","shop":"wine"}}},{"type":"Feature","id":"node/4331502990","geometry":{"type":"Point","coordinates":[-70.96592,46.96677]},"properties":{"osm_type":"node","osm_id":4331502990,"category":"wine_shop","name":"Domaine de la source a Marguerite","tags":{"addr:housenumber":"2388","addr:street":"Chemin Royal","name":"Domaine de la source a Marguerite","shop":"wine"}}},{"type":"Feature","id":"node/4340260224","geometry":{"type":"Point","coordinates":[-119.54911,49.10991]},"properties":{"osm_type":"node","osm_id":4340260224,"category":"winery","name":"Black Hills Estate Winery","tags":{"addr:housenumber":"4190","addr:street":"Black Sage Road","craft":"winery","email":"info@blackhillswinery.com","name":"Black Hills Estate Winery","phone":"+1-250-498-0666","shop":"alcohol","website":"https://www.blackhillswinery.com/"}}},{"type":"Feature","id":"node/4340408693","geometry":{"type":"Point","coordinates":[-119.42914,49.83926]},"properties":{"osm_type":"node","osm_id":4340408693,"category":"wine_shop","name":"Spierhead Winery","tags":{"name":"Spierhead Winery","shop":"wine"}}},{"type":"Feature","id":"node/4340420689","geometry":{"type":"Point","coordinates":[-119.4593,49.83424]},"properties":{"osm_type":"node","osm_id":4340420689,"category":"winery","name":"Tantalus Vineyards","tags":{"addr:housenumber":"1670","addr:street":"DeHart Road","alt_name":"Tantalus Wines","craft":"winery","email":"info@tantalus.ca","name":"Tantalus Vineyards","phone":"+1-250-764-0078","shop":"alcohol","website":"https://tantalus.ca/"}}},{"type":"Feature","id":"node/4341949189","geometry":{"type":"Point","coordinates":[-119.56405,49.50788]},"properties":{"osm_type":"node","osm_id":4341949189,"category":"winery","name":"South Upper Bench Road","tags":{"addr:housenumber":"170","addr:street":"Upper Bench Road South","craft":"winery","email":"info@upperbench.ca","name":"South Upper Bench Road","phone":"+1-250-770-1733","shop":"alcohol","website":"https://www.upperbench.ca/"}}},{"type":"Feature","id":"node/4346317863","geometry":{"type":"Point","coordinates":[-123.50938,48.85975]},"properties":{"osm_type":"node","osm_id":4346317863,"category":"winery","name":"Bishop's Brew House","tags":{"addr:housenumber":"346","addr:street":"Lower Ganges Road","craft":"winery","name":"Bishop's Brew House","opening_hours":"Tu-Fr 10:00-14:00","phone":"+1-250-537-1429","shop":"brewing_supplies"}}},{"type":"Feature","id":"node/4357734392","geometry":{"type":"Point","coordinates":[-79.43948,43.67011]},"properties":{"osm_type":"node","osm_id":4357734392,"category":"winery","name":"Macedo Winery","tags":{"addr:city":"Toronto","addr:housenumber":"1381","addr:postcode":"M6H 4C7","addr:street":"Dufferin Street","craft":"winery","email":"daisy@macedowinery.ca","name":"Macedo Winery","phone":"+1-416-535-0416","website":"http://www.macedowinery.ca"}}},{"type":"Feature","id":"node/4395612348","geometry":{"type":"Point","coordinates":[-106.56854,52.14776]},"properties":{"osm_type":"node","osm_id":4395612348,"category":"winery","name":"Vintner's Cellar","tags":{"craft":"winery","name":"Vintner's Cellar"}}},{"type":"Feature","id":"node/4397887294","geometry":{"type":"Point","coordinates":[-79.2732,43.98161]},"properties":{"osm_type":"node","osm_id":4397887294,"category":"wine_shop","name":"Willow Springs Winery","tags":{"addr:housenumber":"5572","addr:street":"Bethesda Sideroad","name":"Willow Springs Winery","name:en":"Willow Springs Winery","shop":"wine"}}},{"type":"Feature","id":"node/4397917993","geometry":{"type":"Point","coordinates":[-79.262,43.98995]},"properties":{"osm_type":"node","osm_id":4397917993,"category":"wine_shop","name":"Gallucci Winery","tags":{"addr:housenumber":"13204","addr:street":"9th Line","name":"Gallucci Winery","name:en":"Gallucci Winery","shop":"wine"}}},{"type":"Feature","id":"node/4397978289","geometry":{"type":"Point","coordinates":[-79.30487,43.95974]},"properties":{"osm_type":"node","osm_id":4397978289,"category":"wine_shop","name":"Applewood Orchard Winery","tags":{"addr:housenumber":"12442","addr:street":"McCowan Road","name":"Applewood Orchard Winery","name:en":"Applewood Orchard Winery","shop":"wine"}}},{"type":"Feature","id":"node/4400524818","geometry":{"type":"Point","coordinates":[-77.35785,44.16711]},"properties":{"osm_type":"node","osm_id":4400524818,"category":"wine_shop","name":"Wine Rack","tags":{"brand":"Wine Rack","name":"Wine Rack","shop":"wine"}}},{"type":"Feature","id":"node/4413315336","geometry":{"type":"Point","coordinates":[-73.03817,45.45684]},"properties":{"osm_type":"node","osm_id":4413315336,"category":"winery","name":"Cidrerie Michel Jodoin","tags":{"addr:city":"Rougemont","addr:housenumber":"1130","addr:street":"La Petite-Caroline","craft":"winery","name":"Cidrerie Michel Jodoin"}}},{"type":"Feature","id":"node/4438778351","geometry":{"type":"Point","coordinates":[-123.09555,49.28418]},"properties":{"osm_type":"node","osm_id":4438778351,"category":"winery","name":"Vancouver Urban Winery","tags":{"addr:housenumber":"55","addr:street":"Dunlevy Avenue","craft":"winery","email":"info@vancouverurbanwinery.com","name":"Vancouver Urban Winery","opening_hours":"Mo-We 11:00-23:00; Th-Fr 11:00-00:00; Sa 10:00-00:00; Su 10:00-23:00","phone":"+1-604-566-9463","shop":"alcohol","website":"https://www.vancouverurbanwinery.com/"}}},{"type":"Feature","id":"node/4444939280","geometry":{"type":"Point","coordinates":[-119.59701,49.1435]},"properties":{"osm_type":"node","osm_id":4444939280,"category":"winery","name":"Hester Creek Winery","tags":{"addr:city":"Oliver","addr:housenumber":"877","addr:postcode":"V0H !T0","addr:street":"Road 8","craft":"winery","email":"info@hestercreek.com","name":"Hester Creek Winery","phone":"+1-250-498-4435","shop":"alcohol","website":"https://hestercreek.com/"}}},{"type":"Feature","id":"node/4465522246","geometry":{"type":"Point","coordinates":[-81.14527,44.09329]},"properties":{"osm_type":"node","osm_id":4465522246,"category":"winery","name":"Hoity Toity Cellars","tags":{"addr:city":"Mildmay","addr:housenumber":"1723","addr:postcode":"N0G 2V0","addr:street":"Highway 9","craft":"winery","name":"Hoity Toity Cellars","opening_hours":"10:00-17:30; Mo-Tu off; Su 11:00-16:00","phone":"+1-519-507-1723","shop":"wine","website":"http://www.hoitytoitycellars.ca/"}}},{"type":"Feature","id":"node/4466619484","geometry":{"type":"Point","coordinates":[-75.63062,45.41082]},"properties":{"osm_type":"node","osm_id":4466619484,"category":"wine_shop","name":"Magnotta","tags":{"addr:housenumber":"1010","addr:street":"Belfast Road","name":"Magnotta","opening_hours":"Mo-Fr 9:00-19:00; Sa 9:00-18:00; Su 11:00-18:00","phone":"+1 613-971-0633","shop":"wine","website":"https://magnotta.com/"}}},{"type":"Feature","id":"node/4565218500","geometry":{"type":"Point","coordinates":[-72.78436,45.02685]},"properties":{"osm_type":"node","osm_id":4565218500,"category":"winery","name":"Domaine Héritage","tags":{"addr:housenumber":"150","addr:street":"Chemin de Richford","craft":"winery","name":"Domaine Héritage"}}},{"type":"Feature","id":"node/4565219210","geometry":{"type":"Point","coordinates":[-72.85937,45.10987]},"properties":{"osm_type":"node","osm_id":4565219210,"category":"winery","name":"Vignoble de l'Orpailleur","tags":{"addr:city":"Dunham","addr:housenumber":"1086","addr:street":"Rue Bruce","craft":"winery","name":"Vignoble de l'Orpailleur"}}},{"type":"Feature","id":"node/4565219212","geometry":{"type":"Point","coordinates":[-72.85645,45.10978]},"properties":{"osm_type":"node","osm_id":4565219212,"category":"winery","name":"Vignoble Gagliano","tags":{"addr:city":"Dunham","addr:housenumber":"1046","addr:street":"Rue Bruce","craft":"winery","name":"Vignoble Gagliano"}}},{"type":"Feature","id":"node/4565219214","geometry":{"type":"Point","coordinates":[-72.8565,45.10913]},"properties":{"osm_type":"node","osm_id":4565219214,"category":"winery","name":"UNION LIBRE cidre & vin","tags":{"addr:city":"Dunham","addr:housenumber":"1047","addr:street":"Rue Bruce","craft":"winery","name":"UNION LIBRE cidre & vin"}}},{"type":"Feature","id":"node/4565219215","geometry":{"type":"Point","coordinates":[-72.81591,45.12572]},"properties":{"osm_type":"node","osm_id":4565219215,"category":"winery","name":"Vignoble les Trois Clochers Enr.","tags":{"addr:housenumber":"341","addr:street":"Rue Bruce","craft":"winery","name":"Vignoble les Trois Clochers Enr."}}},{"type":"Feature","id":"node/4565219216","geometry":{"type":"Point","coordinates":[-72.80124,45.12971]},"properties":{"osm_type":"node","osm_id":4565219216,"category":"winery","name":"Vignoble Centaure","tags":{"addr:housenumber":"3848","addr:street":"Rue Principale","craft":"winery","name":"Vignoble Centaure"}}},{"type":"Feature","id":"node/4565744956","geometry":{"type":"Point","coordinates":[-73.15023,45.3476]},"properties":{"osm_type":"node","osm_id":4565744956,"category":"winery","name":"Vergers et Cidrerie Denis Charbonneau","tags":{"craft":"winery","name":"Vergers et Cidrerie Denis Charbonneau"}}},{"type":"Feature","id":"node/4569917946","geometry":{"type":"Point","coordinates":[-72.93806,45.04035]},"properties":{"osm_type":"node","osm_id":4569917946,"category":"winery","name":"Vignoble Pigeon Hill","tags":{"addr:city":"Saint-Armand","addr:housenumber":"395","addr:street":"Chemin des Érables","craft":"winery","name":"Vignoble Pigeon Hill"}}},{"type":"Feature","id":"node/4586898090","geometry":{"type":"Point","coordinates":[-79.10799,43.23317]},"properties":{"osm_type":"node","osm_id":4586898090,"category":"wine_shop","name":"Joseph's Estate Wines","tags":{"addr:housenumber":"1811","addr:street":"Niagara Stone Road","name":"Joseph's Estate Wines","name:en":"Joseph's Estate Wines","phone":"+1-905-468-1259","shop":"wine","website":"https://josephsestatewines.com/"}}},{"type":"Feature","id":"node/4586898698","geometry":{"type":"Point","coordinates":[-79.09664,43.24075]},"properties":{"osm_type":"node","osm_id":4586898698,"category":"wine_shop","name":"Stratus Wineyards","wikidata":"Q109902145","tags":{"addr:housenumber":"2059","addr:postcode":"L0S 1J0","addr:street":"Niagara Stone Road","name":"Stratus Wineyards","name:en":"Stratus Wineyards","phone":"+1-905-468-1806","shop":"wine","website":"https://stratuswines.com/","wikidata":"Q109902145"}}},{"type":"Feature","id":"node/4606558211","geometry":{"type":"Point","coordinates":[-119.65212,49.58096]},"properties":{"osm_type":"node","osm_id":4606558211,"category":"winery","name":"Heaven's Gate Estate Winery","tags":{"addr:city":"Summerland","addr:housenumber":"8001","addr:postcode":"V0H 1Z4","addr:street":"Happy Valley Road","craft":"winery","email":"info@heavensgatewinery.com","name":"Heaven's Gate Estate Winery","phone":"+1-778-516-5505","shop":"alcohol","website":"https://heavensgatewinery.com/"}}},{"type":"Feature","id":"node/4618645648","geometry":{"type":"Point","coordinates":[-73.22201,46.11601]},"properties":{"osm_type":"node","osm_id":4618645648,"category":"winery","name":"Vignoble du Vent Maudit","tags":{"craft":"winery","name":"Vignoble du Vent Maudit"}}},{"type":"Feature","id":"node/4685699295","geometry":{"type":"Point","coordinates":[-72.66666,45.11904]},"properties":{"osm_type":"node","osm_id":4685699295,"category":"winery","name":"Le Domaine Perdu","tags":{"craft":"winery","name":"Le Domaine Perdu"}}},{"type":"Feature","id":"node/4737293921","geometry":{"type":"Point","coordinates":[-79.46197,43.69856]},"properties":{"osm_type":"node","osm_id":4737293921,"category":"wine_shop","name":"Magnotta Winery","tags":{"addr:housenumber":"1320","addr:street":"Castlefield Avenue","name":"Magnotta Winery","phone":"+1-416-783-5753","shop":"wine"}}},{"type":"Feature","id":"node/4740902882","geometry":{"type":"Point","coordinates":[-123.00394,49.22949]},"properties":{"osm_type":"node","osm_id":4740902882,"category":"wine_shop","name":"Pillitteri","tags":{"addr:housenumber":"4500","addr:street":"Kingsway","name":"Pillitteri","name:en":"Pillitteri","shop":"wine"}}},{"type":"Feature","id":"node/4756216521","geometry":{"type":"Point","coordinates":[-73.57107,45.04573]},"properties":{"osm_type":"node","osm_id":4756216521,"category":"winery","name":"Domaine Neige","tags":{"addr:housenumber":"617","addr:street":"Route 202 Est","craft":"winery","name":"Domaine Neige"}}},{"type":"Feature","id":"node/4756216522","geometry":{"type":"Point","coordinates":[-73.56733,45.04573]},"properties":{"osm_type":"node","osm_id":4756216522,"category":"winery","name":"Vignoble Le Chat Botté","tags":{"addr:housenumber":"633","addr:street":"Route 202 Est","craft":"winery","name":"Vignoble Le Chat Botté"}}},{"type":"Feature","id":"node/4781903123","geometry":{"type":"Point","coordinates":[-75.69664,45.41509]},"properties":{"osm_type":"node","osm_id":4781903123,"category":"wine_shop","name":"Wine Rack","tags":{"addr:housenumber":"296","addr:street":"Bank Street","brand":"Wine Rack","name":"Wine Rack","opening_hours":"Mo-Sa 09:00-22:00; Su 09:00-21:00","shop":"wine"}}},{"type":"Feature","id":"node/4783356570","geometry":{"type":"Point","coordinates":[-73.97544,45.56371]},"properties":{"osm_type":"node","osm_id":4783356570,"category":"winery","name":"Vignoble Rivière du Chêne","tags":{"craft":"winery","name":"Vignoble Rivière du Chêne"}}},{"type":"Feature","id":"node/4784678023","geometry":{"type":"Point","coordinates":[-77.52667,43.97385]},"properties":{"osm_type":"node","osm_id":4784678023,"category":"wine_shop","name":"Redtail Vineyard","tags":{"addr:housenumber":"422","addr:street":"Partridge Hollow Road","name":"Redtail Vineyard","name:en":"Redtail Vineyard","shop":"wine"}}},{"type":"Feature","id":"node/4784678024","geometry":{"type":"Point","coordinates":[-77.43668,43.95532]},"properties":{"osm_type":"node","osm_id":4784678024,"category":"wine_shop","name":"Norman Hardie winerie","tags":{"addr:housenumber":"1152","addr:street":"Greer Road","name":"Norman Hardie winerie","name:en":"Norman Hardie winerie","shop":"wine"}}},{"type":"Feature","id":"node/4793060224","geometry":{"type":"Point","coordinates":[-119.44212,50.05276]},"properties":{"osm_type":"node","osm_id":4793060224,"category":"wine_shop","name":"Gray Monk Estate Winery","tags":{"addr:city":"Lake Country","addr:housenumber":"1055","addr:street":"Camp Road","name":"Gray Monk Estate Winery","shop":"wine"}}},{"type":"Feature","id":"node/4800188686","geometry":{"type":"Point","coordinates":[-79.12035,43.25261]},"properties":{"osm_type":"node","osm_id":4800188686,"category":"winery","name":"Sunnybrook Winery","wikidata":"Q109916240","tags":{"addr:housenumber":"1425","addr:postcode":"L0S 1J0","addr:street":"Lakeshore Road","craft":"winery","email":"info@sunnybrookwine.com","name":"Sunnybrook Winery","phone":"+1-905-468-1122","shop":"wine","website":"http://www.sunnybrookwine.com/","wikidata":"Q109916240"}}},{"type":"Feature","id":"node/4800188720","geometry":{"type":"Point","coordinates":[-79.17183,43.22471]},"properties":{"osm_type":"node","osm_id":4800188720,"category":"winery","name":"Small Talk Vinyards","tags":{"addr:housenumber":"1242","addr:postcode":"L0S 1J0","addr:street":"Irving Road","craft":"winery","email":"gossip@smalltalkvineyards.com","name":"Small Talk Vinyards","phone":"+1-905-935-3535","website":"http://smalltalkvineyards.com"}}},{"type":"Feature","id":"node/4847467588","geometry":{"type":"Point","coordinates":[-72.55518,45.30991]},"properties":{"osm_type":"node","osm_id":4847467588,"category":"winery","name":"La Belle Alliance","tags":{"addr:housenumber":"239","addr:street":"Chemin de Fulford","craft":"winery","name":"La Belle Alliance"}}},{"type":"Feature","id":"node/4893051922","geometry":{"type":"Point","coordinates":[-119.55927,49.8456]},"properties":{"osm_type":"node","osm_id":4893051922,"category":"winery","name":"The hatch","tags":{"addr:housenumber":"3225","addr:street":"Boucherie Road","craft":"winery","name":"The hatch","opening_hours":"Su-Sa 11:00-19:00","phone":"+1-778-755-6013","shop":"alcohol","website":"https://thehatchwines.com/"}}},{"type":"Feature","id":"node/4893051923","geometry":{"type":"Point","coordinates":[-119.57536,49.59496]},"properties":{"osm_type":"node","osm_id":4893051923,"category":"winery","name":"Daydreamer Wines","tags":{"addr:housenumber":"1305","addr:street":"Smethurst Road","craft":"winery","email":"wine@daydreamerwines.ca","name":"Daydreamer Wines","phone":"+1-778-514-0026","shop":"alcohol"}}},{"type":"Feature","id":"node/4893051924","geometry":{"type":"Point","coordinates":[-119.74033,49.69847]},"properties":{"osm_type":"node","osm_id":4893051924,"category":"winery","name":"Fitzpatrick Family Vineyards at Greata Ranch","tags":{"addr:housenumber":"697","addr:street":"Okanagan Highway","craft":"winery","email":"nfo@fitzwine.com","name":"Fitzpatrick Family Vineyards at Greata Ranch","phone":"+1-250-767-2768","shop":"alcohol","website":"https://www.fitzwine.com/"}}},{"type":"Feature","id":"node/4893055521","geometry":{"type":"Point","coordinates":[-119.55911,49.52248]},"properties":{"osm_type":"node","osm_id":4893055521,"category":"winery","name":"Little Engine Wines","tags":{"addr:housenumber":"851","addr:street":"Naramata Road","craft":"winery","email":"info@littleenginewines.com","name":"Little Engine Wines","phone":"+1-250-493-0033","shop":"alcohol","website":"https://www.littleenginewines.com/"}}},{"type":"Feature","id":"node/4893055721","geometry":{"type":"Point","coordinates":[-119.47779,49.0374]},"properties":{"osm_type":"node","osm_id":4893055721,"category":"winery","name":"Bordertown Cider & Winery","tags":{"addr:housenumber":"9140","addr:street":"92nd Avenue","craft":"winery","email":"info@bordertownwinery.com","name":"Bordertown Cider & Winery","phone":"+1-250-495-3332","shop":"alcohol","website":"https://bordertownwinery.com/"}}},{"type":"Feature","id":"node/4951218624","geometry":{"type":"Point","coordinates":[-79.42776,43.64257]},"properties":{"osm_type":"node","osm_id":4951218624,"category":"wine_shop","name":"The Wine Shop","tags":{"addr:city":"Toronto","addr:housenumber":"1230","addr:street":"Queen Street West","brand":"The Wine Shop","name":"The Wine Shop","opening_hours":"Su 11:00-18:00; Mo-Sa 09:30-23:00","shop":"wine"}}},{"type":"Feature","id":"node/4964897022","geometry":{"type":"Point","coordinates":[-72.23866,45.72301]},"properties":{"osm_type":"node","osm_id":4964897022,"category":"winery","name":"Les Vallons de Wadleigh","tags":{"craft":"winery","name":"Les Vallons de Wadleigh"}}},{"type":"Feature","id":"node/4978680309","geometry":{"type":"Point","coordinates":[-80.48836,43.43996]},"properties":{"osm_type":"node","osm_id":4978680309,"category":"wine_shop","name":"Wine Butler","tags":{"addr:city":"Kitchener","addr:housenumber":"232","addr:street":"Madison Avenue South","brand":"Wine Butler","name":"Wine Butler","phone":"+1-226-241-9169","shop":"wine"}}},{"type":"Feature","id":"node/4990823325","geometry":{"type":"Point","coordinates":[-77.36999,44.0033]},"properties":{"osm_type":"node","osm_id":4990823325,"category":"wine_shop","name":"Vignobles","tags":{"name":"Vignobles","shop":"wine"}}},{"type":"Feature","id":"node/4991413306","geometry":{"type":"Point","coordinates":[-63.67902,44.71468]},"properties":{"osm_type":"node","osm_id":4991413306,"category":"winery","name":"Vinter's Cellar","tags":{"craft":"winery","name":"Vinter's Cellar"}}},{"type":"Feature","id":"node/5010475434","geometry":{"type":"Point","coordinates":[-79.41924,43.68312]},"properties":{"osm_type":"node","osm_id":5010475434,"category":"wine_shop","name":"Wine Rack","tags":{"addr:city":"Toronto","addr:housenumber":"522","addr:street":"St. Clair Avenue West","brand":"Wine Rack","name":"Wine Rack","opening_hours":"Mo-Su 11:00-23:00","shop":"wine"}}},{"type":"Feature","id":"node/5017043221","geometry":{"type":"Point","coordinates":[-119.50158,49.80651]},"properties":{"osm_type":"node","osm_id":5017043221,"category":"winery","name":"Summerhill Pyramid Winery","tags":{"addr:housenumber":"4870","addr:street":"Chute Lake Road","craft":"winery","email":"info@summerhill.bc.ca","name":"Summerhill Pyramid Winery","phone":"+1-250-764-8000","shop":"alcohol","website":"https://www.summerhill.bc.ca"}}},{"type":"Feature","id":"node/5027623025","geometry":{"type":"Point","coordinates":[-64.54307,46.2193]},"properties":{"osm_type":"node","osm_id":5027623025,"category":"winery","name":"Wine Down","tags":{"craft":"winery","name":"Wine Down","name:fr":"la Brasserie du coin","opening_hours":"Mo,We-Fr 10:00-18:00; Tu 10:00-17:00; Sa 10:00-15:00; Su off","shop":"doityourself"}}},{"type":"Feature","id":"node/5035534921","geometry":{"type":"Point","coordinates":[-64.77918,46.08831]},"properties":{"osm_type":"node","osm_id":5035534921,"category":"wine_shop","name":"Third Glass Wine & Martinis","tags":{"addr:housenumber":"819","addr:postcode":"E1C 1G1","addr:street":"Main Street","email":"info@thethirdglass.com","name":"Third Glass Wine & Martinis","name:en":"Third Glass Wine & Martinis","opening_hours":"Su-Tu 16:00-23:00; We-Th,Sa 16:00-02:00; Fr 14:00-02:00","phone":"+1-506-830-9463","shop":"wine","website":"https://www.thethirdglass.com/"}}},{"type":"Feature","id":"node/5058147796","geometry":{"type":"Point","coordinates":[-73.25334,45.91214]},"properties":{"osm_type":"node","osm_id":5058147796,"category":"winery","name":"Vignoble Lano d’Or","tags":{"craft":"winery","name":"Vignoble Lano d’Or"}}},{"type":"Feature","id":"node/5058921728","geometry":{"type":"Point","coordinates":[-124.98275,49.70198]},"properties":{"osm_type":"node","osm_id":5058921728,"category":"wine_shop","name":"The Wine Cottage","tags":{"name":"The Wine Cottage","phone":"+1-250-338-2686","shop":"wine"}}},{"type":"Feature","id":"node/5065263384","geometry":{"type":"Point","coordinates":[-80.36993,42.67839]},"properties":{"osm_type":"node","osm_id":5065263384,"category":"winery","name":"Inasphere Winery","tags":{"craft":"winery","name":"Inasphere Winery"}}},{"type":"Feature","id":"node/5067442766","geometry":{"type":"Point","coordinates":[-79.63368,43.20483]},"properties":{"osm_type":"node","osm_id":5067442766,"category":"winery","name":"Puddicombe Farms","tags":{"craft":"winery","name":"Puddicombe Farms"}}},{"type":"Feature","id":"node/5113733421","geometry":{"type":"Point","coordinates":[-96.6797,49.52344]},"properties":{"osm_type":"node","osm_id":5113733421,"category":"wine_shop","name":"Home Wine & Brew","tags":{"name":"Home Wine & Brew","shop":"wine"}}},{"type":"Feature","id":"node/5118665976","geometry":{"type":"Point","coordinates":[-122.79383,49.04668]},"properties":{"osm_type":"node","osm_id":5118665976,"category":"wine_shop","name":"Wine Kitz","tags":{"addr:city":"Surrey","addr:housenumber":"2428","addr:postcode":"V4P 1H5","addr:street":"King George Boulevard","name":"Wine Kitz","opening_hours":"Mo-Fr 09:30-18:00, Sa 09:30-17:00","phone":"+1-604-538-6778","shop":"wine","website":"https://winekitz-southsurrey.com/"}}},{"type":"Feature","id":"node/5166402421","geometry":{"type":"Point","coordinates":[-79.62021,43.68286]},"properties":{"osm_type":"node","osm_id":5166402421,"category":"wine_shop","name":"Toronto Duty Free","tags":{"name":"Toronto Duty Free","shop":"wine"}}},{"type":"Feature","id":"node/5268885160","geometry":{"type":"Point","coordinates":[-125.01277,49.76262]},"properties":{"osm_type":"node","osm_id":5268885160,"category":"winery","name":"Beaufort Vineyard and Estate Winery","tags":{"addr:housenumber":"5854","addr:postcode":"V9J 1T4","addr:street":"Pickering Road","craft":"winery","email":"greatwines@beaufortwines.ca","name":"Beaufort Vineyard and Estate Winery","phone":"+1-250-338-1357","shop":"alcohol","website":"https://www.beaufortwines.ca/"}}},{"type":"Feature","id":"node/5315676706","geometry":{"type":"Point","coordinates":[-72.486,46.34481]},"properties":{"osm_type":"node","osm_id":5315676706,"category":"winery","name":"Vignoble Domaine du Clos de L'Isle","tags":{"craft":"winery","name":"Vignoble Domaine du Clos de L'Isle"}}},{"type":"Feature","id":"node/5326336018","geometry":{"type":"Point","coordinates":[-119.44621,49.91421]},"properties":{"osm_type":"node","osm_id":5326336018,"category":"wine_shop","name":"Wine Kitz","tags":{"addr:city":"Kelowna","addr:housenumber":"437","addr:postcode":"V1V 1Y5","addr:street":"Glenmore Road","name":"Wine Kitz","shop":"wine"}}},{"type":"Feature","id":"node/5368912120","geometry":{"type":"Point","coordinates":[-79.39929,43.76386]},"properties":{"osm_type":"node","osm_id":5368912120,"category":"wine_shop","name":"Sheppard Wine Works","tags":{"name":"Sheppard Wine Works","shop":"wine"}}},{"type":"Feature","id":"node/5376895660","geometry":{"type":"Point","coordinates":[-125.21486,49.97009]},"properties":{"osm_type":"node","osm_id":5376895660,"category":"wine_shop","name":"Willow Point Wines","tags":{"addr:postcode":"V9W 1C3","name":"Willow Point Wines","shop":"wine"}}},{"type":"Feature","id":"node/5394615012","geometry":{"type":"Point","coordinates":[-80.52558,43.47699]},"properties":{"osm_type":"node","osm_id":5394615012,"category":"wine_shop","name":"Wine Rack","tags":{"brand":"Wine Rack","name":"Wine Rack","shop":"wine"}}},{"type":"Feature","id":"node/5418559222","geometry":{"type":"Point","coordinates":[-72.59243,45.2591]},"properties":{"osm_type":"node","osm_id":5418559222,"category":"winery","name":"Domaine les Brome Léon Courville","tags":{"addr:housenumber":"285","addr:postcode":"J0E 1S0","addr:street":"Chemin de Brome","craft":"winery","name":"Domaine les Brome Léon Courville","phone":"+1-450-243-0266"}}},{"type":"Feature","id":"node/5423573010","geometry":{"type":"Point","coordinates":[-114.4719,51.18946]},"properties":{"osm_type":"node","osm_id":5423573010,"category":"winery","name":"Vinter's Cellar","tags":{"craft":"winery","name":"Vinter's Cellar"}}},{"type":"Feature","id":"node/5507881314","geometry":{"type":"Point","coordinates":[-72.85423,45.23423]},"properties":{"osm_type":"node","osm_id":5507881314,"category":"winery","name":"Vignoble de la Bauge","tags":{"addr:housenumber":"155","addr:street":"Chemin des Érables","craft":"winery","name":"Vignoble de la Bauge"}}},{"type":"Feature","id":"node/5518992548","geometry":{"type":"Point","coordinates":[-66.65245,45.9919]},"properties":{"osm_type":"node","osm_id":5518992548,"category":"winery","name":"Wine Kitz","tags":{"craft":"winery","name":"Wine Kitz"}}},{"type":"Feature","id":"node/5546015596","geometry":{"type":"Point","coordinates":[-79.41311,43.77418]},"properties":{"osm_type":"node","osm_id":5546015596,"category":"wine_shop","name":"Wine Rack","tags":{"brand":"Wine Rack","name":"Wine Rack","shop":"wine"}}},{"type":"Feature","id":"node/5548759821","geometry":{"type":"Point","coordinates":[-79.08124,43.23707]},"properties":{"osm_type":"node","osm_id":5548759821,"category":"wine_shop","name":"Chateau des Charmes Wines Ltd.","tags":{"addr:city":"Niagara-on-the-Lake","addr:housenumber":"1025","addr:postcode":"L0S 1J0","addr:street":"York Road","name":"Chateau des Charmes Wines Ltd.","phone":"+1-905-262-4219","shop":"wine","website":"https://www.fromtheboscfamily.com/chateau-des-charmes","wheelchair":"yes"}}},{"type":"Feature","id":"node/5548766721","geometry":{"type":"Point","coordinates":[-79.16141,43.18989]},"properties":{"osm_type":"node","osm_id":5548766721,"category":"winery","name":"Southbrook Organic Vineyards Winery","tags":{"addr:city":"Niagara-on-the-Lake","addr:housenumber":"581","addr:postcode":"L0S 1J0","addr:street":"Niagara Stone Road","craft":"winery","name":"Southbrook Organic Vineyards Winery","opening_hours":"Mo-Su 11:00-16:00","operator":"Southbrook Farms Limited","phone":"+1-905-641-2548","shop":"wine","website":"https://www.southbrook.com/","wheelchair":"yes"}}},{"type":"Feature","id":"node/5548773522","geometry":{"type":"Point","coordinates":[-79.09579,43.24282]},"properties":{"osm_type":"node","osm_id":5548773522,"category":"wine_shop","name":"Trius Winery at Hillebrand","tags":{"addr:city":"Niagara-on-the-Lake","addr:housenumber":"1249","addr:postcode":"L0S 1J0","addr:street":"Niagara Stone Rd","name":"Trius Winery at Hillebrand","phone":"+1-905-468-7123","shop":"wine","website":"https://www.triuswines.com/","wheelchair":"yes"}}},{"type":"Feature","id":"node/5548799621","geometry":{"type":"Point","coordinates":[-79.06368,43.21067]},"properties":{"osm_type":"node","osm_id":5548799621,"category":"winery","name":"Inniskillin Winery","wikidata":"Q12981725","wikipedia":"en:Inniskillin","tags":{"addr:city":"Niagara-on-the-Lake","addr:housenumber":"1499","addr:postcode":"L0S 1J0","addr:street":"Line 3","craft":"winery","name":"Inniskillin Winery","phone":"+1-905-468-2187","shop":"wine","website":"https://www.inniskillin.com/","wheelchair":"yes","wikidata":"Q12981725","wikipedia":"en:Inniskillin"}}},{"type":"Feature","id":"node/5548808821","geometry":{"type":"Point","coordinates":[-79.09167,43.24385]},"properties":{"osm_type":"node","osm_id":5548808821,"category":"winery","name":"Jackson-Triggs Niagara Estate Winery","wikidata":"Q6116925","wikipedia":"en:Jackson-Triggs","tags":{"addr:city":"Niagara-on-the-Lake","addr:housenumber":"2145","addr:postcode":"L0S 1J0","addr:street":"Niagara Stone Rd","craft":"winery","name":"Jackson-Triggs Niagara Estate Winery","phone":"+1-866-589-4637","shop":"wine","website":"http://www.jacksontriggswinery.com/","wheelchair":"yes","wikidata":"Q6116925","wikipedia":"en:Jackson-Triggs"}}},{"type":"Feature","id":"node/5548814421","geometry":{"type":"Point","coordinates":[-79.09397,43.25419]},"properties":{"osm_type":"node","osm_id":5548814421,"category":"wine_shop","name":"Konzelmann Estate Winery","tags":{"addr:city":"Niagara-on-the-Lake","addr:housenumber":"1096","addr:postcode":"L0S 1J0","addr:street":"Lakeshore Road","name":"Konzelmann Estate Winery","phone":"+1-905-935-2866","shop":"wine","website":"https://www.konzelmann.ca/","wheelchair":"yes"}}},{"type":"Feature","id":"node/5548820521","geometry":{"type":"Point","coordinates":[-79.0631,43.23178]},"properties":{"osm_type":"node","osm_id":5548820521,"category":"winery","name":"Lailey Winery","tags":{"addr:city":"Niagara-on-the-Lake","addr:housenumber":"15940","addr:postcode":"L0S 1J0","addr:street":"Niagara River Parkway","craft":"winery","name":"Lailey Winery","phone":"+1-905-468-8188","shop":"wine","website":"http://www.laileywinery.com/","wheelchair":"yes"}}},{"type":"Feature","id":"node/5548824428","geometry":{"type":"Point","coordinates":[-79.09392,43.25419]},"properties":{"osm_type":"node","osm_id":5548824428,"category":"wine_shop","name":"Palatine Hills Estate Winery","tags":{"addr:city":"Niagara-on-the-Lake","addr:housenumber":"911","addr:postcode":"L0S 1J0","addr:street":"Lakeshore Rd","name":"Palatine Hills Estate Winery","phone":"+1-905-646-9617","shop":"wine","wheelchair":"yes"}}},{"type":"Feature","id":"node/5550326435","geometry":{"type":"Point","coordinates":[-79.11391,43.22924]},"properties":{"osm_type":"node","osm_id":5550326435,"category":"wine_shop","name":"Pillitteri Estates Winery","tags":{"addr:city":"Niagara-on-the-Lake","addr:housenumber":"1696","addr:postcode":"L0S 1J0","addr:street":"Niagara Stone Road","name":"Pillitteri Estates Winery","phone":"+1-905-468-3147","shop":"wine","website":"https://www.pillitteri.com/","wheelchair":"yes"}}},{"type":"Feature","id":"node/5550372028","geometry":{"type":"Point","coordinates":[-79.06705,43.23858]},"properties":{"osm_type":"node","osm_id":5550372028,"category":"winery","name":"Peller Estates Winery & Restaurant","wikidata":"Q109869265","tags":{"addr:city":"Niagara-on-the-Lake","addr:housenumber":"290","addr:postcode":"L0S 1J0","addr:street":"John Street East","craft":"winery","name":"Peller Estates Winery & Restaurant","name:en":"Peller Estates Winery & Restaurant","name:fr":"Peller Estates Winery & Restaurant","name:ko":"펠러 에스테이트 와이너리","phone":"+1-905-468-4678","shop":"wine","website":"https://www.peller.com/","wheelchair":"yes","wikidata":"Q109869265"}}},{"type":"Feature","id":"node/5550399131","geometry":{"type":"Point","coordinates":[-79.0609,43.21736]},"properties":{"osm_type":"node","osm_id":5550399131,"category":"winery","name":"Reif Estate Winery Inc.","wikidata":"Q7310059","wikipedia":"en:Reif Estate Winery","tags":{"addr:city":"Niagara-on-the-Lake","addr:housenumber":"15608","addr:postcode":"L0S 1J0","addr:street":"Niagara Parkway","craft":"winery","name":"Reif Estate Winery Inc.","phone":"+1-905-468-9463","shop":"wine","website":"https://reifwinery.com/","wheelchair":"yes","wikidata":"Q7310059","wikipedia":"en:Reif Estate Winery"}}},{"type":"Feature","id":"node/5550467121","geometry":{"type":"Point","coordinates":[-79.0595,43.20575]},"properties":{"osm_type":"node","osm_id":5550467121,"category":"winery","name":"Riverview Cellars Estate Winery","tags":{"addr:city":"Niagara-on-the-Lake","addr:housenumber":"15376","addr:postcode":"L0S 1J0","addr:street":"Niagara Parkway","craft":"winery","name":"Riverview Cellars Estate Winery","phone":"+1-905-262-0636","shop":"wine","website":"https://www.riverviewcellars.com/","wheelchair":"yes"}}},{"type":"Feature","id":"node/5550470722","geometry":{"type":"Point","coordinates":[-79.17154,43.22393]},"properties":{"osm_type":"node","osm_id":5550470722,"category":"wine_shop","name":"Stonechurch Winery","tags":{"addr:city":"Niagara-on-the-Lake","addr:housenumber":"1242","addr:postcode":"L0S 1J0","addr:street":"Irvine Rd","name":"Stonechurch Winery","phone":"+1-905-935-3535","shop":"wine","website":"http://www.stonechurch.com/","wheelchair":"yes"}}},{"type":"Feature","id":"node/5550498823","geometry":{"type":"Point","coordinates":[-79.37903,43.13013]},"properties":{"osm_type":"node","osm_id":5550498823,"category":"winery","name":"Calamus Estate Winery","tags":{"addr:city":"Jordan Station","addr:housenumber":"3100","addr:postcode":"L0R 1S0","addr:street":"Glen Rd","craft":"winery","name":"Calamus Estate Winery","phone":"+1-905-562-9303","shop":"wine","website":"https://calamuswines.com/","wheelchair":"yes"}}},{"type":"Feature","id":"node/5550511922","geometry":{"type":"Point","coordinates":[-79.33306,43.1524]},"properties":{"osm_type":"node","osm_id":5550511922,"category":"wine_shop","name":"Creekside Estate Winery","wikidata":"Q109916174","tags":{"addr:city":"Jordan Station","addr:housenumber":"2170","addr:postcode":"L0R 1S0","addr:street":"Fourth Avenue","name":"Creekside Estate Winery","phone":"+1-905-562-0035","shop":"wine","website":"https://creeksidewine.com/","wheelchair":"yes","wikidata":"Q109916174"}}},{"type":"Feature","id":"node/5550528022","geometry":{"type":"Point","coordinates":[-79.37017,43.14936]},"properties":{"osm_type":"node","osm_id":5550528022,"category":"wine_shop","name":"Cave Spring Cellars Ltd.","tags":{"addr:city":"Jordan Station","addr:housenumber":"3836","addr:postcode":"L0R 1S0","addr:street":"Main St","name":"Cave Spring Cellars Ltd.","phone":"+1-905-562-3581","shop":"wine","website":"https://www.cavespring.ca/","wheelchair":"yes"}}},{"type":"Feature","id":"node/5550541021","geometry":{"type":"Point","coordinates":[-79.3614,43.17383]},"properties":{"osm_type":"node","osm_id":5550541021,"category":"wine_shop","name":"Harbour Estates Winery Ltd.","tags":{"addr:city":"Jordan Station","addr:housenumber":"4362","addr:postcode":"L0R 1S0","addr:street":"Jordan Road","name":"Harbour Estates Winery Ltd.","phone":"+1-905-562-6279","shop":"wine","website":"https://www.hewwine.com/","wheelchair":"yes"}}},{"type":"Feature","id":"node/5555218644","geometry":{"type":"Point","coordinates":[-64.38106,45.06325]},"properties":{"osm_type":"node","osm_id":5555218644,"category":"winery","name":"Benjamin Bridge Winery","tags":{"addr:city":"Gaspereau","addr:housenumber":"1996","addr:postcode":"B4P 2R1","addr:street":"White Rock Road","craft":"winery","name":"Benjamin Bridge Winery","shop":"wine"}}},{"type":"Feature","id":"node/5555229446","geometry":{"type":"Point","coordinates":[-64.35679,45.06904]},"properties":{"osm_type":"node","osm_id":5555229446,"category":"winery","name":"Gaspereau Winery","tags":{"addr:city":"Gaspereau","addr:housenumber":"2239","addr:postcode":"B4P 2R1","addr:street":"White Rock Road","craft":"winery","name":"Gaspereau Winery","phone":"+1-855-387-4564","shop":"wine","website":"https://gaspereauwine.ca"}}},{"type":"Feature","id":"node/5555238246","geometry":{"type":"Point","coordinates":[-64.12344,45.02197]},"properties":{"osm_type":"node","osm_id":5555238246,"category":"wine_shop","name":"Avondale winery","tags":{"name":"Avondale winery","name:en":"Avondale Sky winery","shop":"wine"}}},{"type":"Feature","id":"node/5555266093","geometry":{"type":"Point","coordinates":[-64.19557,44.96582]},"properties":{"osm_type":"node","osm_id":5555266093,"category":"wine_shop","name":"Sainte - famille winery","tags":{"name":"Sainte - famille winery","shop":"wine"}}},{"type":"Feature","id":"node/5555312422","geometry":{"type":"Point","coordinates":[-64.33362,45.06561]},"properties":{"osm_type":"node","osm_id":5555312422,"category":"wine_shop","name":"L'Acadie vineyards","tags":{"name":"L'Acadie vineyards","shop":"wine"}}},{"type":"Feature","id":"node/5555356522","geometry":{"type":"Point","coordinates":[-64.46334,44.23876]},"properties":{"osm_type":"node","osm_id":5555356522,"category":"wine_shop","name":"Petite rivière vineyards","tags":{"name":"Petite rivière vineyards","shop":"wine"}}},{"type":"Feature","id":"node/5555359621","geometry":{"type":"Point","coordinates":[-64.38349,45.15924]},"properties":{"osm_type":"node","osm_id":5555359621,"category":"wine_shop","name":"Blomidon Estate Winery","tags":{"name":"Blomidon Estate Winery","shop":"wine"}}},{"type":"Feature","id":"node/5555413924","geometry":{"type":"Point","coordinates":[-65.60415,44.5951]},"properties":{"osm_type":"node","osm_id":5555413924,"category":"wine_shop","name":"Annapolis highland vineyards","tags":{"name":"Annapolis highland vineyards","shop":"wine"}}},{"type":"Feature","id":"node/5555416222","geometry":{"type":"Point","coordinates":[-65.63761,44.58033]},"properties":{"osm_type":"node","osm_id":5555416222,"category":"wine_shop","name":"Bear river vineyards","tags":{"name":"Bear river vineyards","shop":"wine"}}},{"type":"Feature","id":"node/5555428222","geometry":{"type":"Point","coordinates":[-65.16353,44.87374]},"properties":{"osm_type":"node","osm_id":5555428222,"category":"wine_shop","name":"Beaver Creek Vineyard","tags":{"addr:city":"Lawrencetown","addr:housenumber":"496","addr:street":"Carleton Road","name":"Beaver Creek Vineyard","phone":"+1 902-489-0977","shop":"wine","website":"https://beavercreekvineyard.ca/"}}},{"type":"Feature","id":"node/5555466821","geometry":{"type":"Point","coordinates":[-64.51284,44.83058]},"properties":{"osm_type":"node","osm_id":5555466821,"category":"wine_shop","name":"Muwin Estate Wines","tags":{"name":"Muwin Estate Wines","shop":"wine"}}},{"type":"Feature","id":"node/5568252794","geometry":{"type":"Point","coordinates":[-124.98234,49.67674]},"properties":{"osm_type":"node","osm_id":5568252794,"category":"wine_shop","name":"Vanisle Wine and Beer Makers","tags":{"name":"Vanisle Wine and Beer Makers","phone":"+1-250-334-3055","shop":"wine"}}},{"type":"Feature","id":"node/5569298655","geometry":{"type":"Point","coordinates":[-123.03053,49.20568]},"properties":{"osm_type":"node","osm_id":5569298655,"category":"wine_shop","name":"Everything Wine","tags":{"addr:housenumber":"8570","addr:postcode":"V5S 0C2","addr:street":"River District Crossing","name":"Everything Wine","opening_hours":"Mo-Sa 10:00-21:00; Su 11:00-19:00","phone":"+1 844 989 9463","shop":"wine","website":"https://www.everythingwine.ca/vancouver"}}},{"type":"Feature","id":"node/5635388431","geometry":{"type":"Point","coordinates":[-80.561,43.57861]},"properties":{"osm_type":"node","osm_id":5635388431,"category":"winery","name":"Jacobs Wine kits.com","tags":{"craft":"winery","name":"Jacobs Wine kits.com"}}},{"type":"Feature","id":"node/5717803223","geometry":{"type":"Point","coordinates":[-54.21599,48.7712]},"properties":{"osm_type":"node","osm_id":5717803223,"category":"wine_shop","name":"Gambo vineyards","tags":{"name":"Gambo vineyards","shop":"wine"}}},{"type":"Feature","id":"node/5717968724","geometry":{"type":"Point","coordinates":[-62.53663,46.02086]},"properties":{"osm_type":"node","osm_id":5717968724,"category":"wine_shop","name":"New man estate winery","tags":{"name":"New man estate winery","shop":"wine"}}},{"type":"Feature","id":"node/5717980821","geometry":{"type":"Point","coordinates":[-63.28559,46.33776]},"properties":{"osm_type":"node","osm_id":5717980821,"category":"wine_shop","name":"Islam honey wine","tags":{"name":"Islam honey wine","shop":"wine"}}},{"type":"Feature","id":"node/5717980822","geometry":{"type":"Point","coordinates":[-62.63243,45.96668]},"properties":{"osm_type":"node","osm_id":5717980822,"category":"wine_shop","name":"Rossignol winery","tags":{"name":"Rossignol winery","shop":"wine"}}},{"type":"Feature","id":"node/5720834521","geometry":{"type":"Point","coordinates":[-79.41866,43.65535]},"properties":{"osm_type":"node","osm_id":5720834521,"category":"wine_shop","name":"Wine Rack","tags":{"addr:city":"Toronto","addr:housenumber":"714","addr:street":"College Street","brand":"Wine Rack","name":"Wine Rack","opening_hours":"Mo-Su 12:00-23:00","shop":"wine"}}},{"type":"Feature","id":"node/5722357726","geometry":{"type":"Point","coordinates":[-80.01662,43.19874]},"properties":{"osm_type":"node","osm_id":5722357726,"category":"wine_shop","name":"Wine Kitza","tags":{"name":"Wine Kitza","shop":"wine"}}},{"type":"Feature","id":"node/5739855495","geometry":{"type":"Point","coordinates":[-75.72186,45.32448]},"properties":{"osm_type":"node","osm_id":5739855495,"category":"wine_shop","name":"Vinbella Winery","tags":{"addr:housenumber":"15","addr:street":"Grenfell Crescent","name":"Vinbella Winery","shop":"wine"}}},{"type":"Feature","id":"node/5750297326","geometry":{"type":"Point","coordinates":[-64.05824,45.98923]},"properties":{"osm_type":"node","osm_id":5750297326,"category":"wine_shop","name":"winegarden estate","tags":{"name":"winegarden estate","shop":"wine"}}},{"type":"Feature","id":"node/5750297527","geometry":{"type":"Point","coordinates":[-64.69062,46.02014]},"properties":{"osm_type":"node","osm_id":5750297527,"category":"wine_shop","name":"Domaine latitude estate winery","tags":{"name":"Domaine latitude estate winery","shop":"wine"}}},{"type":"Feature","id":"node/5750320345","geometry":{"type":"Point","coordinates":[-75.90349,45.33937]},"properties":{"osm_type":"node","osm_id":5750320345,"category":"wine_shop","name":"Wine Garden","tags":{"addr:housenumber":"100","addr:street":"Schneider Road","name":"Wine Garden","shop":"wine"}}},{"type":"Feature","id":"node/5750333122","geometry":{"type":"Point","coordinates":[-65.83618,45.66934]},"properties":{"osm_type":"node","osm_id":5750333122,"category":"wine_shop","name":"Gillis of Belleisle","tags":{"name":"Gillis of Belleisle","shop":"wine"}}},{"type":"Feature","id":"node/5750351622","geometry":{"type":"Point","coordinates":[-66.04266,45.52199]},"properties":{"osm_type":"node","osm_id":5750351622,"category":"wine_shop","name":"Dunhams run winery","tags":{"addr:housenumber":"35","addr:street":"Gorhams Bluff Road","name":"Dunhams run winery","shop":"wine"}}},{"type":"Feature","id":"node/5750357023","geometry":{"type":"Point","coordinates":[-64.90621,46.61553]},"properties":{"osm_type":"node","osm_id":5750357023,"category":"wine_shop","name":"Richibucto River Wine Estate","tags":{"addr:housenumber":"940","addr:street":"route 495","name":"Richibucto River Wine Estate","shop":"wine"}}},{"type":"Feature","id":"node/5781655771","geometry":{"type":"Point","coordinates":[-76.25766,45.50019]},"properties":{"osm_type":"node","osm_id":5781655771,"category":"wine_shop","name":"Domaine de Pontiac Village","tags":{"addr:housenumber":"1259","addr:street":"Chemin du Cimetière","name":"Domaine de Pontiac Village","opening_hours":"Th-Fr 13:00-18:00; Sa,Su 10:00-17:00","phone":"+1-819-458-3628","shop":"wine","website":"https://www.domainepontiac.com/"}}},{"type":"Feature","id":"node/5793138426","geometry":{"type":"Point","coordinates":[-119.55536,49.85825]},"properties":{"osm_type":"node","osm_id":5793138426,"category":"winery","name":"Beaumont Family Estate Winery","tags":{"addr:city":"West Kelowna","addr:housenumber":"2775","addr:street":"Boucherie Road","craft":"winery","email":"info@beaumontwinery.com","name":"Beaumont Family Estate Winery","phone":"+1-250-769-1222","shop":"alcohol","website":"https://beaumontwinery.com/"}}},{"type":"Feature","id":"node/5804896153","geometry":{"type":"Point","coordinates":[-124.74935,49.49774]},"properties":{"osm_type":"node","osm_id":5804896153,"category":"wine_shop","name":"CorLan Vineyard & Farm","tags":{"name":"CorLan Vineyard & Farm","name:en":"CorLan Vineyard & Farm","shop":"wine","website":"https://corlanvineyard.ca/"}}},{"type":"Feature","id":"node/5809664384","geometry":{"type":"Point","coordinates":[-75.64423,45.01498]},"properties":{"osm_type":"node","osm_id":5809664384,"category":"wine_shop","name":"Brewing Oasis","tags":{"addr:housenumber":"210","addr:street":"Prescott Street","name":"Brewing Oasis","shop":"wine"}}},{"type":"Feature","id":"node/5827413585","geometry":{"type":"Point","coordinates":[-123.56346,48.71349]},"properties":{"osm_type":"node","osm_id":5827413585,"category":"winery","name":"Cherry Point Estate Wines","tags":{"addr:city":"Cobble Hill","addr:housenumber":"840","addr:street":"Cherry Point Road","craft":"winery","email":"info@cherrypointestatewines.com","name":"Cherry Point Estate Wines","opening_hours":"Mo-Su 10:00-17:00","phone":"+1-250-743-1272","shop":"wine"}}},{"type":"Feature","id":"node/5873978888","geometry":{"type":"Point","coordinates":[-77.12288,43.89128]},"properties":{"osm_type":"node","osm_id":5873978888,"category":"winery","name":"Lighthall","tags":{"addr:housenumber":"308","addr:street":"Lighthall Road","craft":"winery","name":"Lighthall","phone":"+1-613-767-9155","website":"https://www.lighthallvineyards.com/"}}},{"type":"Feature","id":"node/5874028385","geometry":{"type":"Point","coordinates":[-77.0092,43.93586]},"properties":{"osm_type":"node","osm_id":5874028385,"category":"wine_shop","name":"Half Moon Bay Winery","tags":{"name":"Half Moon Bay Winery","shop":"wine"}}},{"type":"Feature","id":"node/5875805285","geometry":{"type":"Point","coordinates":[-77.116,44.12888]},"properties":{"osm_type":"node","osm_id":5875805285,"category":"winery","name":"3 Dogs Winery","tags":{"addr:housenumber":"120","addr:street":"Fish Lake Road","craft":"winery","name":"3 Dogs Winery","website":"https://www.threedogwine.com/"}}},{"type":"Feature","id":"node/5877135998","geometry":{"type":"Point","coordinates":[-125.04123,49.69247]},"properties":{"osm_type":"node","osm_id":5877135998,"category":"winery","name":"Raven's Moon Estate Winery","tags":{"addr:housenumber":"4905","addr:postcode":"V9J 1R5","addr:street":"Darcy Road","craft":"winery","email":"orders@ravensmooncraftcider.ca","name":"Raven's Moon Estate Winery","phone":"+1-250-338-9765","shop":"alcohol","website":"https://ravensmooncraftcider.ca/"}}},{"type":"Feature","id":"node/5923058890","geometry":{"type":"Point","coordinates":[-119.63557,49.57874]},"properties":{"osm_type":"node","osm_id":5923058890,"category":"wine_shop","name":"8th generation vineyard","tags":{"addr:housenumber":"6807","addr:street":"Highway 97","name":"8th generation vineyard","shop":"wine"}}},{"type":"Feature","id":"node/5923058892","geometry":{"type":"Point","coordinates":[-119.65812,49.56857]},"properties":{"osm_type":"node","osm_id":5923058892,"category":"wine_shop","name":"Sleeping Giant Fruit Winery","tags":{"addr:housenumber":"6206","addr:street":"Canyon View Road","email":"sleepinggiant@telus.net","name":"Sleeping Giant Fruit Winery","opening_hours":"Mo-Sa 10:00-17:00; Su 11:00-17:00","phone":"+1-800-577-1277;+1-250-494-0377","shop":"wine","website":"https://sleepinggiantfruitwinery.ca/"}}},{"type":"Feature","id":"node/5923058897","geometry":{"type":"Point","coordinates":[-119.69511,49.65149]},"properties":{"osm_type":"node","osm_id":5923058897,"category":"wine_shop","name":"Savard Vines","tags":{"addr:housenumber":"25200","addr:street":"Callan Road","name":"Savard Vines","opening_hours":"Mo-Su 11:00-17:00","phone":"+1-250-494-1926","shop":"wine","website":"https://www.savardvines.ca"}}},{"type":"Feature","id":"node/5923065188","geometry":{"type":"Point","coordinates":[-119.68619,49.63939]},"properties":{"osm_type":"node","osm_id":5923065188,"category":"wine_shop","name":"Summerland Estate Winery","tags":{"addr:housenumber":"21606","addr:street":"Bridgeman Road","name":"Summerland Estate Winery","shop":"wine"}}},{"type":"Feature","id":"node/5928662486","geometry":{"type":"Point","coordinates":[-61.05505,45.80995]},"properties":{"osm_type":"node","osm_id":5928662486,"category":"wine_shop","name":"EILEANAN BRÈAGHA VINEYARDS","tags":{"addr:housenumber":"5349","addr:street":"Marble Mountain Road","name":"EILEANAN BRÈAGHA VINEYARDS","phone":"+1-902-756-3533","shop":"wine"}}},{"type":"Feature","id":"node/5983185605","geometry":{"type":"Point","coordinates":[-77.40238,43.99627]},"properties":{"osm_type":"node","osm_id":5983185605,"category":"winery","name":"Lacey Estates Winery","tags":{"addr:city":"Hillier","addr:housenumber":"804","addr:postcode":"K0K 2J0","addr:street":"804, Closson Road","craft":"winery","name":"Lacey Estates Winery"}}},{"type":"Feature","id":"node/5983864085","geometry":{"type":"Point","coordinates":[-64.17454,44.95022]},"properties":{"osm_type":"node","osm_id":5983864085,"category":"wine_shop","name":"Bent Ridge Winery","tags":{"addr:housenumber":"4499","addr:street":"Highway 14","name":"Bent Ridge Winery","opening_hours":"Mo-Su 11:00-19:00","phone":"+1-902-441-3530","shop":"wine"}}},{"type":"Feature","id":"node/6028210743","geometry":{"type":"Point","coordinates":[-76.68546,45.47282]},"properties":{"osm_type":"node","osm_id":6028210743,"category":"wine_shop","name":"Priority Wines","tags":{"addr:housenumber":"128","addr:street":"Raglan Street South","name":"Priority Wines","shop":"wine"}}},{"type":"Feature","id":"node/6028989337","geometry":{"type":"Point","coordinates":[-80.44736,43.39811]},"properties":{"osm_type":"node","osm_id":6028989337,"category":"winery","name":"Wine Expert","tags":{"craft":"winery","name":"Wine Expert","opening_hours":"Tu-Sa 10:00-18:00"}}},{"type":"Feature","id":"node/6030967876","geometry":{"type":"Point","coordinates":[-82.66971,42.07108]},"properties":{"osm_type":"node","osm_id":6030967876,"category":"winery","tags":{"addr:housenumber":"1542","addr:street":"Talbot Road","craft":"winery"}}},{"type":"Feature","id":"node/6114108761","geometry":{"type":"Point","coordinates":[-75.63942,45.35506]},"properties":{"osm_type":"node","osm_id":6114108761,"category":"wine_shop","name":"Wine Garden","tags":{"addr:housenumber":"1501","addr:street":"Sieveright Avenue","name":"Wine Garden","shop":"wine"}}},{"type":"Feature","id":"node/6138154560","geometry":{"type":"Point","coordinates":[-79.41461,43.64135]},"properties":{"osm_type":"node","osm_id":6138154560,"category":"wine_shop","name":"Wine Rack","tags":{"brand":"Wine Rack","name":"Wine Rack","opening_hours":"11:00-22:00","shop":"wine"}}},{"type":"Feature","id":"node/6187041120","geometry":{"type":"Point","coordinates":[-75.15255,45.21867]},"properties":{"osm_type":"node","osm_id":6187041120,"category":"wine_shop","name":"Mayfair Craft Wines","tags":{"name":"Mayfair Craft Wines","shop":"wine"}}},{"type":"Feature","id":"node/6195149181","geometry":{"type":"Point","coordinates":[-70.37712,47.42193]},"properties":{"osm_type":"node","osm_id":6195149181,"category":"winery","name":"Cidrerie Vergers Pedneault","tags":{"craft":"winery","name":"Cidrerie Vergers Pedneault"}}},{"type":"Feature","id":"node/6201102885","geometry":{"type":"Point","coordinates":[-79.41951,43.64417]},"properties":{"osm_type":"node","osm_id":6201102885,"category":"wine_shop","name":"Wine Rack","tags":{"addr:city":"Toronto","addr:housenumber":"1018","addr:street":"Queen Street West","brand":"Wine Rack","name":"Wine Rack","shop":"wine"}}},{"type":"Feature","id":"node/6213232515","geometry":{"type":"Point","coordinates":[-79.26495,42.99564]},"properties":{"osm_type":"node","osm_id":6213232515,"category":"wine_shop","name":"Vin Bon Wine Store","tags":{"name":"Vin Bon Wine Store","shop":"wine","website":"https://www.vinbon.com/locations/vinbon-welland/"}}},{"type":"Feature","id":"node/6259173877","geometry":{"type":"Point","coordinates":[-125.24805,50.01184]},"properties":{"osm_type":"node","osm_id":6259173877,"category":"wine_shop","name":"Home Brew Factory & Wine Boutique","tags":{"addr:housenumber":"250","addr:street":"Dogwood Street","name":"Home Brew Factory & Wine Boutique","phone":"+1-250-287-2611","shop":"wine","website":"https://homebrewfactory.ca/"}}},{"type":"Feature","id":"node/6292558627","geometry":{"type":"Point","coordinates":[-79.44669,43.17173]},"properties":{"osm_type":"node","osm_id":6292558627,"category":"winery","name":"Cornerstone Estate Winery","tags":{"addr:city":"Beamsville","addr:housenumber":"4390","addr:postcode":"L0R 1B1","addr:street":"Tufford Road","craft":"winery","name":"Cornerstone Estate Winery","opening_hours":"We 12:00-17:00; Th-Su 11:00-18:00","phone":"+1-905-563-6758","shop":"wine","website":"https://cornerstonewinery.com/"}}},{"type":"Feature","id":"node/6302634257","geometry":{"type":"Point","coordinates":[-79.53756,43.63978]},"properties":{"osm_type":"node","osm_id":6302634257,"category":"wine_shop","name":"Wine Rack","tags":{"addr:housenumber":"5230","addr:street":"Dundas Street West","brand":"Wine Rack","name":"Wine Rack","shop":"wine"}}},{"type":"Feature","id":"node/6316494088","geometry":{"type":"Point","coordinates":[-76.89303,44.1251]},"properties":{"osm_type":"node","osm_id":6316494088,"category":"wine_shop","name":"Wynn Farms","tags":{"addr:street":"Loyalist Parkway","name":"Wynn Farms","shop":"wine"}}},{"type":"Feature","id":"node/6334441784","geometry":{"type":"Point","coordinates":[-79.47849,43.65051]},"properties":{"osm_type":"node","osm_id":6334441784,"category":"wine_shop","name":"The Wine Shop","tags":{"addr:city":"Toronto","addr:housenumber":"2273","addr:street":"Bloor Street West","brand":"The Wine Shop","name":"The Wine Shop","opening_hours":"Mo-We,Su 11:00-19:00; Th-Sa 10:00-20:00","shop":"wine","wheelchair":"yes"}}},{"type":"Feature","id":"node/6340806327","geometry":{"type":"Point","coordinates":[-79.4308,43.66098]},"properties":{"osm_type":"node","osm_id":6340806327,"category":"wine_shop","name":"Blue Door Wine Shop","tags":{"addr:city":"Toronto","addr:housenumber":"1010","addr:postcode":"M6H 1M2","addr:street":"Bloor Street West","name":"Blue Door Wine Shop","shop":"wine","website":"https://bluedoorwineshop.com/"}}},{"type":"Feature","id":"node/6341542344","geometry":{"type":"Point","coordinates":[-79.44228,43.65858]},"properties":{"osm_type":"node","osm_id":6341542344,"category":"wine_shop","name":"Wine Rack","tags":{"addr:city":"Toronto","addr:housenumber":"1298","addr:street":"Bloor Street West","brand":"Wine Rack","name":"Wine Rack","opening_hours":"11:00-22:00","shop":"wine"}}},{"type":"Feature","id":"node/6348659388","geometry":{"type":"Point","coordinates":[-79.54142,43.75265]},"properties":{"osm_type":"node","osm_id":6348659388,"category":"winery","name":"North Spirit Distillery","tags":{"craft":"winery","name":"North Spirit Distillery"}}},{"type":"Feature","id":"node/6369142349","geometry":{"type":"Point","coordinates":[-79.40326,43.64747]},"properties":{"osm_type":"node","osm_id":6369142349,"category":"wine_shop","name":"Wine Rack","tags":{"addr:housenumber":"560","addr:street":"Queen Street West","brand":"Wine Rack","name":"Wine Rack","phone":"+1-416-504-3647","shop":"wine","website":"https://www.winerack.com/"}}},{"type":"Feature","id":"node/6386975407","geometry":{"type":"Point","coordinates":[-79.40488,43.64362]},"properties":{"osm_type":"node","osm_id":6386975407,"category":"wine_shop","name":"Wine Rack","tags":{"addr:city":"Toronto","addr:housenumber":"746","addr:street":"King Street West","brand":"Wine Rack","name":"Wine Rack","shop":"wine"}}},{"type":"Feature","id":"node/6392713962","geometry":{"type":"Point","coordinates":[-119.63146,49.57553]},"properties":{"osm_type":"node","osm_id":6392713962,"category":"winery","name":"8th Generation Vineyard","tags":{"addr:city":"Summerland","addr:housenumber":"6807","addr:postcode":"V0H 1Z9","addr:street":"Highway 97","craft":"winery","email":"info@8thgeneration.com","name":"8th Generation Vineyard","opening_hours":"Apr Mo-Su 11:00-16:00; May,Jun,Jul,Aug,Sep,Oct Mo-Su 10:00-17:30","operator":"8th generation Vineyard","phone":"+1-250-494-1783","shop":"alcohol","website":"https://www.8thgeneration.com/"}}},{"type":"Feature","id":"node/6401671405","geometry":{"type":"Point","coordinates":[-79.3004,43.68827]},"properties":{"osm_type":"node","osm_id":6401671405,"category":"wine_shop","name":"Wine Rack","tags":{"brand":"Wine Rack","name":"Wine Rack","shop":"wine"}}},{"type":"Feature","id":"node/6402291786","geometry":{"type":"Point","coordinates":[-79.33645,43.66174]},"properties":{"osm_type":"node","osm_id":6402291786,"category":"wine_shop","name":"Wine Rack","tags":{"brand":"Wine Rack","name":"Wine Rack","shop":"wine"}}},{"type":"Feature","id":"node/6405130187","geometry":{"type":"Point","coordinates":[-75.35754,45.25696]},"properties":{"osm_type":"node","osm_id":6405130187,"category":"winery","name":"We make wine","tags":{"addr:housenumber":"92","addr:street":"Mill Street","craft":"winery","name":"We make wine"}}},{"type":"Feature","id":"node/6407758909","geometry":{"type":"Point","coordinates":[-75.68328,44.59035]},"properties":{"osm_type":"node","osm_id":6407758909,"category":"wine_shop","name":"Bodega Wines","tags":{"addr:housenumber":"12","addr:street":"King Street West","name":"Bodega Wines","shop":"wine"}}},{"type":"Feature","id":"node/6430893468","geometry":{"type":"Point","coordinates":[-119.79427,49.21389]},"properties":{"osm_type":"node","osm_id":6430893468,"category":"winery","name":"Corcelettes Estate Winery","tags":{"addr:city":"Keremeos","addr:housenumber":"2582","addr:postcode":"V0X 1N4","addr:street":"Upper Bench Rd","craft":"winery","name":"Corcelettes Estate Winery","phone":"+1-250-499-5595","shop":"alcohol","website":"https://www.corceletteswine.ca/"}}},{"type":"Feature","id":"node/6431024687","geometry":{"type":"Point","coordinates":[-119.44996,50.13102]},"properties":{"osm_type":"node","osm_id":6431024687,"category":"wine_shop","name":"50th Parallel & Block One","tags":{"addr:street":"Terrace View Road","name":"50th Parallel & Block One","shop":"wine"}}},{"type":"Feature","id":"node/6471141546","geometry":{"type":"Point","coordinates":[-76.94901,44.24826]},"properties":{"osm_type":"node","osm_id":6471141546,"category":"wine_shop","name":"The Wine Store","tags":{"name":"The Wine Store","shop":"wine"}}},{"type":"Feature","id":"node/6471612673","geometry":{"type":"Point","coordinates":[-77.73251,44.04228]},"properties":{"osm_type":"node","osm_id":6471612673,"category":"wine_shop","name":"The Cellar Door","tags":{"name":"The Cellar Door","shop":"wine"}}},{"type":"Feature","id":"node/6475860797","geometry":{"type":"Point","coordinates":[-119.56626,49.13889]},"properties":{"osm_type":"node","osm_id":6475860797,"category":"winery","name":"Stoneboat Vineyards","tags":{"addr:city":"Oliver","addr:housenumber":"356","addr:postcode":"V0H 1T1","addr:street":"Orchard Grove Lane","alt_name":"Stone Boat Vineyards","craft":"winery","email":"info@stoneboatvineyards.com","name":"Stoneboat Vineyards","phone":"+1-250-498-2226","shop":"alcohol","website":"https://www.stoneboatvineyards.com/"}}},{"type":"Feature","id":"node/6484747349","geometry":{"type":"Point","coordinates":[-122.31777,49.13414]},"properties":{"osm_type":"node","osm_id":6484747349,"category":"winery","name":"A Grape in Time Winemaking Academy","tags":{"addr:city":"Mission","addr:housenumber":"32757","addr:postcode":"v2v 6k7","addr:street":"Logan Avenue","craft":"winery","name":"A Grape in Time Winemaking Academy","shop":"craft wine making","website":"https://www.agrapeintime.com/"}}},{"type":"Feature","id":"node/6496863267","geometry":{"type":"Point","coordinates":[-79.25373,43.2006]},"properties":{"osm_type":"node","osm_id":6496863267,"category":"wine_shop","name":"The Wine Shop","tags":{"brand":"The Wine Shop","name":"The Wine Shop","shop":"wine"}}},{"type":"Feature","id":"node/6501154828","geometry":{"type":"Point","coordinates":[-76.53421,45.61736]},"properties":{"osm_type":"node","osm_id":6501154828,"category":"winery","name":"Little Red Wagon Winery","tags":{"addr:housenumber":"165","addr:street":"Chemin de Calumet Ouest","craft":"winery","name":"Little Red Wagon Winery","name:fr":"Vignoble Petit Chariot Rouge","opening_hours":"Fr-Su 13:00-17:00","phone":"+1-819-744-0842"}}},{"type":"Feature","id":"node/6504168391","geometry":{"type":"Point","coordinates":[-79.22775,43.18848]},"properties":{"osm_type":"node","osm_id":6504168391,"category":"wine_shop","name":"The Wine Shop","tags":{"brand":"The Wine Shop","name":"The Wine Shop","shop":"wine"}}},{"type":"Feature","id":"node/6510233958","geometry":{"type":"Point","coordinates":[-79.20805,43.17832]},"properties":{"osm_type":"node","osm_id":6510233958,"category":"wine_shop","name":"Wine Rack","tags":{"brand":"Wine Rack","name":"Wine Rack","shop":"wine"}}},{"type":"Feature","id":"node/6516868323","geometry":{"type":"Point","coordinates":[-79.26359,43.17183]},"properties":{"osm_type":"node","osm_id":6516868323,"category":"wine_shop","name":"Vinter's Cellar","tags":{"name":"Vinter's Cellar","shop":"wine"}}},{"type":"Feature","id":"node/6530534168","geometry":{"type":"Point","coordinates":[-77.2982,44.01421]},"properties":{"osm_type":"node","osm_id":6530534168,"category":"winery","name":"TerraChello","tags":{"craft":"winery","name":"TerraChello"}}},{"type":"Feature","id":"node/6545539547","geometry":{"type":"Point","coordinates":[-79.47086,43.73002]},"properties":{"osm_type":"node","osm_id":6545539547,"category":"wine_shop","name":"Vin Bon Wine Emporium","tags":{"name":"Vin Bon Wine Emporium","shop":"wine"}}},{"type":"Feature","id":"node/6548307604","geometry":{"type":"Point","coordinates":[-79.45792,43.71938]},"properties":{"osm_type":"node","osm_id":6548307604,"category":"wine_shop","name":"Wine Kitz","tags":{"name":"Wine Kitz","shop":"wine"}}},{"type":"Feature","id":"node/6556450085","geometry":{"type":"Point","coordinates":[-123.83835,48.37359]},"properties":{"osm_type":"node","osm_id":6556450085,"category":"wine_shop","name":"Tugwell Creek Honey Farm and Meadery","tags":{"name":"Tugwell Creek Honey Farm and Meadery","shop":"wine"}}},{"type":"Feature","id":"node/6561283495","geometry":{"type":"Point","coordinates":[-79.56595,43.78492]},"properties":{"osm_type":"node","osm_id":6561283495,"category":"wine_shop","name":"Wine Craft","tags":{"name":"Wine Craft","shop":"wine"}}},{"type":"Feature","id":"node/6564183256","geometry":{"type":"Point","coordinates":[-79.68244,43.54382]},"properties":{"osm_type":"node","osm_id":6564183256,"category":"wine_shop","name":"The Wine Shop","tags":{"brand":"The Wine Shop","name":"The Wine Shop","shop":"wine"}}},{"type":"Feature","id":"node/6577717973","geometry":{"type":"Point","coordinates":[-79.48417,44.05656]},"properties":{"osm_type":"node","osm_id":6577717973,"category":"wine_shop","name":"The Wine Shop","tags":{"addr:housenumber":"17600","addr:street":"Yonge Street","brand":"The Wine Shop","name":"The Wine Shop","shop":"wine"}}},{"type":"Feature","id":"node/6580689207","geometry":{"type":"Point","coordinates":[-75.18114,44.90135]},"properties":{"osm_type":"node","osm_id":6580689207,"category":"wine_shop","name":"The Cook's Corner","tags":{"name":"The Cook's Corner","shop":"wine"}}},{"type":"Feature","id":"node/6596667442","geometry":{"type":"Point","coordinates":[-81.73089,43.31121]},"properties":{"osm_type":"node","osm_id":6596667442,"category":"winery","name":"Dark Horse Estate Winery","tags":{"addr:city":"Grand Bend","addr:housenumber":"70665","addr:postcode":"N0M 1T0","addr:street":"B Line","craft":"winery","name":"Dark Horse Estate Winery","phone":"+1-519-238-5000","website":"https://www.darkhorseestatewinery.com/"}}},{"type":"Feature","id":"node/6606480670","geometry":{"type":"Point","coordinates":[-79.01192,43.86343]},"properties":{"osm_type":"node","osm_id":6606480670,"category":"wine_shop","name":"Vin Bon","tags":{"name":"Vin Bon","shop":"wine"}}},{"type":"Feature","id":"node/6614712072","geometry":{"type":"Point","coordinates":[-78.34425,44.28141]},"properties":{"osm_type":"node","osm_id":6614712072,"category":"wine_shop","name":"Vintner's Cellar","tags":{"name":"Vintner's Cellar","shop":"wine"}}},{"type":"Feature","id":"node/6617018744","geometry":{"type":"Point","coordinates":[-78.33951,44.32603]},"properties":{"osm_type":"node","osm_id":6617018744,"category":"wine_shop","name":"Wine by You","tags":{"name":"Wine by You","shop":"wine"}}},{"type":"Feature","id":"node/6621164837","geometry":{"type":"Point","coordinates":[-79.42462,44.59702]},"properties":{"osm_type":"node","osm_id":6621164837,"category":"wine_shop","name":"Fellini","tags":{"name":"Fellini","shop":"wine"}}},{"type":"Feature","id":"node/6627737844","geometry":{"type":"Point","coordinates":[-79.71141,44.41503]},"properties":{"osm_type":"node","osm_id":6627737844,"category":"wine_shop","name":"Wine Rack","tags":{"addr:city":"Barrie","addr:street":"Bayfield Street","brand":"Wine Rack","name":"Wine Rack","shop":"wine"}}},{"type":"Feature","id":"node/6636605696","geometry":{"type":"Point","coordinates":[-80.2383,42.7813]},"properties":{"osm_type":"node","osm_id":6636605696,"category":"winery","name":"Frisky Beaver","tags":{"addr:city":"Port Dover","addr:housenumber":"355","addr:street":"Radical Road","alt_name":"Smoke & Gamble","craft":"winery","name":"Frisky Beaver","website":"https://www.friskybeaver.ca/"}}},{"type":"Feature","id":"node/6641859786","geometry":{"type":"Point","coordinates":[-82.73919,42.04032]},"properties":{"osm_type":"node","osm_id":6641859786,"category":"winery","name":"Essex County Wineries & Breweries","tags":{"addr:city":"Kingsville","addr:housenumber":"71","addr:postcode":"N9Y 1E1","addr:street":"Division Street N","craft":"winery","name":"Essex County Wineries & Breweries","website":"https://www.ecwb.ca/"}}},{"type":"Feature","id":"node/6648386629","geometry":{"type":"Point","coordinates":[-76.123,45.12988]},"properties":{"osm_type":"node","osm_id":6648386629,"category":"wine_shop","name":"The Wine Cellar","tags":{"name":"The Wine Cellar","shop":"wine"}}},{"type":"Feature","id":"node/6651536702","geometry":{"type":"Point","coordinates":[-76.14125,45.13725]},"properties":{"osm_type":"node","osm_id":6651536702,"category":"wine_shop","name":"Carleton Place Winery","tags":{"name":"Carleton Place Winery","shop":"wine"}}},{"type":"Feature","id":"node/6652986826","geometry":{"type":"Point","coordinates":[-80.99587,42.68052]},"properties":{"osm_type":"node","osm_id":6652986826,"category":"winery","name":"Rush Creek Orchards and Winery","tags":{"addr:city":"Alymer","addr:housenumber":"48995","addr:street":"Jamestown Line","craft":"winery","name":"Rush Creek Orchards and Winery","phone":"+1-519-773-5432","website":"https://www.rushcreekwines.com/"}}},{"type":"Feature","id":"node/6657801750","geometry":{"type":"Point","coordinates":[-79.17052,43.15625]},