{"type":"FeatureCollection","features":[{"type":"Feature","id":"node/1172468371","geometry":{"type":"Point","coordinates":[-71.3206979,-35.0954343]},"properties":{"osm_type":"node","osm_id":1172468371,"category":"wine_shop","name":"Sala de Ventas Viña San Pedro","tags":{"man_made":"winery","name":"Sala de Ventas Viña San Pedro","shop":"wine","tourism":"viewpoint"}}},{"type":"Feature","id":"node/1217719278","geometry":{"type":"Point","coordinates":[-71.0668187,-33.5059453]},"properties":{"osm_type":"node","osm_id":1217719278,"category":"wine_shop","name":"Viña Casa Rivas","tags":{"man_made":"winery","name":"Viña Casa Rivas","shop":"wine","tourism":"viewpoint"}}},{"type":"Feature","id":"node/1305365393","geometry":{"type":"Point","coordinates":[-70.6539455,-33.7995395]},"properties":{"osm_type":"node","osm_id":1305365393,"category":"vineyard","name":"viña antiyal","tags":{"landuse":"vineyard","name":"viña antiyal"}}},{"type":"Feature","id":"node/1365950550","geometry":{"type":"Point","coordinates":[-71.4003826,-33.4698757]},"properties":{"osm_type":"node","osm_id":1365950550,"category":"winery","name":"Bodega Viña Matetic","tags":{"craft":"winery","name":"Bodega Viña Matetic"}}},{"type":"Feature","id":"node/1406516158","geometry":{"type":"Point","coordinates":[-71.714891,-35.5982839]},"properties":{"osm_type":"node","osm_id":1406516158,"category":"winery","name":"Viña Balduzzi","tags":{"craft":"winery","name":"Viña Balduzzi","tourism":"viewpoint"}}},{"type":"Feature","id":"node/1473100935","geometry":{"type":"Point","coordinates":[-71.4017472,-34.5634471]},"properties":{"osm_type":"node","osm_id":1473100935,"category":"wine_shop","name":"Viña Mont Gras","tags":{"man_made":"winery","name":"Viña Mont Gras","shop":"wine","tourism":"attraction"}}},{"type":"Feature","id":"node/1480408098","geometry":{"type":"Point","coordinates":[-71.3790355,-34.5762302]},"properties":{"osm_type":"node","osm_id":1480408098,"category":"winery","name":"Viña Estampa","tags":{"craft":"winery","name":"Viña Estampa","shop":"wine","tourism":"attraction"}}},{"type":"Feature","id":"node/1480408119","geometry":{"type":"Point","coordinates":[-71.3731749,-34.5741463]},"properties":{"osm_type":"node","osm_id":1480408119,"category":"wine_shop","name":"Viña Maquis","tags":{"man_made":"winery","name":"Viña Maquis","shop":"wine","tourism":"attraction"}}},{"type":"Feature","id":"node/1480411142","geometry":{"type":"Point","coordinates":[-71.3808144,-34.5661599]},"properties":{"osm_type":"node","osm_id":1480411142,"category":"wine_shop","name":"Viña Sieguel","tags":{"man_made":"winery","name":"Viña Sieguel","shop":"wine","tourism":"attraction"}}},{"type":"Feature","id":"node/1480448960","geometry":{"type":"Point","coordinates":[-71.3944207,-34.4909613]},"properties":{"osm_type":"node","osm_id":1480448960,"category":"wine_shop","name":"Viña Santa Rita","tags":{"man_made":"winery","name":"Viña Santa Rita","shop":"wine","tourism":"attraction"}}},{"type":"Feature","id":"node/1711803766","geometry":{"type":"Point","coordinates":[-70.616432,-33.7132203]},"properties":{"osm_type":"node","osm_id":1711803766,"category":"wine_shop","name":"Viña Haras de Pirque","tags":{"man_made":"winery","name":"Viña Haras de Pirque","phone":"+56 2 8547910","shop":"wine","tourism":"viewpoint"}}},{"type":"Feature","id":"node/1711813329","geometry":{"type":"Point","coordinates":[-70.6093296,-33.6948923]},"properties":{"osm_type":"node","osm_id":1711813329,"category":"wine_shop","name":"Haras de Pirque","tags":{"man_made":"winery","name":"Haras de Pirque","phone":"+56 2 8547910","shop":"wine","tourism":"viewpoint"}}},{"type":"Feature","id":"node/1955274040","geometry":{"type":"Point","coordinates":[-71.4750543,-33.4788727]},"properties":{"osm_type":"node","osm_id":1955274040,"category":"wine_shop","name":"El Emporio","tags":{"name":"El Emporio","shop":"wine"}}},{"type":"Feature","id":"node/2291985643","geometry":{"type":"Point","coordinates":[-71.2919298,-34.5924946]},"properties":{"osm_type":"node","osm_id":2291985643,"category":"winery","name":"Clos Apalta, Viña Lapostolle","tags":{"craft":"winery","name":"Clos Apalta, Viña Lapostolle","phone":"+56 722953350","shop":"wine","tourism":"attraction","website":"https://www.lapostolle.com/"}}},{"type":"Feature","id":"node/2291985653","geometry":{"type":"Point","coordinates":[-71.2736714,-34.6123524]},"properties":{"osm_type":"node","osm_id":2291985653,"category":"wine_shop","name":"Viña Montes","tags":{"addr:housenumber":"Parcela 15","addr:street":"Camino a Millahue de Apalta","email":"tours@monteswines.com","man_made":"winery","name":"Viña Montes","name:en":"Montes Wines","phone":"+56 72817815","shop":"wine","tourism":"attraction","website":"https://www.monteswines.com/"}}},{"type":"Feature","id":"node/2413972196","geometry":{"type":"Point","coordinates":[-71.2714314,-34.6523457]},"properties":{"osm_type":"node","osm_id":2413972196,"category":"wine_shop","name":"La Vino Garage","tags":{"addr:street":"Ruta 90","name":"La Vino Garage","shop":"wine"}}},{"type":"Feature","id":"node/2448423967","geometry":{"type":"Point","coordinates":[-71.3736189,-34.6412854]},"properties":{"osm_type":"node","osm_id":2448423967,"category":"wine_shop","name":"Viña La Posada","tags":{"man_made":"winery","name":"Viña La Posada","shop":"wine","tourism":"winery"}}},{"type":"Feature","id":"node/2514300244","geometry":{"type":"Point","coordinates":[-71.3137161,-34.6394218]},"properties":{"osm_type":"node","osm_id":2514300244,"category":"winery","name":"Viña Lapostolle","tags":{"craft":"winery","name":"Viña Lapostolle","phone":"+56 72 2953300","shop":"wine","tourism":"attraction","website":"https://www.lapostolle.com/"}}},{"type":"Feature","id":"node/2516212588","geometry":{"type":"Point","coordinates":[-71.2888021,-35.0431994]},"properties":{"osm_type":"node","osm_id":2516212588,"category":"wine_shop","name":"Viña La Fortuna","tags":{"man_made":"winery","name":"Viña La Fortuna","shop":"wine","tourism":"viewpoint"}}},{"type":"Feature","id":"node/2519304462","geometry":{"type":"Point","coordinates":[-71.2489521,-35.0121283]},"properties":{"osm_type":"node","osm_id":2519304462,"category":"wine_shop","name":"Viña Miguel Torres","tags":{"man_made":"winery","name":"Viña Miguel Torres","shop":"wine","tourism":"viewpoint"}}},{"type":"Feature","id":"node/2519313814","geometry":{"type":"Point","coordinates":[-71.3045607,-35.0563656]},"properties":{"osm_type":"node","osm_id":2519313814,"category":"wine_shop","name":"Sala de Ventas Viña Alta Cima","tags":{"man_made":"winery","name":"Sala de Ventas Viña Alta Cima","shop":"wine","tourism":"viewpoint"}}},{"type":"Feature","id":"node/2521162010","geometry":{"type":"Point","coordinates":[-71.4604996,-35.0015021]},"properties":{"osm_type":"node","osm_id":2521162010,"category":"wine_shop","name":"Venta Vinos Viña Raíces","tags":{"man_made":"winery","name":"Venta Vinos Viña Raíces","shop":"wine"}}},{"type":"Feature","id":"node/2627234916","geometry":{"type":"Point","coordinates":[-71.2846538,-33.2845943]},"properties":{"osm_type":"node","osm_id":2627234916,"category":"vineyard","name":"Fundo Mina del Agua","tags":{"landuse":"vineyard","name":"Fundo Mina del Agua"}}},{"type":"Feature","id":"node/2880780685","geometry":{"type":"Point","coordinates":[-71.544704,-33.5240699]},"properties":{"osm_type":"node","osm_id":2880780685,"category":"wine_shop","name":"Viña Casa Marín","tags":{"addr:city":"Cartagena","addr:housenumber":"None","addr:street":"Camino Lo Abarca","name":"Viña Casa Marín","phone":"+56 2 23342986","shop":"wine","tourism":"attraction","website":"https://www.casamarin.cl/"}}},{"type":"Feature","id":"node/2906847300","geometry":{"type":"Point","coordinates":[-71.2263831,-34.5409831]},"properties":{"osm_type":"node","osm_id":2906847300,"category":"winery","tags":{"addr:city":"San Vicente de Tagua Tagua","addr:street":"Cruce Ruta H-800 - Fundo Millahue","craft":"winery","email":"contact@vik.cl","operator":"VIK Chile","phone":"+56 222482218","shop":"wine","tourism":"attraction","website":"https://www.vik.cl"}}},{"type":"Feature","id":"node/2991420874","geometry":{"type":"Point","coordinates":[-72.4452857,-36.6266827]},"properties":{"osm_type":"node","osm_id":2991420874,"category":"winery","name":"Casa de Giner","tags":{"craft":"winery","name":"Casa de Giner","tourism":"viewpoint"}}},{"type":"Feature","id":"node/3001759404","geometry":{"type":"Point","coordinates":[-70.7156812,-34.3547858]},"properties":{"osm_type":"node","osm_id":3001759404,"category":"wine_shop","name":"San Pedro, Bodega Cachapoal Andes","tags":{"email":"contacto@sanpedro.cl","name":"San Pedro, Bodega Cachapoal Andes","phone":"+56 224775300","shop":"wine","tourism":"attraction","website":"https://sanpedro.cl/en/winery/cachapoal-andes/"}}},{"type":"Feature","id":"node/3040317718","geometry":{"type":"Point","coordinates":[-70.8970627,-33.7522691]},"properties":{"osm_type":"node","osm_id":3040317718,"category":"wine_shop","name":"De Martino","tags":{"addr:city":"Isla de Maipo","addr:housenumber":"229","addr:street":"Manuel Rodríguez","man_made":"winery","name":"De Martino","phone":"+56 225778836","shop":"wine","tourism":"attraction","website":"http://www.demartino.cl/"}}},{"type":"Feature","id":"node/3113324171","geometry":{"type":"Point","coordinates":[-71.310063,-34.6513907]},"properties":{"osm_type":"node","osm_id":3113324171,"category":"winery","name":"La Llavería Viu Manent","tags":{"addr:city":"Nancagua","addr:street":"Cunaquito Viu Manent","craft":"winery","name":"La Llavería Viu Manent","shop":"wine","tourism":"attraction"}}},{"type":"Feature","id":"node/3114862916","geometry":{"type":"Point","coordinates":[-71.3297805,-33.3557365]},"properties":{"osm_type":"node","osm_id":3114862916,"category":"wine_shop","name":"Viña Quintay","tags":{"man_made":"winery","name":"Viña Quintay","shop":"wine","tourism":"attraction"}}},{"type":"Feature","id":"node/3165873878","geometry":{"type":"Point","coordinates":[-71.6702155,-35.4351924]},"properties":{"osm_type":"node","osm_id":3165873878,"category":"winery","name":"Botillería España","tags":{"addr:street":"Piduco","craft":"winery","name":"Botillería España"}}},{"type":"Feature","id":"node/3228566662","geometry":{"type":"Point","coordinates":[-70.5626626,-32.8150722]},"properties":{"osm_type":"node","osm_id":3228566662,"category":"wine_shop","name":"Viña San Esteban","tags":{"addr:city":"San Esteban","addr:housenumber":"2074","addr:street":"La Florida","email":"sanesteban@vse.cl","man_made":"winery","name":"Viña San Esteban","phone":"+56342482842;+56342481050","shop":"wine","tourism":"attraction","website":"https://www.vse.cl/"}}},{"type":"Feature","id":"node/3247777214","geometry":{"type":"Point","coordinates":[-71.419183,-34.575282]},"properties":{"osm_type":"node","osm_id":3247777214,"category":"wine_shop","name":"Viña Anakena","tags":{"name":"Viña Anakena","shop":"wine"}}},{"type":"Feature","id":"node/3342978827","geometry":{"type":"Point","coordinates":[-71.3002561,-34.3559927]},"properties":{"osm_type":"node","osm_id":3342978827,"category":"wine_shop","name":"Viña La Torina","tags":{"name":"Viña La Torina","shop":"wine"}}},{"type":"Feature","id":"node/3661819077","geometry":{"type":"Point","coordinates":[-71.309756,-33.3595661]},"properties":{"osm_type":"node","osm_id":3661819077,"category":"wine_shop","name":"Viña Emiliana","tags":{"man_made":"winery","name":"Viña Emiliana","shop":"wine","tourism":"attraction"}}},{"type":"Feature","id":"node/3661889264","geometry":{"type":"Point","coordinates":[-71.2872918,-33.2673027]},"properties":{"osm_type":"node","osm_id":3661889264,"category":"wine_shop","name":"Estancia El Cuadro","tags":{"email":"info@elcuadro.cl","name":"Estancia El Cuadro","phone":"+56 322156817;+56 967240963;+56 225197503","shop":"wine","tourism":"attraction","website":"https://elcuadro.cl/"}}},{"type":"Feature","id":"node/3661911477","geometry":{"type":"Point","coordinates":[-71.4607228,-33.3172178]},"properties":{"osm_type":"node","osm_id":3661911477,"category":"wine_shop","name":"Viña Kingston","tags":{"addr:city":"Casablanca","addr:street":"Hijuela El Maitén","email":"guests@kingstonvineyards.com","man_made":"winery","name":"Viña Kingston","phone":"+56 992302917","shop":"wine","tourism":"attraction","website":"https://www.kingstonvineyards.com"}}},{"type":"Feature","id":"node/4085131732","geometry":{"type":"Point","coordinates":[-71.2445359,-34.3265008]},"properties":{"osm_type":"node","osm_id":4085131732,"category":"wine_shop","name":"Sala de Ventas Viña La Rosa","tags":{"addr:city":"Fundo La Rosa","addr:street":"Ruta de la Fruta","name":"Sala de Ventas Viña La Rosa","shop":"wine"}}},{"type":"Feature","id":"node/4222319294","geometry":{"type":"Point","coordinates":[-71.2844401,-34.9270317]},"properties":{"osm_type":"node","osm_id":4222319294,"category":"winery","name":"Viña Las Pitras ","tags":{"craft":"winery","name":"Viña Las Pitras ","tourism":"viewpoint"}}},{"type":"Feature","id":"node/4223832490","geometry":{"type":"Point","coordinates":[-70.74049,-33.4380822]},"properties":{"osm_type":"node","osm_id":4223832490,"category":"wine_shop","name":"Botillería","tags":{"addr:street":"Puerto Rico","name":"Botillería","shop":"wine"}}},{"type":"Feature","id":"node/4227492278","geometry":{"type":"Point","coordinates":[-71.3952213,-34.51155]},"properties":{"osm_type":"node","osm_id":4227492278,"category":"wine_shop","name":"Viña Ceas","tags":{"name":"Viña Ceas","shop":"wine"}}},{"type":"Feature","id":"node/4227492286","geometry":{"type":"Point","coordinates":[-71.2706091,-34.7312524]},"properties":{"osm_type":"node","osm_id":4227492286,"category":"wine_shop","name":"Vinos Larapinta","tags":{"name":"Vinos Larapinta","shop":"wine"}}},{"type":"Feature","id":"node/4234468141","geometry":{"type":"Point","coordinates":[-70.1308486,-20.2440303]},"properties":{"osm_type":"node","osm_id":4234468141,"category":"wine_shop","name":"Ingeniería Full Ar Ltda","tags":{"addr:housenumber":"2961-a","addr:street":"Salitrera Huara","name":"Ingeniería Full Ar Ltda","shop":"wine"}}},{"type":"Feature","id":"node/4251952589","geometry":{"type":"Point","coordinates":[-71.5994021,-33.5847194]},"properties":{"osm_type":"node","osm_id":4251952589,"category":"wine_shop","name":"Botillería \"Bajo Cero\"","tags":{"addr:street":"Avenida José Ángel Ortúzar","name":"Botillería \"Bajo Cero\"","shop":"wine"}}},{"type":"Feature","id":"node/4251952789","geometry":{"type":"Point","coordinates":[-71.6045702,-33.5824751]},"properties":{"osm_type":"node","osm_id":4251952789,"category":"wine_shop","name":"Tentación","tags":{"addr:street":"Avenida José Ángel Ortúzar","name":"Tentación","shop":"wine"}}},{"type":"Feature","id":"node/4327577493","geometry":{"type":"Point","coordinates":[-73.3398695,-40.8189041]},"properties":{"osm_type":"node","osm_id":4327577493,"category":"wine_shop","name":"Restaurant El Bajo","tags":{"name":"Restaurant El Bajo","shop":"wine"}}},{"type":"Feature","id":"node/4327577789","geometry":{"type":"Point","coordinates":[-73.33935,-40.8204232]},"properties":{"osm_type":"node","osm_id":4327577789,"category":"wine_shop","name":"Minimarket","tags":{"name":"Minimarket","shop":"wine"}}},{"type":"Feature","id":"node/4327577990","geometry":{"type":"Point","coordinates":[-73.3382138,-40.8176402]},"properties":{"osm_type":"node","osm_id":4327577990,"category":"wine_shop","name":"Restaurant El Huasito","tags":{"name":"Restaurant El Huasito","shop":"wine"}}},{"type":"Feature","id":"node/4329755192","geometry":{"type":"Point","coordinates":[-73.3392928,-40.8207585]},"properties":{"osm_type":"node","osm_id":4329755192,"category":"wine_shop","name":"Restaurant Paty","tags":{"addr:city":"Riachuelo","addr:street":"Pedro de Valdivia","name":"Restaurant Paty","shop":"wine"}}},{"type":"Feature","id":"node/4377867590","geometry":{"type":"Point","coordinates":[-72.4077816,-37.0342244]},"properties":{"osm_type":"node","osm_id":4377867590,"category":"wine_shop","name":"Distribuidora Jerry","tags":{"addr:country":"CL","addr:street":"Río Claro","name":"Distribuidora Jerry","shop":"wine"}}},{"type":"Feature","id":"node/4388516390","geometry":{"type":"Point","coordinates":[-73.5220274,-45.1646919]},"properties":{"osm_type":"node","osm_id":4388516390,"category":"wine_shop","tags":{"shop":"wine"}}},{"type":"Feature","id":"node/4404587891","geometry":{"type":"Point","coordinates":[-70.7326851,-33.4666392]},"properties":{"osm_type":"node","osm_id":4404587891,"category":"wine_shop","tags":{"shop":"wine"}}},{"type":"Feature","id":"node/4407533390","geometry":{"type":"Point","coordinates":[-70.6486469,-33.4645224]},"properties":{"osm_type":"node","osm_id":4407533390,"category":"wine_shop","name":"El Cielo","tags":{"addr:housenumber":"1430","addr:street":"San Diego","name":"El Cielo","name:es":"El Cielo","opening_hours":"Mo-Sa 10:00-20:00","phone":"+56 22 4248374;+56 22 5569504","shop":"wine","website":"https://www.elcielo.cl"}}},{"type":"Feature","id":"node/4425270793","geometry":{"type":"Point","coordinates":[-70.650724,-33.4309535]},"properties":{"osm_type":"node","osm_id":4425270793,"category":"wine_shop","name":"Mayorista de Vinos y Bebidas","tags":{"addr:housenumber":"161","addr:street":"Salas","name":"Mayorista de Vinos y Bebidas","name:es":"Mayorista de Vinos y Bebidas","phone":"+56227320540","shop":"wine"}}},{"type":"Feature","id":"node/4442282591","geometry":{"type":"Point","coordinates":[-68.2012971,-22.9101546]},"properties":{"osm_type":"node","osm_id":4442282591,"category":"wine_shop","name":"Botillería Gisela","tags":{"name":"Botillería Gisela","name:en":"Bottle Shop Gisela","name:es":"Botillería Gisela","shop":"wine"}}},{"type":"Feature","id":"node/4459218490","geometry":{"type":"Point","coordinates":[-71.4322508,-33.318148]},"properties":{"osm_type":"node","osm_id":4459218490,"category":"wine_shop","name":"Casas del Bosque","tags":{"name":"Casas del Bosque","name:en":"Casas del Bosque","shop":"wine"}}},{"type":"Feature","id":"node/4545803090","geometry":{"type":"Point","coordinates":[-71.641434,-35.4106475]},"properties":{"osm_type":"node","osm_id":4545803090,"category":"wine_shop","name":"Donde Jorgito","tags":{"name":"Donde Jorgito","name:es":"Donde Jorgito","shop":"wine"}}},{"type":"Feature","id":"node/4545820690","geometry":{"type":"Point","coordinates":[-71.6421056,-35.4100605]},"properties":{"osm_type":"node","osm_id":4545820690,"category":"wine_shop","name":"El señor de la noche","tags":{"name":"El señor de la noche","name:es":"El señor de la noche","shop":"wine"}}},{"type":"Feature","id":"node/4575984895","geometry":{"type":"Point","coordinates":[-72.0891007,-36.5992961]},"properties":{"osm_type":"node","osm_id":4575984895,"category":"wine_shop","name":"Punto driks","tags":{"addr:street":"Vicente Méndez","name":"Punto driks","name:es":"Punto driks","shop":"wine"}}},{"type":"Feature","id":"node/4674651391","geometry":{"type":"Point","coordinates":[-71.3737749,-34.6315252]},"properties":{"osm_type":"node","osm_id":4674651391,"category":"winery","name":"Viña Laura Hartwig","tags":{"craft":"winery","name":"Viña Laura Hartwig","name:en":"Winery Laura Hartwig","tourism":"attraction"}}},{"type":"Feature","id":"node/4687477892","geometry":{"type":"Point","coordinates":[-70.6027893,-33.5022832]},"properties":{"osm_type":"node","osm_id":4687477892,"category":"wine_shop","tags":{"shop":"wine"}}},{"type":"Feature","id":"node/4738744822","geometry":{"type":"Point","coordinates":[-72.5724618,-38.7217928]},"properties":{"osm_type":"node","osm_id":4738744822,"category":"wine_shop","name":"Distribuidora de Vinos y Licores","tags":{"name":"Distribuidora de Vinos y Licores","name:es":"Distribuidora de Vinos y Licores","shop":"wine"}}},{"type":"Feature","id":"node/4755708423","geometry":{"type":"Point","coordinates":[-71.5990959,-35.554693]},"properties":{"osm_type":"node","osm_id":4755708423,"category":"winery","name":"Natural Wine","tags":{"addr:city":"Maule","addr:street":"Ruta K-635","craft":"winery","name":"Natural Wine","name:es":"Natural Wine"}}},{"type":"Feature","id":"node/4821855564","geometry":{"type":"Point","coordinates":[-71.3048213,-34.4090755]},"properties":{"osm_type":"node","osm_id":4821855564,"category":"winery","tags":{"craft":"winery"}}},{"type":"Feature","id":"node/4821855565","geometry":{"type":"Point","coordinates":[-71.3035017,-34.4084338]},"properties":{"osm_type":"node","osm_id":4821855565,"category":"wine_shop","name":"Viña Altavista","tags":{"name":"Viña Altavista","shop":"wine"}}},{"type":"Feature","id":"node/4860821222","geometry":{"type":"Point","coordinates":[-68.2017774,-22.9114688]},"properties":{"osm_type":"node","osm_id":4860821222,"category":"wine_shop","name":"El Taznire","tags":{"name":"El Taznire","name:es":"El Taznire","shop":"wine"}}},{"type":"Feature","id":"node/4935873524","geometry":{"type":"Point","coordinates":[-72.361206,-37.4653299]},"properties":{"osm_type":"node","osm_id":4935873524,"category":"wine_shop","tags":{"shop":"wine"}}},{"type":"Feature","id":"node/4935878226","geometry":{"type":"Point","coordinates":[-72.3615549,-37.4607868]},"properties":{"osm_type":"node","osm_id":4935878226,"category":"wine_shop","tags":{"shop":"wine"}}},{"type":"Feature","id":"node/5104336921","geometry":{"type":"Point","coordinates":[-72.9089659,-41.4257491]},"properties":{"osm_type":"node","osm_id":5104336921,"category":"wine_shop","name":"Centro De Eventos Rancheros La Vara","tags":{"addr:street":"V-629 La Vara - Senda Sur","name":"Centro De Eventos Rancheros La Vara","name:en":"La Vara","phone":"+56990638563","shop":"wine"}}},{"type":"Feature","id":"node/5200183798","geometry":{"type":"Point","coordinates":[-70.673259,-33.4471053]},"properties":{"osm_type":"node","osm_id":5200183798,"category":"wine_shop","name":"Pulku","tags":{"addr:city":"Santiago","addr:housenumber":"37","addr:street":"Libertad","name":"Pulku","shop":"wine","website":"https://www.chilenazosantiago.cl/pulku/"}}},{"type":"Feature","id":"node/5373610121","geometry":{"type":"Point","coordinates":[-71.6174806,-35.4645532]},"properties":{"osm_type":"node","osm_id":5373610121,"category":"wine_shop","name":"Viña Casa Donoso","tags":{"name":"Viña Casa Donoso","shop":"wine"}}},{"type":"Feature","id":"node/5425169922","geometry":{"type":"Point","coordinates":[-71.3531864,-33.3588629]},"properties":{"osm_type":"node","osm_id":5425169922,"category":"wine_shop","name":"Viñamar de Casablanca","tags":{"name":"Viñamar de Casablanca","shop":"wine"}}},{"type":"Feature","id":"node/5487480336","geometry":{"type":"Point","coordinates":[-71.3772617,-30.6796208]},"properties":{"osm_type":"node","osm_id":5487480336,"category":"winery","name":"Viña Tabalí","tags":{"craft":"winery","name":"Viña Tabalí","website":"https://tienda.tabali.com/"}}},{"type":"Feature","id":"node/5590101621","geometry":{"type":"Point","coordinates":[-71.2458268,-34.6298478]},"properties":{"osm_type":"node","osm_id":5590101621,"category":"wine_shop","name":"Viña Neyen","tags":{"name":"Viña Neyen","shop":"wine"}}},{"type":"Feature","id":"node/5999292568","geometry":{"type":"Point","coordinates":[-73.2648104,-39.7562906]},"properties":{"osm_type":"node","osm_id":5999292568,"category":"winery","name":"Mesón de la Sidra","tags":{"addr:city":"Punucapa","craft":"winery","name":"Mesón de la Sidra"}}},{"type":"Feature","id":"node/6090010485","geometry":{"type":"Point","coordinates":[-70.3190057,-18.4807196]},"properties":{"osm_type":"node","osm_id":6090010485,"category":"wine_shop","name":"Botillería La Serena","tags":{"addr:housenumber":"437","addr:street":"San Marcos","name":"Botillería La Serena","opening_hours":"Su-Th 14:00-01:00; Fr-Sa 14:00-03:00","shop":"wine"}}},{"type":"Feature","id":"node/6135436386","geometry":{"type":"Point","coordinates":[-70.4970768,-30.077558]},"properties":{"osm_type":"node","osm_id":6135436386,"category":"wine_shop","name":"Cavas del Valle","tags":{"addr:city":"Valle de Elqui.","addr:country":"CL","addr:housenumber":"km 14,5","addr:street":"R485","name":"Cavas del Valle","phone":"+56 9 6842 5592","shop":"wine","url":"https://www.cavasdelvalle.cl/"}}},{"type":"Feature","id":"node/6533807786","geometry":{"type":"Point","coordinates":[-72.6363627,-36.687772]},"properties":{"osm_type":"node","osm_id":6533807786,"category":"wine_shop","name":"Viña Castellón","tags":{"addr:housenumber":"kilómetro 5","addr:street":"Cruce O-66-N (La Raya) - El Quilo - Paso El León - Cruce N-336 (El Laurel)","email":"castellon.vina@gmail.com","name":"Viña Castellón","opening_hours":"Mo-Su 09:00-20:00","phone":"+56996400128","shop":"wine","website":"https://www.vinacastellon.cl"}}},{"type":"Feature","id":"node/6615265997","geometry":{"type":"Point","coordinates":[-70.6947214,-32.7504965]},"properties":{"osm_type":"node","osm_id":6615265997,"category":"wine_shop","name":"Chicha criolla de José Toro","tags":{"name":"Chicha criolla de José Toro","phone":"+56985482708","shop":"wine"}}},{"type":"Feature","id":"node/6670682984","geometry":{"type":"Point","coordinates":[-70.7303643,-34.1910375]},"properties":{"osm_type":"node","osm_id":6670682984,"category":"wine_shop","name":"Viña Santa Blanca","tags":{"name":"Viña Santa Blanca","shop":"wine"}}},{"type":"Feature","id":"node/6762731238","geometry":{"type":"Point","coordinates":[-71.5000858,-33.2906921]},"properties":{"osm_type":"node","osm_id":6762731238,"category":"wine_shop","name":"Botillería","tags":{"name":"Botillería","shop":"wine"}}},{"type":"Feature","id":"node/6790545678","geometry":{"type":"Point","coordinates":[-71.29171,-35.1344252]},"properties":{"osm_type":"node","osm_id":6790545678,"category":"winery","name":"Viña EL Cóndor","tags":{"craft":"winery","name":"Viña EL Cóndor"}}},{"type":"Feature","id":"node/7012419793","geometry":{"type":"Point","coordinates":[-71.3623334,-33.3208922]},"properties":{"osm_type":"node","osm_id":7012419793,"category":"wine_shop","name":"William Cole Vineyard","tags":{"name:en":"William Cole Vineyard","shop":"wine"}}},{"type":"Feature","id":"node/7066880086","geometry":{"type":"Point","coordinates":[-71.8826903,-35.7088206]},"properties":{"osm_type":"node","osm_id":7066880086,"category":"wine_shop","name":"On Lolo","tags":{"name":"On Lolo","shop":"wine"}}},{"type":"Feature","id":"node/7101342085","geometry":{"type":"Point","coordinates":[-72.3531527,-37.4782247]},"properties":{"osm_type":"node","osm_id":7101342085,"category":"wine_shop","name":"Macul","tags":{"addr:housenumber":"502","addr:postcode":"4440000","addr:street":"San Martín","name":"Macul","phone":"432630282","shop":"wine"}}},{"type":"Feature","id":"node/7545691485","geometry":{"type":"Point","coordinates":[-70.9344234,-53.1652606]},"properties":{"osm_type":"node","osm_id":7545691485,"category":"wine_shop","name":"Almacén y botilleria monaco","tags":{"addr:housenumber":"0301-a","addr:postcode":"5200000","addr:street":"Juan Enrique Rosales","email":"efsaustral@gmail.com","name":"Almacén y botilleria monaco","name:en":"Mónaco","opening_hours":"Mo-Su 11:00-21:30","phone":"954572129","shop":"wine"}}},{"type":"Feature","id":"node/7624248134","geometry":{"type":"Point","coordinates":[-70.60902,-33.4201649]},"properties":{"osm_type":"node","osm_id":7624248134,"category":"wine_shop","name":"La Cava del Sommelier","tags":{"addr:city":"Providencia","addr:housenumber":"109","addr:street":"General Holley Paseo Peatonal","name":"La Cava del Sommelier","shop":"wine","website":"https://cavadelsommelier.cl/"}}},{"type":"Feature","id":"node/7682183926","geometry":{"type":"Point","coordinates":[-71.7390436,-34.8495039]},"properties":{"osm_type":"node","osm_id":7682183926,"category":"wine_shop","name":"Villalobos Wine","tags":{"name":"Villalobos Wine","shop":"wine"}}},{"type":"Feature","id":"node/7925382943","geometry":{"type":"Point","coordinates":[-71.3004622,-33.022853]},"properties":{"osm_type":"node","osm_id":7925382943,"category":"winery","name":"Viña Fundo El Sauce","tags":{"craft":"winery","name":"Viña Fundo El Sauce","tourism":"attraction"}}},{"type":"Feature","id":"node/8246433449","geometry":{"type":"Point","coordinates":[-72.6713436,-37.3971262]},"properties":{"osm_type":"node","osm_id":8246433449,"category":"wine_shop","tags":{"shop":"wine"}}},{"type":"Feature","id":"node/8508890138","geometry":{"type":"Point","coordinates":[-71.5714376,-34.4156918]},"properties":{"osm_type":"node","osm_id":8508890138,"category":"winery","name":"Viña Clos Santa Ana","tags":{"craft":"winery","name":"Viña Clos Santa Ana"}}},{"type":"Feature","id":"node/8519120505","geometry":{"type":"Point","coordinates":[-72.6735038,-37.4986505]},"properties":{"osm_type":"node","osm_id":8519120505,"category":"wine_shop","name":"Depósito de Vinos El Torreón","tags":{"name":"Depósito de Vinos El Torreón","shop":"wine"}}},{"type":"Feature","id":"node/8864817921","geometry":{"type":"Point","coordinates":[-71.7031574,-34.800128]},"properties":{"osm_type":"node","osm_id":8864817921,"category":"wine_shop","name":"Casa Silva Lolol","tags":{"name":"Casa Silva Lolol","shop":"wine"}}},{"type":"Feature","id":"node/9122480481","geometry":{"type":"Point","coordinates":[-71.7365454,-35.6843775]},"properties":{"osm_type":"node","osm_id":9122480481,"category":"winery","name":"Viña Carta Vieja","tags":{"craft":"winery","name":"Viña Carta Vieja"}}},{"type":"Feature","id":"node/9173718282","geometry":{"type":"Point","coordinates":[-71.0736168,-34.4375032]},"properties":{"osm_type":"node","osm_id":9173718282,"category":"wine_shop","name":"Viña La Rosa","tags":{"name":"Viña La Rosa","shop":"wine"}}},{"type":"Feature","id":"node/9208942799","geometry":{"type":"Point","coordinates":[-71.2505635,-34.616526]},"properties":{"osm_type":"node","osm_id":9208942799,"category":"wine_shop","name":"Viña Ventisquero","tags":{"name":"Viña Ventisquero","shop":"wine"}}},{"type":"Feature","id":"node/9406284925","geometry":{"type":"Point","coordinates":[-70.6746384,-33.7250103]},"properties":{"osm_type":"node","osm_id":9406284925,"category":"wine_shop","name":"Viña Santa Rita Wine Shop","tags":{"name":"Viña Santa Rita Wine Shop","shop":"wine","website":"https://www.santarita.com/en/visit-us/santa-rita-wine-shop/"}}},{"type":"Feature","id":"node/9630709560","geometry":{"type":"Point","coordinates":[-70.7973457,-33.3997263]},"properties":{"osm_type":"node","osm_id":9630709560,"category":"wine_shop","name":"La Cava del Vino","tags":{"name":"La Cava del Vino","shop":"wine"}}},{"type":"Feature","id":"node/9797257943","geometry":{"type":"Point","coordinates":[-71.5339109,-32.942807]},"properties":{"osm_type":"node","osm_id":9797257943,"category":"wine_shop","name":"Entre Barricas y Cavas","tags":{"name":"Entre Barricas y Cavas","shop":"wine"}}},{"type":"Feature","id":"node/9859607666","geometry":{"type":"Point","coordinates":[-70.79286,-33.4015095]},"properties":{"osm_type":"node","osm_id":9859607666,"category":"wine_shop","name":"La Cava del Vino","tags":{"addr:city":"Pudahuel","name":"La Cava del Vino","shop":"wine"}}},{"type":"Feature","id":"node/9961587084","geometry":{"type":"Point","coordinates":[-71.5217424,-32.9421383]},"properties":{"osm_type":"node","osm_id":9961587084,"category":"wine_shop","name":"La Última Copa Art & Wine","tags":{"addr:city":"Concón","addr:country":"CL","addr:housenumber":"2095","addr:postcode":"2511510","addr:street":"Avenida Blanca Estela","name":"La Última Copa Art & Wine","shop":"wine"}}},{"type":"Feature","id":"node/9972648317","geometry":{"type":"Point","coordinates":[-71.5398463,-32.9591264]},"properties":{"osm_type":"node","osm_id":9972648317,"category":"wine_shop","name":"Emporio Botique","tags":{"addr:housenumber":"365","addr:street":"Avenida Gastón Hamel Nieto","name":"Emporio Botique","shop":"wine"}}},{"type":"Feature","id":"node/10075102644","geometry":{"type":"Point","coordinates":[-71.546055,-32.9416644]},"properties":{"osm_type":"node","osm_id":10075102644,"category":"wine_shop","name":"Click Wine","tags":{"name":"Click Wine","shop":"wine","website":"https://www.clickwine.cl/"}}},{"type":"Feature","id":"node/10164144996","geometry":{"type":"Point","coordinates":[-71.2290889,-33.0637372]},"properties":{"osm_type":"node","osm_id":10164144996,"category":"winery","name":"Hacienda Valdeperillo","tags":{"craft":"winery","email":"info@haciendavaldeperillo.com","name":"Hacienda Valdeperillo","phone":"+56985959313","website":"https://www.haciendavaldeperillo.com/"}}},{"type":"Feature","id":"node/10215866217","geometry":{"type":"Point","coordinates":[-68.2017524,-22.911517]},"properties":{"osm_type":"node","osm_id":10215866217,"category":"wine_shop","name":"El Taznire Supermercado de Alcoholes","tags":{"addr:street":"Calama","name":"El Taznire Supermercado de Alcoholes","shop":"wine"}}},{"type":"Feature","id":"node/10271466044","geometry":{"type":"Point","coordinates":[-70.8185846,-34.3003063]},"properties":{"osm_type":"node","osm_id":10271466044,"category":"winery","name":"Viña Los Boldos","tags":{"craft":"winery","email":"info@vinalosboldos.cl","name":"Viña Los Boldos","phone":"+56 (72) 2975790","website":"http://www.vinalosboldos.cl/"}}},{"type":"Feature","id":"node/10313762610","geometry":{"type":"Point","coordinates":[-71.3074224,-34.6490352]},"properties":{"osm_type":"node","osm_id":10313762610,"category":"winery","name":"Bodega Viña Viu Manent","tags":{"craft":"winery","name":"Bodega Viña Viu Manent"}}},{"type":"Feature","id":"node/10655889824","geometry":{"type":"Point","coordinates":[-71.8077564,-35.7632596]},"properties":{"osm_type":"node","osm_id":10655889824,"category":"winery","name":"Viña Lacre Rojo","tags":{"craft":"winery","name":"Viña Lacre Rojo"}}},{"type":"Feature","id":"node/10795587748","geometry":{"type":"Point","coordinates":[-71.4333952,-33.0148937]},"properties":{"osm_type":"node","osm_id":10795587748,"category":"winery","name":"Viñedos Herrera Alvarado","tags":{"craft":"winery","name":"Viñedos Herrera Alvarado","phone":"+56 9 9372 5076"}}},{"type":"Feature","id":"node/10950857729","geometry":{"type":"Point","coordinates":[-70.697961,-30.0390762]},"properties":{"osm_type":"node","osm_id":10950857729,"category":"winery","name":"Bodega Pisquería","tags":{"craft":"winery","name":"Bodega Pisquería"}}},{"type":"Feature","id":"node/10988886688","geometry":{"type":"Point","coordinates":[-70.606925,-33.4172316]},"properties":{"osm_type":"node","osm_id":10988886688,"category":"wine_shop","name":"CAV","tags":{"addr:city":"Providencia","addr:country":"CL","addr:housenumber":"2461","addr:street":"Avenida Andrés Bello","name":"CAV","shop":"wine"}}},{"type":"Feature","id":"node/11038572704","geometry":{"type":"Point","coordinates":[-70.7222578,-33.9214533]},"properties":{"osm_type":"node","osm_id":11038572704,"category":"wine_shop","name":"Rutas y Vinos Cachapoal","tags":{"addr:city":"Mostazal","addr:street":"Ruta 5 Sur","name":"Rutas y Vinos Cachapoal","shop":"wine"}}},{"type":"Feature","id":"node/11094533865","geometry":{"type":"Point","coordinates":[-71.2919502,-30.6304036]},"properties":{"osm_type":"node","osm_id":11094533865,"category":"winery","name":"Viña Ocho Tierras","tags":{"addr:street":"Ruta D-505","craft":"winery","email":"info@ochotierras.cl","name":"Viña Ocho Tierras","website":"https://ochotierras.cl/"}}},{"type":"Feature","id":"node/11144938409","geometry":{"type":"Point","coordinates":[-72.360844,-39.5790871]},"properties":{"osm_type":"node","osm_id":11144938409,"category":"winery","name":"Llagar de Barría","tags":{"craft":"winery","name":"Llagar de Barría"}}},{"type":"Feature","id":"node/11147137695","geometry":{"type":"Point","coordinates":[-70.6100119,-33.4202948]},"properties":{"osm_type":"node","osm_id":11147137695,"category":"wine_shop","name":"Baco","tags":{"name":"Baco","shop":"wine"}}},{"type":"Feature","id":"node/11515208069","geometry":{"type":"Point","coordinates":[-70.6254738,-33.4490964]},"properties":{"osm_type":"node","osm_id":11515208069,"category":"wine_shop","name":"Vinoteca Italia","tags":{"addr:housenumber":"1575","addr:postcode":"7770228","addr:street":"Avenida Condell","name":"Vinoteca Italia","opening_hours":"We-Sa 12:00-21:00","shop":"wine","website":"https://www.vinotecaitalia.cl/"}}},{"type":"Feature","id":"node/11535047318","geometry":{"type":"Point","coordinates":[-71.4285189,-33.0297254]},"properties":{"osm_type":"node","osm_id":11535047318,"category":"wine_shop","name":"Viña Domaine Raab Ramsay","tags":{"name":"Viña Domaine Raab Ramsay","shop":"wine"}}},{"type":"Feature","id":"node/11557681069","geometry":{"type":"Point","coordinates":[-70.6249087,-33.4478454]},"properties":{"osm_type":"node","osm_id":11557681069,"category":"wine_shop","name":"La Cava del Barrio","tags":{"addr:housenumber":"1449","addr:street":"Avenida Italia","name":"La Cava del Barrio","opening_hours":"Tu-Su 12:00-20:00","shop":"wine"}}},{"type":"Feature","id":"node/11643625830","geometry":{"type":"Point","coordinates":[-73.0590326,-36.7768121]},"properties":{"osm_type":"node","osm_id":11643625830,"category":"wine_shop","name":"grab&go Gourmet","tags":{"name":"grab&go Gourmet","shop":"wine","wheelchair":"yes"}}},{"type":"Feature","id":"node/11645706465","geometry":{"type":"Point","coordinates":[-70.6230962,-33.2713777]},"properties":{"osm_type":"node","osm_id":11645706465,"category":"wine_shop","name":"Viñales","tags":{"name":"Viñales","shop":"wine"}}},{"type":"Feature","id":"node/11778313283","geometry":{"type":"Point","coordinates":[-71.5431082,-32.9567731]},"properties":{"osm_type":"node","osm_id":11778313283,"category":"wine_shop","name":"Mozu Winebar","tags":{"name":"Mozu Winebar","shop":"wine"}}},{"type":"Feature","id":"node/11937871176","geometry":{"type":"Point","coordinates":[-70.5227313,-33.3527057]},"properties":{"osm_type":"node","osm_id":11937871176,"category":"wine_shop","name":"Patagon Wines","tags":{"name":"Patagon Wines","shop":"wine"}}},{"type":"Feature","id":"node/12471919500","geometry":{"type":"Point","coordinates":[-71.2311351,-33.7529789]},"properties":{"osm_type":"node","osm_id":12471919500,"category":"winery","name":"Viña Chocalán","tags":{"craft":"winery","name":"Viña Chocalán"}}},{"type":"Feature","id":"node/12582922593","geometry":{"type":"Point","coordinates":[-70.7331325,-33.5232976]},"properties":{"osm_type":"node","osm_id":12582922593,"category":"wine_shop","name":"Emporio Vinos","tags":{"name":"Emporio Vinos","shop":"wine"}}},{"type":"Feature","id":"node/13096411770","geometry":{"type":"Point","coordinates":[-70.6877248,-33.5050197]},"properties":{"osm_type":"node","osm_id":13096411770,"category":"wine_shop","name":"Botillera Ximena","tags":{"name":"Botillera Ximena","shop":"wine"}}},{"type":"Feature","id":"node/13096415142","geometry":{"type":"Point","coordinates":[-70.6868645,-33.4919938]},"properties":{"osm_type":"node","osm_id":13096415142,"category":"wine_shop","name":"Botillería los Cuatro Hermanos","tags":{"name":"Botillería los Cuatro Hermanos","shop":"wine"}}},{"type":"Feature","id":"node/13096446634","geometry":{"type":"Point","coordinates":[-70.68781,-33.4987799]},"properties":{"osm_type":"node","osm_id":13096446634,"category":"wine_shop","name":"Vinos y Licores San Sebastián","tags":{"name":"Vinos y Licores San Sebastián","shop":"wine"}}},{"type":"Feature","id":"node/13096448220","geometry":{"type":"Point","coordinates":[-70.6903272,-33.509074]},"properties":{"osm_type":"node","osm_id":13096448220,"category":"wine_shop","name":"Botillería Abrigo Mojado","tags":{"name":"Botillería Abrigo Mojado","shop":"wine"}}},{"type":"Feature","id":"node/13096456341","geometry":{"type":"Point","coordinates":[-70.6927192,-33.5133674]},"properties":{"osm_type":"node","osm_id":13096456341,"category":"wine_shop","name":"Comercial san Luis","tags":{"name":"Comercial san Luis","shop":"wine"}}},{"type":"Feature","id":"node/13096456823","geometry":{"type":"Point","coordinates":[-70.6908559,-33.5100564]},"properties":{"osm_type":"node","osm_id":13096456823,"category":"wine_shop","name":"Botilleria 2.0","tags":{"name":"Botilleria 2.0","shop":"wine"}}},{"type":"Feature","id":"node/13096459362","geometry":{"type":"Point","coordinates":[-70.6923304,-33.5125331]},"properties":{"osm_type":"node","osm_id":13096459362,"category":"wine_shop","name":"Botillería Los Sotos","tags":{"addr:city":"Lo Espejo","name":"Botillería Los Sotos","shop":"wine"}}},{"type":"Feature","id":"node/13096459404","geometry":{"type":"Point","coordinates":[-70.6872877,-33.4969895]},"properties":{"osm_type":"node","osm_id":13096459404,"category":"wine_shop","name":"Botillería Manilla","tags":{"name":"Botillería Manilla","shop":"wine"}}},{"type":"Feature","id":"node/13096459831","geometry":{"type":"Point","coordinates":[-70.6920839,-33.5126439]},"properties":{"osm_type":"node","osm_id":13096459831,"category":"wine_shop","name":"Botilleria la Pica de don Rola","tags":{"name":"Botilleria la Pica de don Rola","shop":"wine"}}},{"type":"Feature","id":"node/13121342922","geometry":{"type":"Point","coordinates":[-70.6876331,-33.4832887]},"properties":{"osm_type":"node","osm_id":13121342922,"category":"wine_shop","name":"Vinos y Licores","tags":{"name":"Vinos y Licores","shop":"wine"}}},{"type":"Feature","id":"node/13131481013","geometry":{"type":"Point","coordinates":[-70.6229995,-33.4535469]},"properties":{"osm_type":"node","osm_id":13131481013,"category":"wine_shop","name":"Todo Licores","tags":{"name":"Todo Licores","shop":"wine"}}},{"type":"Feature","id":"node/13265183087","geometry":{"type":"Point","coordinates":[-70.6885859,-33.4712409]},"properties":{"osm_type":"node","osm_id":13265183087,"category":"wine_shop","name":"Botillería Botika","tags":{"name":"Botillería Botika","shop":"wine"}}},{"type":"Feature","id":"node/13265209303","geometry":{"type":"Point","coordinates":[-70.6884309,-33.4661029]},"properties":{"osm_type":"node","osm_id":13265209303,"category":"wine_shop","name":"Botillería Jeannette","tags":{"name":"Botillería Jeannette","shop":"wine"}}},{"type":"Feature","id":"node/13265212058","geometry":{"type":"Point","coordinates":[-70.5987519,-33.4688997]},"properties":{"osm_type":"node","osm_id":13265212058,"category":"wine_shop","name":"Botillería Baco's","tags":{"name":"Botillería Baco's","shop":"wine"}}},{"type":"Feature","id":"node/13356406089","geometry":{"type":"Point","coordinates":[-70.5180332,-33.3577554]},"properties":{"osm_type":"node","osm_id":13356406089,"category":"wine_shop","name":"La Vinoteca Zoco","tags":{"name":"La Vinoteca Zoco","shop":"wine"}}},{"type":"Feature","id":"node/13522916508","geometry":{"type":"Point","coordinates":[-71.6718852,-33.3655243]},"properties":{"osm_type":"node","osm_id":13522916508,"category":"wine_shop","name":"Tinta Tinto","tags":{"addr:city":"Algarrobo","addr:street":"José Toribio Larraín","name":"Tinta Tinto","shop":"wine"}}},{"type":"Feature","id":"node/13626106601","geometry":{"type":"Point","coordinates":[-71.2121348,-33.4565848]},"properties":{"osm_type":"node","osm_id":13626106601,"category":"winery","name":"Bodega","tags":{"craft":"winery","name":"Bodega"}}},{"type":"Feature","id":"node/13720576976","geometry":{"type":"Point","coordinates":[-71.3567772,-34.0160968]},"properties":{"osm_type":"node","osm_id":13720576976,"category":"winery","name":"Bodega Viña Ventisquero","tags":{"craft":"winery","name":"Bodega Viña Ventisquero","operator":"Ventisquero Wine Estates","website":"https://www.ventisquero.com/nuestros-vinedos/vinedoTrinidad.html"}}},{"type":"Feature","id":"node/13731337391","geometry":{"type":"Point","coordinates":[-70.5767508,-33.6348199]},"properties":{"osm_type":"node","osm_id":13731337391,"category":"winery","name":"Bodega de Guarda del Alto","tags":{"craft":"winery","name":"Bodega de Guarda del Alto"}}},{"type":"Feature","id":"node/13731337392","geometry":{"type":"Point","coordinates":[-70.5764187,-33.6345527]},"properties":{"osm_type":"node","osm_id":13731337392,"category":"winery","name":"Bodega de Guarda Don Melchor","tags":{"craft":"winery","name":"Bodega de Guarda Don Melchor"}}},{"type":"Feature","id":"node/13826307062","geometry":{"type":"Point","coordinates":[-71.3647958,-34.6398307]},"properties":{"osm_type":"node","osm_id":13826307062,"category":"wine_shop","name":"Vinoteca Colchagua","tags":{"name":"Vinoteca Colchagua","shop":"wine"}}},{"type":"Feature","id":"way/28316833","geometry":{"type":"Point","coordinates":[-70.5688769,-33.4859157]},"properties":{"osm_type":"way","osm_id":28316833,"category":"vineyard","name":"Viña Cousiño Macul","wikidata":"Q5790327","wikipedia":"es:Viña Cousiño Macul","tags":{"landuse":"vineyard","name":"Viña Cousiño Macul","wikidata":"Q5790327","wikipedia":"es:Viña Cousiño Macul"}}},{"type":"Feature","id":"way/28316912","geometry":{"type":"Point","coordinates":[-70.549632,-33.4980976]},"properties":{"osm_type":"way","osm_id":28316912,"category":"vineyard","name":"Viña Peñalolén - Domus Aurea","tags":{"addr:housenumber":"5900","addr:street":"Avenida Consistorial","grape_variety":"Cabernet_Sauvignon;Merlot;Syrah;Merlot_Noir;Cabernet_franc","landuse":"vineyard","name":"Viña Peñalolén - Domus Aurea"}}},{"type":"Feature","id":"way/37268094","geometry":{"type":"Point","coordinates":[-70.5460227,-33.4910457]},"properties":{"osm_type":"way","osm_id":37268094,"category":"vineyard","name":"Viña Aquitania","tags":{"landuse":"vineyard","name":"Viña Aquitania"}}},{"type":"Feature","id":"way/51485448","geometry":{"type":"Point","coordinates":[-70.6179037,-33.6057114]},"properties":{"osm_type":"way","osm_id":51485448,"category":"vineyard","name":"Viña Almaviva","tags":{"landuse":"vineyard","name":"Viña Almaviva","operator":"Concha y Toro"}}},{"type":"Feature","id":"way/93485407","geometry":{"type":"Point","coordinates":[-71.5620494,-34.698881]},"properties":{"osm_type":"way","osm_id":93485407,"category":"vineyard","name":"Viña Santa Cruz","tags":{"landuse":"vineyard","name":"Viña Santa Cruz"}}},{"type":"Feature","id":"way/102644140","geometry":{"type":"Point","coordinates":[-71.298255,-33.366135]},"properties":{"osm_type":"way","osm_id":102644140,"category":"vineyard","name":"Viña Emiliana","tags":{"landuse":"vineyard","name":"Viña Emiliana","operator":"Viña Emiliana"}}},{"type":"Feature","id":"way/103683725","geometry":{"type":"Point","coordinates":[-70.8279361,-34.4079981]},"properties":{"osm_type":"way","osm_id":103683725,"category":"vineyard","name":"Viña Torreón de Paredes","tags":{"landuse":"vineyard","name":"Viña Torreón de Paredes"}}},{"type":"Feature","id":"way/106085060","geometry":{"type":"Point","coordinates":[-70.6823274,-33.7843055]},"properties":{"osm_type":"way","osm_id":106085060,"category":"vineyard","name":"Viña Cousiño Macul","tags":{"landuse":"vineyard","name":"Viña Cousiño Macul","operator":"Viña Cousiño Macul S.A."}}},{"type":"Feature","id":"way/106838572","geometry":{"type":"Point","coordinates":[-71.30742,-33.3560629]},"properties":{"osm_type":"way","osm_id":106838572,"category":"vineyard","name":"Viña Emiliana","tags":{"landuse":"vineyard","name":"Viña Emiliana","operator":"Viña Emiliana"}}},{"type":"Feature","id":"way/106838581","geometry":{"type":"Point","coordinates":[-71.3139228,-33.3605532]},"properties":{"osm_type":"way","osm_id":106838581,"category":"vineyard","name":"Viña Emiliana","tags":{"landuse":"vineyard","name":"Viña Emiliana","operator":"Viña Emiliana"}}},{"type":"Feature","id":"way/110483184","geometry":{"type":"Point","coordinates":[-71.2940821,-33.3705695]},"properties":{"osm_type":"way","osm_id":110483184,"category":"wine_shop","name":"Viña Veramonte","tags":{"landuse":"farmyard","man_made":"winery","name":"Viña Veramonte","shop":"wine","tourism":"attraction"}}},{"type":"Feature","id":"way/115573718","geometry":{"type":"Point","coordinates":[-70.6539157,-33.7995796]},"properties":{"osm_type":"way","osm_id":115573718,"category":"vineyard","name":"viña antiyal","tags":{"landuse":"vineyard","name":"viña antiyal"}}},{"type":"Feature","id":"way/119140184","geometry":{"type":"Point","coordinates":[-70.9071134,-33.7545242]},"properties":{"osm_type":"way","osm_id":119140184,"category":"winery","name":"Santa Ema","tags":{"industrial":"winery","landuse":"industrial","name":"Santa Ema"}}},{"type":"Feature","id":"way/124074340","geometry":{"type":"Point","coordinates":[-70.7563844,-34.3431187]},"properties":{"osm_type":"way","osm_id":124074340,"category":"vineyard","name":"Fundo Totihue","tags":{"landuse":"vineyard","name":"Fundo Totihue","operator":"Viña Emiliana"}}},{"type":"Feature","id":"way/124406626","geometry":{"type":"Point","coordinates":[-71.2196523,-34.5030656]},"properties":{"osm_type":"way","osm_id":124406626,"category":"vineyard","name":"Viña Concha y Toro","tags":{"landuse":"vineyard","name":"Viña Concha y Toro"}}},{"type":"Feature","id":"way/128470572","geometry":{"type":"Point","coordinates":[-70.6218794,-33.8595707]},"properties":{"osm_type":"way","osm_id":128470572,"category":"vineyard","name":"Viña Antiyal","tags":{"landuse":"vineyard","name":"Viña Antiyal"}}},{"type":"Feature","id":"way/129253609","geometry":{"type":"Point","coordinates":[-70.6189605,-33.8418231]},"properties":{"osm_type":"way","osm_id":129253609,"category":"wine_shop","name":"Viña Pérez Cruz","tags":{"addr:city":"Paine","addr:country":"CL","addr:street":"Fundo Liguai de Huelquén s/n","building":"yes","man_made":"winery","name":"Viña Pérez Cruz","phone":"+56 228242405","shop":"wine","tourism":"attraction","website":"https://www.perezcruz.com/"}}},{"type":"Feature","id":"way/130404828","geometry":{"type":"Point","coordinates":[-71.775549,-36.050092]},"properties":{"osm_type":"way","osm_id":130404828,"category":"vineyard","name":"Santa Teresa","tags":{"grape_variety":"Cabernet_Sauvignon","landuse":"vineyard","name":"Santa Teresa","operator":"CAF El Alamo Ltda","website":"https://www.cafelalamo.cl/"}}},{"type":"Feature","id":"way/136105849","geometry":{"type":"Point","coordinates":[-71.1223636,-34.6469094]},"properties":{"osm_type":"way","osm_id":136105849,"category":"vineyard","name":"Viña Ravanal","tags":{"landuse":"vineyard","name":"Viña Ravanal"}}},{"type":"Feature","id":"way/136107211","geometry":{"type":"Point","coordinates":[-71.1258351,-34.6038413]},"properties":{"osm_type":"way","osm_id":136107211,"category":"vineyard","name":"Fundo Los Robles","tags":{"landuse":"vineyard","name":"Fundo Los Robles","operator":"Viña Emiliana"}}},{"type":"Feature","id":"way/156513584","geometry":{"type":"Point","coordinates":[-70.6247684,-33.608084]},"properties":{"osm_type":"way","osm_id":156513584,"category":"vineyard","name":"Viñedo Chadwick","tags":{"landuse":"vineyard","name":"Viñedo Chadwick"}}},{"type":"Feature","id":"way/162803490","geometry":{"type":"Point","coordinates":[-71.5614099,-34.7072598]},"properties":{"osm_type":"way","osm_id":162803490,"category":"vineyard","name":"Viña Santa Cruz","tags":{"landuse":"vineyard","name":"Viña Santa Cruz"}}},{"type":"Feature","id":"way/162803971","geometry":{"type":"Point","coordinates":[-71.5598983,-34.7031471]},"properties":{"osm_type":"way","osm_id":162803971,"category":"winery","name":"Viña Santa Cruz","tags":{"addr:city":"Viña Saanta Cruz","building":"yes","craft":"winery","name":"Viña Santa Cruz","shop":"wine","tourism":"attraction"}}},{"type":"Feature","id":"way/203525649","geometry":{"type":"Point","coordinates":[-70.727132,-34.3452833]},"properties":{"osm_type":"way","osm_id":203525649,"category":"vineyard","name":"San Pedro, Bodega Cachapoal Andes","tags":{"landuse":"vineyard","name":"San Pedro, Bodega Cachapoal Andes"}}},{"type":"Feature","id":"way/219721101","geometry":{"type":"Point","coordinates":[-71.8286757,-35.3495851]},"properties":{"osm_type":"way","osm_id":219721101,"category":"vineyard","name":"Carmenere","tags":{"landuse":"vineyard","name":"Carmenere"}}},{"type":"Feature","id":"way/224302242","geometry":{"type":"Point","coordinates":[-70.5771026,-33.6317444]},"properties":{"osm_type":"way","osm_id":224302242,"category":"vineyard","name":"Concha y Toro","tags":{"landuse":"vineyard","name":"Concha y Toro"}}},{"type":"Feature","id":"way/230365136","geometry":{"type":"Point","coordinates":[-71.216148,-34.677017]},"properties":{"osm_type":"way","osm_id":230365136,"category":"vineyard","name":"Viña Santa Emiliana","tags":{"landuse":"vineyard","name":"Viña Santa Emiliana"}}},{"type":"Feature","id":"way/232569454","geometry":{"type":"Point","coordinates":[-71.2891312,-33.3028317]},"properties":{"osm_type":"way","osm_id":232569454,"category":"vineyard","name":"Campo Viña Ventisquero","tags":{"landuse":"vineyard","name":"Campo Viña Ventisquero"}}},{"type":"Feature","id":"way/235004419","geometry":{"type":"Point","coordinates":[-71.4868913,-33.6809254]},"properties":{"osm_type":"way","osm_id":235004419,"category":"vineyard","name":"Viña Amayna (Garcés Silva)","tags":{"landuse":"vineyard","name":"Viña Amayna (Garcés Silva)"}}},{"type":"Feature","id":"way/235004421","geometry":{"type":"Point","coordinates":[-71.4954685,-33.6853403]},"properties":{"osm_type":"way","osm_id":235004421,"category":"vineyard","name":"Viña Amayna (Garcés Silva)","tags":{"landuse":"vineyard","name":"Viña Amayna (Garcés Silva)"}}},{"type":"Feature","id":"way/235059691","geometry":{"type":"Point","coordinates":[-70.6520309,-33.6545538]},"properties":{"osm_type":"way","osm_id":235059691,"category":"vineyard","name":"Fundo Los Morros","tags":{"landuse":"vineyard","name":"Fundo Los Morros","operator":"Viña Emiliana"}}},{"type":"Feature","id":"way/236882380","geometry":{"type":"Point","coordinates":[-71.3749162,-34.6440164]},"properties":{"osm_type":"way","osm_id":236882380,"category":"vineyard","name":"Viña La Posada","tags":{"landuse":"vineyard","name":"Viña La Posada"}}},{"type":"Feature","id":"way/237816898","geometry":{"type":"Point","coordinates":[-71.2098216,-33.2649704]},"properties":{"osm_type":"way","osm_id":237816898,"category":"vineyard","name":"Viña López Pangue","tags":{"landuse":"vineyard","name":"Viña López Pangue"}}},{"type":"Feature","id":"way/248105717","geometry":{"type":"Point","coordinates":[-71.285674,-34.6094492]},"properties":{"osm_type":"way","osm_id":248105717,"category":"wine_shop","name":"Viña Las Niñas","tags":{"building":"yes","man_made":"winery","name":"Viña Las Niñas","phone":"+56 72321600","shop":"wine","tourism":"attraction","website":"http://www.vinalasninas.cl/"}}},{"type":"Feature","id":"way/248314613","geometry":{"type":"Point","coordinates":[-71.2739136,-34.6120638]},"properties":{"osm_type":"way","osm_id":248314613,"category":"winery","tags":{"building":"yes","craft":"winery"}}},{"type":"Feature","id":"way/287014614","geometry":{"type":"Point","coordinates":[-71.2257605,-34.5408955]},"properties":{"osm_type":"way","osm_id":287014614,"category":"winery","name":"Cava Viña Vik","wikidata":"Q99767422","wikipedia":"es:Viña Vik","tags":{"addr:city":"San Vicente de Tagua Tagua","building":"yes","craft":"winery","name":"Cava Viña Vik","wikidata":"Q99767422","wikipedia":"es:Viña Vik"}}},{"type":"Feature","id":"way/310264025","geometry":{"type":"Point","coordinates":[-71.5520215,-35.4210543]},"properties":{"osm_type":"way","osm_id":310264025,"category":"vineyard","name":"Viña Calina","tags":{"landuse":"vineyard","name":"Viña Calina"}}},{"type":"Feature","id":"way/311845334","geometry":{"type":"Point","coordinates":[-71.7866353,-35.7051001]},"properties":{"osm_type":"way","osm_id":311845334,"category":"winery","name":"Viña Saavedra","tags":{"craft":"winery","landuse":"industrial","name":"Viña Saavedra"}}},{"type":"Feature","id":"way/332223006","geometry":{"type":"Point","coordinates":[-71.3055576,-34.3593773]},"properties":{"osm_type":"way","osm_id":332223006,"category":"vineyard","name":"Viña La Torina","tags":{"landuse":"vineyard","name":"Viña La Torina"}}},{"type":"Feature","id":"way/340724185","geometry":{"type":"Point","coordinates":[-72.2204798,-36.7789371]},"properties":{"osm_type":"way","osm_id":340724185,"category":"vineyard","name":"Viña Chillán","tags":{"landuse":"vineyard","name":"Viña Chillán","website":"htttp://www.vinachillan.com"}}},{"type":"Feature","id":"way/377456718","geometry":{"type":"Point","coordinates":[-70.9501193,-31.0797224]},"properties":{"osm_type":"way","osm_id":377456718,"category":"vineyard","name":"Hacienda Cogotí","tags":{"landuse":"vineyard","name":"Hacienda Cogotí","operator":"Bauzá"}}},{"type":"Feature","id":"way/377456720","geometry":{"type":"Point","coordinates":[-70.9513672,-31.0761793]},"properties":{"osm_type":"way","osm_id":377456720,"category":"vineyard","name":"Hacienda Cogotí","tags":{"landuse":"vineyard","name":"Hacienda Cogotí","operator":"Bauzá"}}},{"type":"Feature","id":"way/379559551","geometry":{"type":"Point","coordinates":[-71.3269078,-33.3562603]},"properties":{"osm_type":"way","osm_id":379559551,"category":"winery","name":"Viña Casablanca","tags":{"building":"yes","craft":"winery","name":"Viña Casablanca","shop":"wine","tourism":"attraction"}}},{"type":"Feature","id":"way/380917399","geometry":{"type":"Point","coordinates":[-70.8707741,-33.5411929]},"properties":{"osm_type":"way","osm_id":380917399,"category":"vineyard","name":"Viña Odfjell","tags":{"landuse":"vineyard","name":"Viña Odfjell","operator":"Odfjell Vineyards"}}},{"type":"Feature","id":"way/403528219","geometry":{"type":"Point","coordinates":[-71.0660277,-34.435865]},"properties":{"osm_type":"way","osm_id":403528219,"category":"winery","name":"Terraustral Dominicia","tags":{"building":"yes","craft":"winery","name":"Terraustral Dominicia"}}},{"type":"Feature","id":"way/405119204","geometry":{"type":"Point","coordinates":[-70.9861552,-34.4548889]},"properties":{"osm_type":"way","osm_id":405119204,"category":"winery","name":"Viña TresMontes","tags":{"building":"yes","craft":"winery","name":"Viña TresMontes"}}},{"type":"Feature","id":"way/406118104","geometry":{"type":"Point","coordinates":[-71.3502547,-34.3519852]},"properties":{"osm_type":"way","osm_id":406118104,"category":"vineyard","name":"Viña Santa Carolina","tags":{"landuse":"vineyard","name":"Viña Santa Carolina"}}},{"type":"Feature","id":"way/444979022","geometry":{"type":"Point","coordinates":[-70.5401404,-33.3568164]},"properties":{"osm_type":"way","osm_id":444979022,"category":"wine_cellar","name":"Barrica94","tags":{"addr:city":"Lo Barnechea","addr:housenumber":"10492","addr:street":"Avenida José Alcalde Délano","amenity":"restaurant","building":"yes","cuisine":"chilena","email":"info@barrica94.cl","name":"Barrica94","opening_hours":"24/7","phone":"+56232102200","tourism":"wine_cellar","website":"https://www.barrica94.cl/","wheelchair":"yes"}}},{"type":"Feature","id":"way/460016916","geometry":{"type":"Point","coordinates":[-72.377586,-38.0643345]},"properties":{"osm_type":"way","osm_id":460016916,"category":"wine_shop","tags":{"building":"yes","shop":"wine"}}},{"type":"Feature","id":"way/460016934","geometry":{"type":"Point","coordinates":[-72.3771497,-38.0621211]},"properties":{"osm_type":"way","osm_id":460016934,"category":"wine_shop","name":"Expendio de bebidas alcoholicas","tags":{"building":"yes","name":"Expendio de bebidas alcoholicas","shop":"wine"}}},{"type":"Feature","id":"way/470394296","geometry":{"type":"Point","coordinates":[-71.3988034,-34.4913243]},"properties":{"osm_type":"way","osm_id":470394296,"category":"winery","name":"Planta Palmilla Viña Santa Rita","tags":{"industrial":"winery","landuse":"industrial","name":"Planta Palmilla Viña Santa Rita","operator":"Sociedad Anónima Viña Santa Rita"}}},{"type":"Feature","id":"way/480517394","geometry":{"type":"Point","coordinates":[-71.3246172,-34.395178]},"properties":{"osm_type":"way","osm_id":480517394,"category":"winery","tags":{"building":"yes","craft":"winery"}}},{"type":"Feature","id":"way/480517395","geometry":{"type":"Point","coordinates":[-71.3244213,-34.3956185]},"properties":{"osm_type":"way","osm_id":480517395,"category":"winery","tags":{"building":"yes","craft":"winery"}}},{"type":"Feature","id":"way/480517401","geometry":{"type":"Point","coordinates":[-71.3238903,-34.4002197]},"properties":{"osm_type":"way","osm_id":480517401,"category":"vineyard","name":"Viña Alchemy","tags":{"landuse":"vineyard","name":"Viña Alchemy"}}},{"type":"Feature","id":"way/489993631","geometry":{"type":"Point","coordinates":[-71.3941761,-34.4161071]},"properties":{"osm_type":"way","osm_id":489993631,"category":"vineyard","name":"Clos de Luz Vineyard","tags":{"landuse":"vineyard","name":"Clos de Luz Vineyard"}}},{"type":"Feature","id":"way/489993633","geometry":{"type":"Point","coordinates":[-71.3974178,-34.4092237]},"properties":{"osm_type":"way","osm_id":489993633,"category":"vineyard","name":"Viña Clos de Luz","tags":{"landuse":"vineyard","name":"Viña Clos de Luz"}}},{"type":"Feature","id":"way/490001181","geometry":{"type":"Point","coordinates":[-71.3505618,-34.4036545]},"properties":{"osm_type":"way","osm_id":490001181,"category":"winery","tags":{"building":"yes","craft":"winery"}}},{"type":"Feature","id":"way/490001182","geometry":{"type":"Point","coordinates":[-71.3034162,-34.4135162]},"properties":{"osm_type":"way","osm_id":490001182,"category":"winery","tags":{"building":"yes","craft":"winery"}}},{"type":"Feature","id":"way/491479036","geometry":{"type":"Point","coordinates":[-71.3632696,-34.3407729]},"properties":{"osm_type":"way","osm_id":491479036,"category":"vineyard","name":"Viña Santa Carolina","tags":{"landuse":"vineyard","name":"Viña Santa Carolina"}}},{"type":"Feature","id":"way/491479043","geometry":{"type":"Point","coordinates":[-71.3725929,-34.3327837]},"properties":{"osm_type":"way","osm_id":491479043,"category":"vineyard","name":"Concha & Toro","tags":{"landuse":"vineyard","name":"Concha & Toro"}}},{"type":"Feature","id":"way/491479044","geometry":{"type":"Point","coordinates":[-71.3684568,-34.3279229]},"properties":{"osm_type":"way","osm_id":491479044,"category":"vineyard","name":"Concha & Toro","tags":{"landuse":"vineyard","name":"Concha & Toro"}}},{"type":"Feature","id":"way/495764554","geometry":{"type":"Point","coordinates":[-71.406901,-34.1136155]},"properties":{"osm_type":"way","osm_id":495764554,"category":"vineyard","name":"Viña Borde Lago","tags":{"landuse":"vineyard","name":"Viña Borde Lago"}}},{"type":"Feature","id":"way/531272676","geometry":{"type":"Point","coordinates":[-71.3203447,-33.1509425]},"properties":{"osm_type":"way","osm_id":531272676,"category":"vineyard","name":"Viña Los Perales","tags":{"landuse":"vineyard","name":"Viña Los Perales"}}},{"type":"Feature","id":"way/544691059","geometry":{"type":"Point","coordinates":[-71.9809494,-35.2465847]},"properties":{"osm_type":"way","osm_id":544691059,"category":"winery","tags":{"addr:city":"Gualleco","addr:housenumber":"12","addr:street":"Pedro Antonio González","building":"yes","craft":"winery"}}},{"type":"Feature","id":"way/643395204","geometry":{"type":"Point","coordinates":[-70.6780254,-33.7816289]},"properties":{"osm_type":"way","osm_id":643395204,"category":"winery","name":"Bodega de Vinos Viña Cousiño","tags":{"building":"yes","craft":"winery","name":"Bodega de Vinos Viña Cousiño"}}},{"type":"Feature","id":"way/675340775","geometry":{"type":"Point","coordinates":[-70.6944935,-34.1440782]},"properties":{"osm_type":"way","osm_id":675340775,"category":"wine_shop","name":"Butron Budinich","tags":{"building":"yes","name":"Butron Budinich","shop":"wine"}}},{"type":"Feature","id":"way/679776011","geometry":{"type":"Point","coordinates":[-70.8340842,-30.7668501]},"properties":{"osm_type":"way","osm_id":679776011,"category":"vineyard","name":"Fundo Galleguillos","tags":{"grape_variety":"Pedro_Jimenez;moscato","landuse":"vineyard","name":"Fundo Galleguillos","operator":"Ramon Galleguillos"}}},{"type":"Feature","id":"way/686924202","geometry":{"type":"Point","coordinates":[-71.19962,-34.6505241]},"properties":{"osm_type":"way","osm_id":686924202,"category":"winery","name":"Bodega pueblo antiguo","tags":{"industrial":"winery","landuse":"industrial","name":"Bodega pueblo antiguo"}}},{"type":"Feature","id":"way/693422035","geometry":{"type":"Point","coordinates":[-71.2070623,-34.6516262]},"properties":{"osm_type":"way","osm_id":693422035,"category":"winery","name":"Los Aromos de Nancagua","tags":{"addr:street":"Juana Ross","industrial":"winery","landuse":"industrial","name":"Los Aromos de Nancagua"}}},{"type":"Feature","id":"way/701403791","geometry":{"type":"Point","coordinates":[-70.7836431,-33.739513]},"properties":{"osm_type":"way","osm_id":701403791,"category":"winery","name":"Viña BPHR","tags":{"building":"industrial","craft":"winery","name":"Viña BPHR","operator":"Barón Philippe de Rothschild Maipo Chile SpA.","website":"https://www.bpdr.com/en/branded-wines/chile"}}},{"type":"Feature","id":"way/724146896","geometry":{"type":"Point","coordinates":[-72.3163774,-35.9806423]},"properties":{"osm_type":"way","osm_id":724146896,"category":"winery","name":"Viñedos Gurfinkel","tags":{"addr:city":"Cauquenes","addr:housenumber":"578","addr:street":"Ruperto Pinochet","industrial":"winery","landuse":"industrial","name":"Viñedos Gurfinkel"}}},{"type":"Feature","id":"way/753292079","geometry":{"type":"Point","coordinates":[-72.1564385,-35.6727024]},"properties":{"osm_type":"way","osm_id":753292079,"category":"vineyard","name":"Truquilemu Vineyard","tags":{"email":"derek@garagewineco.cl","landuse":"vineyard","name":"Truquilemu Vineyard","operator":"Garage Wine Co / Vitivinicola Two Winters SpA"}}},{"type":"Feature","id":"way/753292783","geometry":{"type":"Point","coordinates":[-72.1555306,-35.6737003]},"properties":{"osm_type":"way","osm_id":753292783,"category":"vineyard","name":"Truquilemu Vineyard","tags":{"landuse":"vineyard","name":"Truquilemu Vineyard","operator":"Garage WineCo / Vitivinicola Two Winters SpA"}}},{"type":"Feature","id":"way/822785788","geometry":{"type":"Point","coordinates":[-71.7392485,-34.8486012]},"properties":{"osm_type":"way","osm_id":822785788,"category":"winery","name":"Bodega Traunko","tags":{"building":"yes","craft":"winery","name":"Bodega Traunko"}}},{"type":"Feature","id":"way/822785823","geometry":{"type":"Point","coordinates":[-71.6850619,-34.8010206]},"properties":{"osm_type":"way","osm_id":822785823,"category":"winery","name":"Bodega de Vinos Las Mercedes de Lolol","tags":{"industrial":"winery","landuse":"industrial","name":"Bodega de Vinos Las Mercedes de Lolol"}}},{"type":"Feature","id":"way/930823571","geometry":{"type":"Point","coordinates":[-72.2913631,-35.5675377]},"properties":{"osm_type":"way","osm_id":930823571,"category":"vineyard","name":"Fundo Empedrado","tags":{"landuse":"vineyard","name":"Fundo Empedrado","operator":"MIguel Torres Chile"}}},{"type":"Feature","id":"way/931828432","geometry":{"type":"Point","coordinates":[-73.3388094,-40.819681]},"properties":{"osm_type":"way","osm_id":931828432,"category":"wine_shop","tags":{"addr:city":"Riachuelo","addr:street":"Pedro de Valdivia","shop":"wine"}}},{"type":"Feature","id":"way/932194351","geometry":{"type":"Point","coordinates":[-71.3557457,-30.7141438]},"properties":{"osm_type":"way","osm_id":932194351,"category":"winery","tags":{"building":"yes","craft":"winery"}}},{"type":"Feature","id":"way/932211242","geometry":{"type":"Point","coordinates":[-71.1248964,-34.6083965]},"properties":{"osm_type":"way","osm_id":932211242,"category":"winery","tags":{"building":"yes","craft":"winery"}}},{"type":"Feature","id":"way/932211243","geometry":{"type":"Point","coordinates":[-71.1283164,-34.6092926]},"properties":{"osm_type":"way","osm_id":932211243,"category":"winery","tags":{"building":"yes","craft":"winery"}}},{"type":"Feature","id":"way/932217854","geometry":{"type":"Point","coordinates":[-70.6581006,-33.6566639]},"properties":{"osm_type":"way","osm_id":932217854,"category":"winery","tags":{"building":"yes","craft":"winery"}}},{"type":"Feature","id":"way/932220051","geometry":{"type":"Point","coordinates":[-72.2094029,-37.6489345]},"properties":{"osm_type":"way","osm_id":932220051,"category":"vineyard","name":"Fundo Mulchén","tags":{"landuse":"vineyard","name":"Fundo Mulchén","operator":"Viña Emiliana"}}},{"type":"Feature","id":"way/932695457","geometry":{"type":"Point","coordinates":[-70.7725568,-33.7068314]},"properties":{"osm_type":"way","osm_id":932695457,"category":"winery","name":"Morandé","tags":{"building":"yes","craft":"winery","name":"Morandé"}}},{"type":"Feature","id":"way/933419924","geometry":{"type":"Point","coordinates":[-70.5600905,-32.8204482]},"properties":{"osm_type":"way","osm_id":933419924,"category":"vineyard","name":"Fundo la Florida","tags":{"landuse":"vineyard","name":"Fundo la Florida","operator":"Viña San Esteban"}}},{"type":"Feature","id":"way/933419925","geometry":{"type":"Point","coordinates":[-70.5637985,-32.815478]},"properties":{"osm_type":"way","osm_id":933419925,"category":"winery","tags":{"building":"yes","craft":"winery"}}},{"type":"Feature","id":"way/933419926","geometry":{"type":"Point","coordinates":[-70.5630585,-32.8155514]},"properties":{"osm_type":"way","osm_id":933419926,"category":"winery","tags":{"building":"yes","craft":"winery"}}},{"type":"Feature","id":"way/933419929","geometry":{"type":"Point","coordinates":[-70.5636135,-32.8155686]},"properties":{"osm_type":"way","osm_id":933419929,"category":"winery","tags":{"building":"yes","craft":"winery"}}},{"type":"Feature","id":"way/933419930","geometry":{"type":"Point","coordinates":[-70.5634601,-32.815103]},"properties":{"osm_type":"way","osm_id":933419930,"category":"winery","tags":{"building":"yes","craft":"winery"}}},{"type":"Feature","id":"way/934764407","geometry":{"type":"Point","coordinates":[-71.5016214,-33.6721807]},"properties":{"osm_type":"way","osm_id":934764407,"category":"vineyard","name":"El Maitén","tags":{"landuse":"vineyard","name":"El Maitén","operator":"Leyda Wines"}}},{"type":"Feature","id":"way/934764408","geometry":{"type":"Point","coordinates":[-71.5097995,-33.6686701]},"properties":{"osm_type":"way","osm_id":934764408,"category":"winery","tags":{"building":"yes","craft":"winery"}}},{"type":"Feature","id":"way/934764409","geometry":{"type":"Point","coordinates":[-71.5094481,-33.6685319]},"properties":{"osm_type":"way","osm_id":934764409,"category":"winery","tags":{"building":"yes","craft":"winery"}}},{"type":"Feature","id":"way/934764416","geometry":{"type":"Point","coordinates":[-71.4940422,-33.6876164]},"properties":{"osm_type":"way","osm_id":934764416,"category":"winery","tags":{"building":"yes","craft":"winery"}}},{"type":"Feature","id":"way/935623910","geometry":{"type":"Point","coordinates":[-71.393927,-34.2979701]},"properties":{"osm_type":"way","osm_id":935623910,"category":"winery","tags":{"building":"yes","craft":"winery"}}},{"type":"Feature","id":"way/947554920","geometry":{"type":"Point","coordinates":[-71.5330009,-34.4844602]},"properties":{"osm_type":"way","osm_id":947554920,"category":"winery","name":"Viña Los Vascos","tags":{"building":"yes","craft":"winery","name":"Viña Los Vascos"}}},{"type":"Feature","id":"way/955783618","geometry":{"type":"Point","coordinates":[-71.2954469,-34.5173157]},"properties":{"osm_type":"way","osm_id":955783618,"category":"winery","name":"Bodegas Viña Caliterra","tags":{"building":"yes","craft":"winery","name":"Bodegas Viña Caliterra"}}},{"type":"Feature","id":"way/995760982","geometry":{"type":"Point","coordinates":[-71.2028874,-34.6746011]},"properties":{"osm_type":"way","osm_id":995760982,"category":"winery","name":"Viña Santa Emiliana","tags":{"industrial":"winery","landuse":"industrial","name":"Viña Santa Emiliana"}}},{"type":"Feature","id":"way/1019703307","geometry":{"type":"Point","coordinates":[-71.7748678,-36.0707251]},"properties":{"osm_type":"way","osm_id":1019703307,"category":"vineyard","name":"Vides Tintoreras","tags":{"landuse":"vineyard","name":"Vides Tintoreras","operator":"CAF El Alamo Ltda.","website":"https://www.cafelalamo.cl/"}}},{"type":"Feature","id":"way/1030722419","geometry":{"type":"Point","coordinates":[-70.8296228,-34.3121572]},"properties":{"osm_type":"way","osm_id":1030722419,"category":"winery","name":"Viña Punti Ferrer","tags":{"craft":"winery","landuse":"industrial","name":"Viña Punti Ferrer"}}},{"type":"Feature","id":"way/1031210753","geometry":{"type":"Point","coordinates":[-70.790745,-34.2352837]},"properties":{"osm_type":"way","osm_id":1031210753,"category":"winery","name":"Viña Patricio Butron","tags":{"addr:housenumber":"KM 94","addr:street":"Ex Ruta 5 Sur","craft":"winery","landuse":"industrial","name":"Viña Patricio Butron","website":"https://www.pbutronwinery.cl/"}}},{"type":"Feature","id":"way/1051555316","geometry":{"type":"Point","coordinates":[-71.3471943,-33.3477865]},"properties":{"osm_type":"way","osm_id":1051555316,"category":"wine_shop","name":"Río Tinto","tags":{"man_made":"winery","name":"Río Tinto","shop":"wine","tourism":"attraction"}}},{"type":"Feature","id":"way/1055859401","geometry":{"type":"Point","coordinates":[-70.8085109,-34.2713838]},"properties":{"osm_type":"way","osm_id":1055859401,"category":"winery","tags":{"building":"yes","craft":"winery"}}},{"type":"Feature","id":"way/1055859403","geometry":{"type":"Point","coordinates":[-70.809126,-34.2715196]},"properties":{"osm_type":"way","osm_id":1055859403,"category":"winery","tags":{"building":"yes","craft":"winery"}}},{"type":"Feature","id":"way/1056331196","geometry":{"type":"Point","coordinates":[-70.8085061,-34.2712586]},"properties":{"osm_type":"way","osm_id":1056331196,"category":"wine_shop","tags":{"landuse":"farmyard","shop":"wine"}}},{"type":"Feature","id":"way/1063688162","geometry":{"type":"Point","coordinates":[-70.8041618,-34.2664575]},"properties":{"osm_type":"way","osm_id":1063688162,"category":"winery","tags":{"building":"yes","craft":"winery"}}},{"type":"Feature","id":"way/1063688163","geometry":{"type":"Point","coordinates":[-70.8043904,-34.2666913]},"properties":{"osm_type":"way","osm_id":1063688163,"category":"winery","tags":{"building":"yes","craft":"winery"}}},{"type":"Feature","id":"way/1063688164","geometry":{"type":"Point","coordinates":[-70.804692,-34.2670752]},"properties":{"osm_type":"way","osm_id":1063688164,"category":"winery","tags":{"building":"yes","craft":"winery"}}},{"type":"Feature","id":"way/1063688165","geometry":{"type":"Point","coordinates":[-70.8042543,-34.2673136]},"properties":{"osm_type":"way","osm_id":1063688165,"category":"winery","tags":{"building":"yes","craft":"winery"}}},{"type":"Feature","id":"way/1115682474","geometry":{"type":"Point","coordinates":[-70.7754214,-34.3114002]},"properties":{"osm_type":"way","osm_id":1115682474,"category":"vineyard","name":"Viña MiLuna","tags":{"amenity":"restaurant","cuisine":"pizza","email":"rodrigom321@gmail.com","landuse":"vineyard","name":"Viña MiLuna","phone":"+56 9 9280 1022","website":"https://www.miluna.cl/"}}},{"type":"Feature","id":"way/1144902594","geometry":{"type":"Point","coordinates":[-71.7987523,-35.7339506]},"properties":{"osm_type":"way","osm_id":1144902594,"category":"winery","name":"Viña Hacienda Zúñiga","tags":{"craft":"winery","landuse":"farmyard","name":"Viña Hacienda Zúñiga"}}},{"type":"Feature","id":"way/1152572656","geometry":{"type":"Point","coordinates":[-71.2510678,-35.0665923]},"properties":{"osm_type":"way","osm_id":1152572656,"category":"winery","name":"Viña Pirazzoli","tags":{"industrial":"winery","landuse":"industrial","name":"Viña Pirazzoli"}}},{"type":"Feature","id":"way/1203840139","geometry":{"type":"Point","coordinates":[-71.344757,-35.0297208]},"properties":{"osm_type":"way","osm_id":1203840139,"category":"winery","name":"Viña Requingua","tags":{"craft":"winery","name":"Viña Requingua","opening_hours":"24/7","operator":"Survalles","website":"https://requingua.com/"}}},{"type":"Feature","id":"way/1236604412","geometry":{"type":"Point","coordinates":[-71.0912303,-29.9764632]},"properties":{"osm_type":"way","osm_id":1236604412,"category":"winery","name":"Vitivinicola Rio Elqui","tags":{"industrial":"winery","landuse":"industrial","name":"Vitivinicola Rio Elqui"}}},{"type":"Feature","id":"way/1238823879","geometry":{"type":"Point","coordinates":[-71.4123874,-30.5744628]},"properties":{"osm_type":"way","osm_id":1238823879,"category":"winery","name":"Bodega Casa Tamaya","tags":{"building":"yes","craft":"winery","name":"Bodega Casa Tamaya","operator":"Viña Casa Tamaya S.A.","website":"https://www.tamaya.cl/"}}},{"type":"Feature","id":"way/1240196261","geometry":{"type":"Point","coordinates":[-71.2365167,-30.6891999]},"properties":{"osm_type":"way","osm_id":1240196261,"category":"winery","name":"Bodega Nueva Aurora - Viña Concha y Toro","tags":{"industrial":"winery","landuse":"industrial","name":"Bodega Nueva Aurora - Viña Concha y Toro"}}},{"type":"Feature","id":"way/1240196265","geometry":{"type":"Point","coordinates":[-71.238013,-30.6946452]},"properties":{"osm_type":"way","osm_id":1240196265,"category":"winery","name":"Bodega Limarí Sector 1 - Viña Concha y Toro","tags":{"industrial":"winery","landuse":"industrial","name":"Bodega Limarí Sector 1 - Viña Concha y Toro"}}},{"type":"Feature","id":"way/1240546183","geometry":{"type":"Point","coordinates":[-71.2438627,-30.6938851]},"properties":{"osm_type":"way","osm_id":1240546183,"category":"winery","name":"Bodega Limarí Sector 2 - Viña Concha y Toro","tags":{"industrial":"winery","landuse":"industrial","name":"Bodega Limarí Sector 2 - Viña Concha y Toro"}}},{"type":"Feature","id":"way/1240668634","geometry":{"type":"Point","coordinates":[-70.8780223,-33.5397928]},"properties":{"osm_type":"way","osm_id":1240668634,"category":"winery","name":"Viña Odfjell","tags":{"addr:city":"Padre Hurtado","addr:housenumber":"7000","addr:street":"Camino a Valparaíso","building":"yes","craft":"winery","name":"Viña Odfjell","website":"https://odfjellvineyards.cl/"}}},{"type":"Feature","id":"way/1253577433","geometry":{"type":"Point","coordinates":[-70.8272263,-32.8004146]},"properties":{"osm_type":"way","osm_id":1253577433,"category":"winery","name":"Bodega Panquehue - Viña Errázuriz","tags":{"industrial":"winery","landuse":"industrial","name":"Bodega Panquehue - Viña Errázuriz","operator":"Viña Errazuriz S.A."}}},{"type":"Feature","id":"way/1262900271","geometry":{"type":"Point","coordinates":[-70.5634016,-32.8156931]},"properties":{"osm_type":"way","osm_id":1262900271,"category":"winery","name":"Viña San Esteban S.A","tags":{"industrial":"winery","landuse":"industrial","name":"Viña San Esteban S.A"}}},{"type":"Feature","id":"way/1266267793","geometry":{"type":"Point","coordinates":[-71.2131248,-33.2635208]},"properties":{"osm_type":"way","osm_id":1266267793,"category":"wine_shop","name":"Viña López Pangue","tags":{"addr:city":"Curacaví","building":"yes","name":"Viña López Pangue","shop":"wine"}}},{"type":"Feature","id":"way/1266267794","geometry":{"type":"Point","coordinates":[-71.2125785,-33.2641838]},"properties":{"osm_type":"way","osm_id":1266267794,"category":"winery","name":"Viña Lopez Pangue","tags":{"addr:city":"Curacaví","building":"yes","craft":"winery","name":"Viña Lopez Pangue"}}},{"type":"Feature","id":"way/1266918575","geometry":{"type":"Point","coordinates":[-70.7894089,-34.4400957]},"properties":{"osm_type":"way","osm_id":1266918575,"category":"winery","name":"Viña Casas de Río Peumo","tags":{"addr:city":"Rengo","building":"yes","craft":"winery","name":"Viña Casas de Río Peumo","website":"https://casasderiopeumo.cl/"}}},{"type":"Feature","id":"way/1266918589","geometry":{"type":"Point","coordinates":[-70.8371513,-34.4900577]},"properties":{"osm_type":"way","osm_id":1266918589,"category":"vineyard","name":"Viña Valle Secreto","tags":{"landuse":"vineyard","name":"Viña Valle Secreto"}}},{"type":"Feature","id":"way/1266918590","geometry":{"type":"Point","coordinates":[-70.8368076,-34.4846079]},"properties":{"osm_type":"way","osm_id":1266918590,"category":"vineyard","name":"Viña Valle Secreto","tags":{"landuse":"vineyard","name":"Viña Valle Secreto"}}},{"type":"Feature","id":"way/1266918597","geometry":{"type":"Point","coordinates":[-70.8369461,-34.4859677]},"properties":{"osm_type":"way","osm_id":1266918597,"category":"winery","name":"Valle Secreto Vineyard","tags":{"building":"yes","craft":"winery","name":"Valle Secreto Vineyard"}}},{"type":"Feature","id":"way/1275138843","geometry":{"type":"Point","coordinates":[-71.0094103,-34.4615476]},"properties":{"osm_type":"way","osm_id":1275138843,"category":"vineyard","name":"Viña Casa Acosta","tags":{"landuse":"vineyard","name":"Viña Casa Acosta"}}},{"type":"Feature","id":"way/1283264791","geometry":{"type":"Point","coordinates":[-71.2732093,-33.2779396]},"properties":{"osm_type":"way","osm_id":1283264791,"category":"winery","name":"Bodega de Vinos Agrícola Las Colinas de Tapihue","tags":{"industrial":"winery","landuse":"industrial","name":"Bodega de Vinos Agrícola Las Colinas de Tapihue","operator":"Villard Fine Wines S.A."}}},{"type":"Feature","id":"way/1286256450","geometry":{"type":"Point","coordinates":[-70.9277202,-33.7709767]},"properties":{"osm_type":"way","osm_id":1286256450,"category":"winery","name":"Bodega Isla de Maipo - Viña Tarapacá Ex Zavala","tags":{"industrial":"winery","landuse":"industrial","name":"Bodega Isla de Maipo - Viña Tarapacá Ex Zavala","operator":"Viña San Pedro de Tarapacá S.A.","website":"https://vsptwinegroup.com/portafolio/tarapaca/"}}},{"type":"Feature","id":"way/1286256451","geometry":{"type":"Point","coordinates":[-70.7839932,-33.7433721]},"properties":{"osm_type":"way","osm_id":1286256451,"category":"winery","name":"Planta de Embotellación Wine Packaging & Logistic","tags":{"industrial":"winery","landuse":"industrial","name":"Planta de Embotellación Wine Packaging & Logistic","operator":"Wine Packaging & Logistic S.A.","website":"https://wpl.cl/"}}},{"type":"Feature","id":"way/1289355071","geometry":{"type":"Point","coordinates":[-71.4217412,-33.4835689]},"properties":{"osm_type":"way","osm_id":1289355071,"category":"winery","name":"Bodega de Vinos Matetic","tags":{"building":"yes","craft":"winery","name":"Bodega de Vinos Matetic","operator":"Vino y Turismo Limitada","website":"https://matetic.com/"}}},{"type":"Feature","id":"way/1289665873","geometry":{"type":"Point","coordinates":[-71.6434861,-33.7353328]},"properties":{"osm_type":"way","osm_id":1289665873,"category":"vineyard","name":"Viña Luis Felipe Edwards","tags":{"landuse":"vineyard","name":"Viña Luis Felipe Edwards","operator":"Viña Luis Felipe Edwards Limitada","website":"https://www.lfewines.com/"}}},{"type":"Feature","id":"way/1299896587","geometry":{"type":"Point","coordinates":[-71.2269283,-34.3437086]},"properties":{"osm_type":"way","osm_id":1299896587,"category":"winery","name":"Bodega de Vinos Viña Rosario","tags":{"industrial":"winery","landuse":"industrial","name":"Bodega de Vinos Viña Rosario","operator":"Inversiones Don Sergio"}}},{"type":"Feature","id":"way/1300554885","geometry":{"type":"Point","coordinates":[-70.7713562,-34.3035957]},"properties":{"osm_type":"way","osm_id":1300554885,"category":"winery","name":"Viña Antawara","tags":{"craft":"winery","email":"info@a-wines.com","name":"Viña Antawara","website":"https://antawara-wines.cl/"}}},{"type":"Feature","id":"way/1328053748","geometry":{"type":"Point","coordinates":[-70.8974364,-33.7326314]},"properties":{"osm_type":"way","osm_id":1328053748,"category":"winery","name":"Viña Miraflores del Maipo","tags":{"addr:city":"Isla de Maipo","addr:street":"Fundo Miraflores","building":"yes","craft":"winery","name":"Viña Miraflores del Maipo"}}},{"type":"Feature","id":"way/1349662673","geometry":{"type":"Point","coordinates":[-70.8036213,-30.0276336]},"properties":{"osm_type":"way","osm_id":1349662673,"category":"winery","name":"Bodega de Vinos Viña Falernia","tags":{"industrial":"winery","landuse":"industrial","name":"Bodega de Vinos Viña Falernia","website":"https://falernia.com/"}}},{"type":"Feature","id":"way/1432472091","geometry":{"type":"Point","coordinates":[-71.3085922,-33.3608078]},"properties":{"osm_type":"way","osm_id":1432472091,"category":"vineyard","name":"Viña Emiliana","tags":{"landuse":"vineyard","name":"Viña Emiliana","operator":"Viña Emiliana"}}},{"type":"Feature","id":"way/1436760735","geometry":{"type":"Point","coordinates":[-71.3355194,-34.4065515]},"properties":{"osm_type":"way","osm_id":1436760735,"category":"wine_shop","name":"Viña Clos de Luz","tags":{"addr:city":"Pichidegua","addr:street":"Ruta H-882","building":"yes","name":"Viña Clos de Luz","shop":"wine"}}},{"type":"Feature","id":"way/1458584506","geometry":{"type":"Point","coordinates":[-70.5635172,-33.493264]},"properties":{"osm_type":"way","osm_id":1458584506,"category":"vineyard","name":"Viña Cousiño Macul","wikidata":"Q5790327","wikipedia":"es:Viña Cousiño Macul","tags":{"landuse":"vineyard","name":"Viña Cousiño Macul","wikidata":"Q5790327","wikipedia":"es:Viña Cousiño Macul"}}},{"type":"Feature","id":"way/1511792974","geometry":{"type":"Point","coordinates":[-71.32566,-34.6330999]},"properties":{"osm_type":"way","osm_id":1511792974,"category":"wine_shop","name":"Enoteca Colchagua","tags":{"building":"yes","name":"Enoteca Colchagua","shop":"wine"}}},{"type":"Feature","id":"way/1511792980","geometry":{"type":"Point","coordinates":[-71.3695961,-34.6167509]},"properties":{"osm_type":"way","osm_id":1511792980,"category":"vineyard","name":"Viña Cava Colchagua","tags":{"landuse":"vineyard","name":"Viña Cava Colchagua"}}},{"type":"Feature","id":"way/1514024685","geometry":{"type":"Point","coordinates":[-71.5569532,-34.708226]},"properties":{"osm_type":"way","osm_id":1514024685,"category":"vineyard","name":"Viña Santa Cruz","tags":{"landuse":"vineyard","name":"Viña Santa Cruz"}}},{"type":"Feature","id":"relation/8462840","geometry":{"type":"Point","coordinates":[-70.5825478,-33.637222]},"properties":{"osm_type":"relation","osm_id":8462840,"category":"vineyard","name":"Concha y Toro","tags":{"landuse":"vineyard","name":"Concha y Toro"}}},{"type":"Feature","id":"relation/12576730","geometry":{"type":"Point","coordinates":[-71.1242883,-32.8658348]},"properties":{"osm_type":"relation","osm_id":12576730,"category":"vineyard","name":"Viña Seña","tags":{"landuse":"vineyard","name":"Viña Seña"}}},{"type":"Feature","id":"relation/12603957","geometry":{"type":"Point","coordinates":[-70.7740608,-33.7058549]},"properties":{"osm_type":"relation","osm_id":12603957,"category":"vineyard","name":"Campo Romeral","tags":{"landuse":"vineyard","name":"Campo Romeral","operator":"Viña Morandé"}}},{"type":"Feature","id":"relation/12606825","geometry":{"type":"Point","coordinates":[-70.6142089,-33.6079445]},"properties":{"osm_type":"relation","osm_id":12606825,"category":"vineyard","name":"Viña Don Melchor","tags":{"landuse":"vineyard","name":"Viña Don Melchor","operator":"Concha y Toro"}}},{"type":"Feature","id":"relation/12608029","geometry":{"type":"Point","coordinates":[-71.3571814,-32.8971371]},"properties":{"osm_type":"relation","osm_id":12608029,"category":"vineyard","name":"Viñedo Chilhué","tags":{"landuse":"vineyard","name":"Viñedo Chilhué","operator":"Arboleda Wines"}}},{"type":"Feature","id":"relation/12608045","geometry":{"type":"Point","coordinates":[-71.071885,-32.7955759]},"properties":{"osm_type":"relation","osm_id":12608045,"category":"vineyard","name":"Viñedo Las Vertientes","tags":{"landuse":"vineyard","name":"Viñedo Las Vertientes","operator":"Arboleda Wines"}}},{"type":"Feature","id":"relation/12612250","geometry":{"type":"Point","coordinates":[-70.5807728,-32.8277117]},"properties":{"osm_type":"relation","osm_id":12612250,"category":"vineyard","name":"Fundo Padaihuén","tags":{"landuse":"vineyard","name":"Fundo Padaihuén","operator":"Viña San Esteban"}}},{"type":"Feature","id":"relation/12612251","geometry":{"type":"Point","coordinates":[-70.5629808,-32.8156882]},"properties":{"osm_type":"relation","osm_id":12612251,"category":"winery","name":"Viña San Esteban","tags":{"building":"yes","craft":"winery","name":"Viña San Esteban"}}},{"type":"Feature","id":"relation/17044624","geometry":{"type":"Point","coordinates":[-70.8773287,-33.539914]},"properties":{"osm_type":"relation","osm_id":17044624,"category":"wine_shop","name":"Odfjell Vineyards","tags":{"addr:city":"Padre Hurtado","addr:street":"Camino a Valparaíso","building":"yes","name":"Odfjell Vineyards","shop":"wine","website":"https://odfjellvineyards.cl/"}}},{"type":"Feature","id":"relation/17989218","geometry":{"type":"Point","coordinates":[-71.6896846,-33.9888971]},"properties":{"osm_type":"relation","osm_id":17989218,"category":"vineyard","name":"Fundo Ucúquer","tags":{"landuse":"vineyard","name":"Fundo Ucúquer","operator":"Viña Concha y Toro"}}}]}