{"type":"FeatureCollection","features":[{"type":"Feature","id":"node/2972501083","geometry":{"type":"Point","coordinates":[116.8641515,31.8026764]},"properties":{"osm_type":"node","osm_id":2972501083,"category":"wine_shop","tags":{"shop":"wine"}}},{"type":"Feature","id":"node/2972501265","geometry":{"type":"Point","coordinates":[116.8651351,31.8030198]},"properties":{"osm_type":"node","osm_id":2972501265,"category":"wine_shop","name":"官亭大酒店","tags":{"name":"官亭大酒店","shop":"wine"}}},{"type":"Feature","id":"node/2999208413","geometry":{"type":"Point","coordinates":[121.3723423,31.233555]},"properties":{"osm_type":"node","osm_id":2999208413,"category":"wine_shop","name":"圣诺亚酒店","tags":{"name":"圣诺亚酒店","shop":"wine"}}},{"type":"Feature","id":"node/3024775081","geometry":{"type":"Point","coordinates":[119.646211,29.1027221]},"properties":{"osm_type":"node","osm_id":3024775081,"category":"wine_shop","name":"嘉恒澜庭大酒店","tags":{"name":"嘉恒澜庭大酒店","shop":"wine"}}},{"type":"Feature","id":"node/3127296569","geometry":{"type":"Point","coordinates":[119.5342056,26.6437981]},"properties":{"osm_type":"node","osm_id":3127296569,"category":"wine_shop","name":"寧德市國稅局","tags":{"name":"寧德市國稅局","phone":"+86 593 299 1007","shop":"wine"}}},{"type":"Feature","id":"node/3127298379","geometry":{"type":"Point","coordinates":[119.5208,26.667509]},"properties":{"osm_type":"node","osm_id":3127298379,"category":"wine_shop","name":"金海岸大酒店","tags":{"name":"金海岸大酒店","phone":"+86 593 288 2118","shop":"wine"}}},{"type":"Feature","id":"node/3162374407","geometry":{"type":"Point","coordinates":[116.6995333,23.9118707]},"properties":{"osm_type":"node","osm_id":3162374407,"category":"wine_shop","name":"凤凰华景商厦","tags":{"name":"凤凰华景商厦","shop":"wine"}}},{"type":"Feature","id":"node/3268678793","geometry":{"type":"Point","coordinates":[117.2715434,34.7994139]},"properties":{"osm_type":"node","osm_id":3268678793,"category":"wine_shop","name":"大唐之星快捷酒店","tags":{"name":"大唐之星快捷酒店","shop":"wine"}}},{"type":"Feature","id":"node/3268721959","geometry":{"type":"Point","coordinates":[117.2711507,34.7965547]},"properties":{"osm_type":"node","osm_id":3268721959,"category":"wine_shop","name":"格林豪泰快捷酒店","tags":{"name":"格林豪泰快捷酒店","shop":"wine"}}},{"type":"Feature","id":"node/3291831334","geometry":{"type":"Point","coordinates":[117.3233474,34.8049302]},"properties":{"osm_type":"node","osm_id":3291831334,"category":"wine_shop","name":"枣庄购物中心新城大酒店","tags":{"name":"枣庄购物中心新城大酒店","shop":"wine"}}},{"type":"Feature","id":"node/3316149369","geometry":{"type":"Point","coordinates":[121.2493476,28.6493516]},"properties":{"osm_type":"node","osm_id":3316149369,"category":"wine_shop","name":"金王子国际大酒店","tags":{"name":"金王子国际大酒店","shop":"wine"}}},{"type":"Feature","id":"node/3334258639","geometry":{"type":"Point","coordinates":[121.2589444,28.6497576]},"properties":{"osm_type":"node","osm_id":3334258639,"category":"wine_shop","name":"白玉兰酒店","tags":{"name":"白玉兰酒店","shop":"wine"}}},{"type":"Feature","id":"node/3336248140","geometry":{"type":"Point","coordinates":[114.1731901,22.2984067]},"properties":{"osm_type":"node","osm_id":3336248140,"category":"wine_shop","name":"Voi_la!","tags":{"name":"Voi_la!","operator":"華潤萬家 Vanguard","shop":"wine"}}},{"type":"Feature","id":"node/3345220769","geometry":{"type":"Point","coordinates":[113.4058928,24.1838553]},"properties":{"osm_type":"node","osm_id":3345220769,"category":"wine_shop","name":"东方大酒店","tags":{"name":"东方大酒店","shop":"wine"}}},{"type":"Feature","id":"node/3394718751","geometry":{"type":"Point","coordinates":[98.4929634,25.0005447]},"properties":{"osm_type":"node","osm_id":3394718751,"category":"wine_shop","name":"民航大夏","tags":{"name":"民航大夏","shop":"wine"}}},{"type":"Feature","id":"node/3415421651","geometry":{"type":"Point","coordinates":[110.396959,21.1954778]},"properties":{"osm_type":"node","osm_id":3415421651,"category":"wine_shop","name":"新格里拉","tags":{"name":"新格里拉","shop":"wine"}}},{"type":"Feature","id":"node/3424361233","geometry":{"type":"Point","coordinates":[116.9670459,23.6752147]},"properties":{"osm_type":"node","osm_id":3424361233,"category":"wine_shop","name":"东海酒家","tags":{"name":"东海酒家","shop":"wine"}}},{"type":"Feature","id":"node/3431153207","geometry":{"type":"Point","coordinates":[117.1932892,34.2655111]},"properties":{"osm_type":"node","osm_id":3431153207,"category":"wine_shop","name":"城市名人酒店","tags":{"name":"城市名人酒店","shop":"wine"}}},{"type":"Feature","id":"node/3463137057","geometry":{"type":"Point","coordinates":[106.9164436,27.7090556]},"properties":{"osm_type":"node","osm_id":3463137057,"category":"wine_shop","name":"贵州茅台镇国传酒","tags":{"addr:city":"遵义市","addr:housenumber":"617","addr:street":"上海路","name":"贵州茅台镇国传酒","shop":"wine"}}},{"type":"Feature","id":"node/3530515332","geometry":{"type":"Point","coordinates":[116.444522,39.9300602]},"properties":{"osm_type":"node","osm_id":3530515332,"category":"wine_shop","tags":{"shop":"wine"}}},{"type":"Feature","id":"node/3533293888","geometry":{"type":"Point","coordinates":[116.4384411,39.934345]},"properties":{"osm_type":"node","osm_id":3533293888,"category":"wine_shop","name":"Cru","tags":{"name":"Cru","shop":"wine"}}},{"type":"Feature","id":"node/3540396698","geometry":{"type":"Point","coordinates":[104.7628864,29.3507321]},"properties":{"osm_type":"node","osm_id":3540396698,"category":"wine_shop","name":"雄飞假日酒店","tags":{"name":"雄飞假日酒店","shop":"wine"}}},{"type":"Feature","id":"node/3570885273","geometry":{"type":"Point","coordinates":[106.7661634,27.4185019]},"properties":{"osm_type":"node","osm_id":3570885273,"category":"wine_shop","name":"黔北酒坊","tags":{"name":"黔北酒坊","shop":"wine"}}},{"type":"Feature","id":"node/3591757574","geometry":{"type":"Point","coordinates":[106.8215829,27.5286588]},"properties":{"osm_type":"node","osm_id":3591757574,"category":"wine_shop","name":"华慧酒楼","tags":{"addr:city":"遵义市","addr:housenumber":"271","addr:street":"西大街南段","name":"华慧酒楼","shop":"wine"}}},{"type":"Feature","id":"node/3591800969","geometry":{"type":"Point","coordinates":[106.8242077,27.5280562]},"properties":{"osm_type":"node","osm_id":3591800969,"category":"wine_shop","name":"习将军","tags":{"name":"习将军","shop":"wine"}}},{"type":"Feature","id":"node/3591820239","geometry":{"type":"Point","coordinates":[106.8235871,27.5267157]},"properties":{"osm_type":"node","osm_id":3591820239,"category":"wine_shop","name":"洞藏青酒","tags":{"name":"洞藏青酒","shop":"wine"}}},{"type":"Feature","id":"node/3606284504","geometry":{"type":"Point","coordinates":[106.8248777,27.5316851]},"properties":{"osm_type":"node","osm_id":3606284504,"category":"wine_shop","name":"茅台镇北街酒馆","tags":{"name":"茅台镇北街酒馆","operator":"北街酒厂集团","shop":"wine"}}},{"type":"Feature","id":"node/3624776292","geometry":{"type":"Point","coordinates":[106.8232301,27.5354152]},"properties":{"osm_type":"node","osm_id":3624776292,"category":"wine_shop","name":"名烟名酒","tags":{"name":"名烟名酒","shop":"wine"}}},{"type":"Feature","id":"node/3657412050","geometry":{"type":"Point","coordinates":[120.9875683,31.3864211]},"properties":{"osm_type":"node","osm_id":3657412050,"category":"wine_shop","name":"Aussina Wine Shop","tags":{"name":"Aussina Wine Shop","shop":"wine"}}},{"type":"Feature","id":"node/3667111855","geometry":{"type":"Point","coordinates":[110.005789,25.7996931]},"properties":{"osm_type":"node","osm_id":3667111855,"category":"wine_shop","name":"龙腾大酒店","tags":{"name":"龙腾大酒店","shop":"wine"}}},{"type":"Feature","id":"node/3676346767","geometry":{"type":"Point","coordinates":[110.0099329,25.8052799]},"properties":{"osm_type":"node","osm_id":3676346767,"category":"wine_shop","name":"龙脊国际大酒店","tags":{"name":"龙脊国际大酒店","shop":"wine"}}},{"type":"Feature","id":"node/3678359025","geometry":{"type":"Point","coordinates":[114.156024,22.2820658]},"properties":{"osm_type":"node","osm_id":3678359025,"category":"wine_shop","name":"Ginsberg+Chan Wine Merchants Asia","tags":{"addr:city":"Hong Kong","addr:housenumber":"50-52","addr:street":"皇后大道中 Queen's Road Central","name":"Ginsberg+Chan Wine Merchants Asia","shop":"wine"}}},{"type":"Feature","id":"node/3719629435","geometry":{"type":"Point","coordinates":[113.829136,30.6449106]},"properties":{"osm_type":"node","osm_id":3719629435,"category":"wine_shop","name":"白云大酒店","tags":{"addr:city":"湖北省汉川市","addr:street":"欢乐街","name":"白云大酒店","shop":"wine"}}},{"type":"Feature","id":"node/3798083759","geometry":{"type":"Point","coordinates":[117.0757498,36.1810168]},"properties":{"osm_type":"node","osm_id":3798083759,"category":"wine_shop","name":"荣昌大酒店","tags":{"name":"荣昌大酒店","shop":"wine"}}},{"type":"Feature","id":"node/3806262678","geometry":{"type":"Point","coordinates":[116.3995109,39.9018454]},"properties":{"osm_type":"node","osm_id":3806262678,"category":"wine_shop","name":"7天","tags":{"name":"7天","shop":"wine"}}},{"type":"Feature","id":"node/3840186091","geometry":{"type":"Point","coordinates":[117.1268952,36.2048875]},"properties":{"osm_type":"node","osm_id":3840186091,"category":"wine_shop","name":"军马酒行","tags":{"name":"军马酒行","shop":"wine"}}},{"type":"Feature","id":"node/3894493160","geometry":{"type":"Point","coordinates":[113.4234416,22.5366975]},"properties":{"osm_type":"node","osm_id":3894493160,"category":"wine_shop","name":"拾乐水疗酒店","tags":{"name":"拾乐水疗酒店","shop":"wine"}}},{"type":"Feature","id":"node/3897583332","geometry":{"type":"Point","coordinates":[113.5234133,22.5078379]},"properties":{"osm_type":"node","osm_id":3897583332,"category":"wine_shop","name":"南朗雅居乐酒店","tags":{"name":"南朗雅居乐酒店","shop":"wine"}}},{"type":"Feature","id":"node/4071872840","geometry":{"type":"Point","coordinates":[113.0896471,39.8135475]},"properties":{"osm_type":"node","osm_id":4071872840,"category":"wine_shop","name":"阳光大酒店","tags":{"name":"阳光大酒店","shop":"wine"}}},{"type":"Feature","id":"node/4118418175","geometry":{"type":"Point","coordinates":[114.1474576,22.2876173]},"properties":{"osm_type":"node","osm_id":4118418175,"category":"wine_shop","name":"Voi_la!","tags":{"name":"Voi_la!","operator":"華潤萬家 Vanguard","shop":"wine"}}},{"type":"Feature","id":"node/4266389491","geometry":{"type":"Point","coordinates":[117.12621,36.198733]},"properties":{"osm_type":"node","osm_id":4266389491,"category":"wine_shop","name":"尊皇大酒店北门","tags":{"name":"尊皇大酒店北门","shop":"wine"}}},{"type":"Feature","id":"node/4266398289","geometry":{"type":"Point","coordinates":[117.1228292,36.1928583]},"properties":{"osm_type":"node","osm_id":4266398289,"category":"wine_shop","name":"东悦坊精致酒店","tags":{"addr:housenumber":"86号","addr:street":"青年路","name":"东悦坊精致酒店","phone":"+86 538 807 0077","shop":"wine"}}},{"type":"Feature","id":"node/4319744520","geometry":{"type":"Point","coordinates":[120.1773837,30.2477015]},"properties":{"osm_type":"node","osm_id":4319744520,"category":"wine_shop","name":"杭州红楼大酒店","tags":{"name":"杭州红楼大酒店","shop":"wine"}}},{"type":"Feature","id":"node/4338191092","geometry":{"type":"Point","coordinates":[118.3314697,29.7197824]},"properties":{"osm_type":"node","osm_id":4338191092,"category":"wine_shop","tags":{"shop":"wine"}}},{"type":"Feature","id":"node/4361492393","geometry":{"type":"Point","coordinates":[113.5473764,22.1914062]},"properties":{"osm_type":"node","osm_id":4361492393,"category":"wine_shop","name":"Holiday Inn Macau","tags":{"addr:housenumber":"82-86","addr:street":"北京街 Rua de Pequim","name":"Holiday Inn Macau","phone":"85328783333","shop":"wine"}}},{"type":"Feature","id":"node/4584856011","geometry":{"type":"Point","coordinates":[113.05346,23.6818619]},"properties":{"osm_type":"node","osm_id":4584856011,"category":"wine_shop","name":"老酒屋","tags":{"name":"老酒屋","name:zh":"老酒屋","shop":"wine"}}},{"type":"Feature","id":"node/4584856015","geometry":{"type":"Point","coordinates":[113.0531496,23.6819708]},"properties":{"osm_type":"node","osm_id":4584856015,"category":"wine_shop","name":"骏德酒业","tags":{"name":"骏德酒业","shop":"wine"}}},{"type":"Feature","id":"node/4585165894","geometry":{"type":"Point","coordinates":[114.3208291,30.5157407]},"properties":{"osm_type":"node","osm_id":4585165894,"category":"wine_shop","name":"品食尚大酒店","tags":{"addr:postcode":"430064","addr:street":"丁字桥南路","name":"品食尚大酒店","name:en":"Pinshishang Hotel","name:zh":"品食尚大酒店","shop":"wine"}}},{"type":"Feature","id":"node/4627867965","geometry":{"type":"Point","coordinates":[113.0550668,23.6822237]},"properties":{"osm_type":"node","osm_id":4627867965,"category":"wine_shop","name":"广源酒庄","tags":{"name":"广源酒庄","name:zh":"广源酒庄","shop":"wine"}}},{"type":"Feature","id":"node/4686903003","geometry":{"type":"Point","coordinates":[109.498298,18.2129064]},"properties":{"osm_type":"node","osm_id":4686903003,"category":"wine_shop","tags":{"shop":"wine"}}},{"type":"Feature","id":"node/4704818889","geometry":{"type":"Point","coordinates":[97.8959282,23.9806952]},"properties":{"osm_type":"node","osm_id":4704818889,"category":"wine_shop","name":"ေရႊဆိုင္","tags":{"name":"ေရႊဆိုင္","name:my":"ေရႊဆိုင္","shop":"wine"}}},{"type":"Feature","id":"node/4716607241","geometry":{"type":"Point","coordinates":[105.717959,34.5846711]},"properties":{"osm_type":"node","osm_id":4716607241,"category":"wine_shop","tags":{"shop":"wine"}}},{"type":"Feature","id":"node/4739658844","geometry":{"type":"Point","coordinates":[115.4633686,38.8563501]},"properties":{"osm_type":"node","osm_id":4739658844,"category":"wine_shop","name":"1919","tags":{"name":"1919","name:zh":"1919","shop":"wine"}}},{"type":"Feature","id":"node/4826683923","geometry":{"type":"Point","coordinates":[115.4989497,38.8652942]},"properties":{"osm_type":"node","osm_id":4826683923,"category":"wine_shop","name":"1919","tags":{"name":"1919","name:en":"1919","name:zh":"1919","shop":"wine"}}},{"type":"Feature","id":"node/4831638607","geometry":{"type":"Point","coordinates":[113.5495778,22.1876481]},"properties":{"osm_type":"node","osm_id":4831638607,"category":"wine_shop","name":"Happiness Chateau","tags":{"addr:street":"倫斯泰特大馬路 Avenida Sir Anders Ljungstedt","name":"Happiness Chateau","shop":"wine"}}},{"type":"Feature","id":"node/4850025681","geometry":{"type":"Point","coordinates":[114.1711081,22.2959989]},"properties":{"osm_type":"node","osm_id":4850025681,"category":"wine_shop","name":"Major Cellar","tags":{"addr:street":"漢口道 Hankow Road","name":"Major Cellar","shop":"wine"}}},{"type":"Feature","id":"node/4850137426","geometry":{"type":"Point","coordinates":[114.1734422,22.2980516]},"properties":{"osm_type":"node","osm_id":4850137426,"category":"wine_shop","name":"Wine Chateau","tags":{"addr:street":"加拿分道 Carnarvon Road","name":"Wine Chateau","shop":"wine"}}},{"type":"Feature","id":"node/4850294651","geometry":{"type":"Point","coordinates":[114.1730363,22.2976485]},"properties":{"osm_type":"node","osm_id":4850294651,"category":"wine_shop","name":"Watson's Wine","tags":{"addr:street":"碧仙桃路 Bristol Avenue","name":"Watson's Wine","shop":"wine"}}},{"type":"Feature","id":"node/4858340231","geometry":{"type":"Point","coordinates":[114.1719142,22.2789625]},"properties":{"osm_type":"node","osm_id":4858340231,"category":"wine_shop","name":"Madison Wine","tags":{"addr:street":"告士打道 Gloucester Road","name":"Madison Wine","shop":"wine"}}},{"type":"Feature","id":"node/4861990727","geometry":{"type":"Point","coordinates":[114.1923133,22.2791505]},"properties":{"osm_type":"node","osm_id":4861990727,"category":"wine_shop","name":"Brix","tags":{"addr:street":"浣紗街 Wun Sha Street","name":"Brix","shop":"wine"}}},{"type":"Feature","id":"node/4864295178","geometry":{"type":"Point","coordinates":[114.1186177,22.3688355]},"properties":{"osm_type":"node","osm_id":4864295178,"category":"wine_shop","name":"Cheiling Kee International Wines","tags":{"name":"Cheiling Kee International Wines","opening_hours":"Mo-Su 11:00-21:00","shop":"wine"}}},{"type":"Feature","id":"node/4866210422","geometry":{"type":"Point","coordinates":[113.9098768,22.4870732]},"properties":{"osm_type":"node","osm_id":4866210422,"category":"wine_shop","name":"Vintage Fine Wines","tags":{"name:en":"Vintage Fine Wines","shop":"wine"}}},{"type":"Feature","id":"node/4948935183","geometry":{"type":"Point","coordinates":[103.6346287,36.0967179]},"properties":{"osm_type":"node","osm_id":4948935183,"category":"wine_shop","name":"人家酒业","tags":{"name":"人家酒业","shop":"wine"}}},{"type":"Feature","id":"node/4959511721","geometry":{"type":"Point","coordinates":[103.388346,24.3056801]},"properties":{"osm_type":"node","osm_id":4959511721,"category":"wine_shop","name":"Dong feng fu chi","tags":{"name":"Dong feng fu chi","name:en":"better wine shop","phone":"+86 136 4963 8118","shop":"wine"}}},{"type":"Feature","id":"node/5169911940","geometry":{"type":"Point","coordinates":[113.9883793,22.5395586]},"properties":{"osm_type":"node","osm_id":5169911940,"category":"wine_shop","name":"鹊尔斯酒窖","tags":{"name":"鹊尔斯酒窖","name:en":"Cheers Wine Cellars","name:zh":"鹊尔斯酒窖","shop":"wine"}}},{"type":"Feature","id":"node/5201383523","geometry":{"type":"Point","coordinates":[82.0612892,44.8870775]},"properties":{"osm_type":"node","osm_id":5201383523,"category":"wine_shop","name":"super market","tags":{"name":"super market","shop":"wine"}}},{"type":"Feature","id":"node/5218845826","geometry":{"type":"Point","coordinates":[115.0524779,30.2462773]},"properties":{"osm_type":"node","osm_id":5218845826,"category":"wine_shop","name":"黄石万达嘉华酒店","tags":{"name":"黄石万达嘉华酒店","shop":"wine"}}},{"type":"Feature","id":"node/5239073622","geometry":{"type":"Point","coordinates":[114.1727741,22.2991047]},"properties":{"osm_type":"node","osm_id":5239073622,"category":"wine_shop","name":"MUSIC INSTRUMENTAL SHOP","tags":{"name:en":"MUSIC INSTRUMENTAL SHOP","shop":"wine"}}},{"type":"Feature","id":"node/5314462887","geometry":{"type":"Point","coordinates":[120.3496567,36.088942]},"properties":{"osm_type":"node","osm_id":5314462887,"category":"wine_shop","name":"即墨老酒","tags":{"name":"即墨老酒","shop":"wine"}}},{"type":"Feature","id":"node/5345055622","geometry":{"type":"Point","coordinates":[110.7490637,35.1339095]},"properties":{"osm_type":"node","osm_id":5345055622,"category":"wine_shop","name":"希悦商务酒店","tags":{"name":"希悦商务酒店","name:zh":"希悦商务酒店","shop":"wine"}}},{"type":"Feature","id":"node/5529556119","geometry":{"type":"Point","coordinates":[106.714143,26.5789291]},"properties":{"osm_type":"node","osm_id":5529556119,"category":"wine_shop","tags":{"shop":"wine"}}},{"type":"Feature","id":"node/5543281122","geometry":{"type":"Point","coordinates":[126.6209996,45.7403602]},"properties":{"osm_type":"node","osm_id":5543281122,"category":"wine_shop","name":"四季快捷酒店","tags":{"name":"四季快捷酒店","name:en":"Four season hotel","shop":"wine"}}},{"type":"Feature","id":"node/5554890853","geometry":{"type":"Point","coordinates":[126.6203421,45.7389117]},"properties":{"osm_type":"node","osm_id":5554890853,"category":"wine_shop","name":"四季度酒店","tags":{"addr:housenumber":"40","name":"四季度酒店","name:en":"Four season Hotel","name:zh":"四季快捷酒店","shop":"wine"}}},{"type":"Feature","id":"node/5594228970","geometry":{"type":"Point","coordinates":[120.2950542,36.0624882]},"properties":{"osm_type":"node","osm_id":5594228970,"category":"wine_shop","name":"国酒茅台","tags":{"name":"国酒茅台","shop":"wine"}}},{"type":"Feature","id":"node/5609473614","geometry":{"type":"Point","coordinates":[112.1452126,28.5219107]},"properties":{"osm_type":"node","osm_id":5609473614,"category":"wine_shop","name":"桃花村大酒店","tags":{"name":"桃花村大酒店","shop":"wine"}}},{"type":"Feature","id":"node/5609473923","geometry":{"type":"Point","coordinates":[112.1435844,28.5189954]},"properties":{"osm_type":"node","osm_id":5609473923,"category":"wine_shop","name":"锦龙大酒店","tags":{"name":"锦龙大酒店","shop":"wine"}}},{"type":"Feature","id":"node/5621553527","geometry":{"type":"Point","coordinates":[115.6596783,32.2021527]},"properties":{"osm_type":"node","osm_id":5621553527,"category":"wine_shop","name":"大唐酒业","tags":{"name":"大唐酒业","opening_hours":"10:00-22:00","shop":"wine"}}},{"type":"Feature","id":"node/5663458791","geometry":{"type":"Point","coordinates":[105.0896389,29.209445]},"properties":{"osm_type":"node","osm_id":5663458791,"category":"wine_shop","name":"张八酒店","tags":{"name":"张八酒店","shop":"wine"}}},{"type":"Feature","id":"node/5813779936","geometry":{"type":"Point","coordinates":[115.8322829,32.894578]},"properties":{"osm_type":"node","osm_id":5813779936,"category":"wine_shop","name":"汇隆大酒店","tags":{"name":"汇隆大酒店","shop":"wine"}}},{"type":"Feature","id":"node/5963885704","geometry":{"type":"Point","coordinates":[121.4249086,31.2346007]},"properties":{"osm_type":"node","osm_id":5963885704,"category":"wine_shop","name":"1919.cn","tags":{"name:en":"1919.cn","shop":"wine"}}},{"type":"Feature","id":"node/5989286885","geometry":{"type":"Point","coordinates":[118.344307,24.5895141]},"properties":{"osm_type":"node","osm_id":5989286885,"category":"wine_shop","name":"鸿翔商务酒店","tags":{"addr:street":"翔安南路 - Xiang'An South Road","name":"鸿翔商务酒店","shop":"wine"}}},{"type":"Feature","id":"node/6032116387","geometry":{"type":"Point","coordinates":[115.4677284,38.8460976]},"properties":{"osm_type":"node","osm_id":6032116387,"category":"wine_shop","tags":{"shop":"wine"}}},{"type":"Feature","id":"node/6060431785","geometry":{"type":"Point","coordinates":[99.7061245,27.8157501]},"properties":{"osm_type":"node","osm_id":6060431785,"category":"wine_shop","name":"Shangri-La Wine Shop","tags":{"name:en":"Shangri-La Wine Shop","shop":"wine"}}},{"type":"Feature","id":"node/6069090994","geometry":{"type":"Point","coordinates":[121.396084,31.2101427]},"properties":{"osm_type":"node","osm_id":6069090994,"category":"wine_shop","tags":{"addr:housenumber":"551","addr:street":"古北路","shop":"wine"}}},{"type":"Feature","id":"node/6202694485","geometry":{"type":"Point","coordinates":[113.5404239,22.197028]},"properties":{"osm_type":"node","osm_id":6202694485,"category":"wine_shop","name":"澳感廊","tags":{"addr:housenumber":"31","addr:street":"大三巴街 Rua de S. Paulo","name":"澳感廊","name:en":"Macau Soul","name:ja":"マカオ・ソウル","name:zh":"澳感廊","name:zh-Hans":"澳感廊","name:zh-Hant":"澳感廊","opening_hours":"We-Th 15:00-22:00; Fr-Su 15:00-00:00","shop":"wine"}}},{"type":"Feature","id":"node/6323004017","geometry":{"type":"Point","coordinates":[110.2925003,25.2758909]},"properties":{"osm_type":"node","osm_id":6323004017,"category":"wine_shop","name":"桂林三花酒","tags":{"name":"桂林三花酒","name:en":"Guilin Sanhua Liquor","name:zh":"桂林三花酒","shop":"wine"}}},{"type":"Feature","id":"node/6324679575","geometry":{"type":"Point","coordinates":[121.441238,31.2175989]},"properties":{"osm_type":"node","osm_id":6324679575,"category":"wine_shop","name":"Le Vin","tags":{"name":"Le Vin","shop":"wine"}}},{"type":"Feature","id":"node/6325191790","geometry":{"type":"Point","coordinates":[99.1740408,25.1141014]},"properties":{"osm_type":"node","osm_id":6325191790,"category":"wine_shop","tags":{"shop":"wine"}}},{"type":"Feature","id":"node/6342950685","geometry":{"type":"Point","coordinates":[102.724069,25.0620746]},"properties":{"osm_type":"node","osm_id":6342950685,"category":"wine_shop","tags":{"shop":"wine"}}},{"type":"Feature","id":"node/6366808631","geometry":{"type":"Point","coordinates":[121.4348169,31.208723]},"properties":{"osm_type":"node","osm_id":6366808631,"category":"wine_shop","name":"Pudao Wines","tags":{"name:en":"Pudao Wines","shop":"wine"}}},{"type":"Feature","id":"node/6438071686","geometry":{"type":"Point","coordinates":[114.177929,22.2777148]},"properties":{"osm_type":"node","osm_id":6438071686,"category":"wine_shop","name":"Hungary Wine","tags":{"name:en":"Hungary Wine","shop":"wine"}}},{"type":"Feature","id":"node/6438497685","geometry":{"type":"Point","coordinates":[109.4488983,18.2989083]},"properties":{"osm_type":"node","osm_id":6438497685,"category":"wine_shop","tags":{"shop":"wine"}}},{"type":"Feature","id":"node/6506331293","geometry":{"type":"Point","coordinates":[100.2151186,26.9569822]},"properties":{"osm_type":"node","osm_id":6506331293,"category":"wine_shop","name":"Handmade Plum & Rose Wine","tags":{"name:en":"Handmade Plum & Rose Wine","shop":"wine"}}},{"type":"Feature","id":"node/6510458785","geometry":{"type":"Point","coordinates":[120.0256747,30.2817453]},"properties":{"osm_type":"node","osm_id":6510458785,"category":"wine_shop","name":"菲住布渴阿里未来酒店","tags":{"addr:street":"常二路","name":"菲住布渴阿里未来酒店","name:en":"Filipino Bust Ali Future Hotel","shop":"wine","website":"https://m.fliggy.com/hotel/54651034"}}},{"type":"Feature","id":"node/6510560886","geometry":{"type":"Point","coordinates":[103.8248063,36.0463138]},"properties":{"osm_type":"node","osm_id":6510560886,"category":"wine_shop","name":"名庄茶","tags":{"name":"名庄茶","shop":"wine"}}},{"type":"Feature","id":"node/6512472887","geometry":{"type":"Point","coordinates":[116.9244471,26.1690359]},"properties":{"osm_type":"node","osm_id":6512472887,"category":"wine_shop","name":"天芳悦谭","tags":{"name":"天芳悦谭","name:zh":"天芳悦谭温泉度假村","shop":"wine"}}},{"type":"Feature","id":"node/6514348485","geometry":{"type":"Point","coordinates":[116.9263155,26.1720951]},"properties":{"osm_type":"node","osm_id":6514348485,"category":"wine_shop","name":"天芳悦谭温泉","tags":{"name":"天芳悦谭温泉","shop":"wine"}}},{"type":"Feature","id":"node/6517728586","geometry":{"type":"Point","coordinates":[121.4354533,31.2446865]},"properties":{"osm_type":"node","osm_id":6517728586,"category":"wine_shop","tags":{"shop":"wine"}}},{"type":"Feature","id":"node/6842478812","geometry":{"type":"Point","coordinates":[116.2761191,39.9600791]},"properties":{"osm_type":"node","osm_id":6842478812,"category":"wine_shop","name":"特卖","tags":{"addr:city":"北京","addr:postcode":"100097","addr:street":"老营房路","name":"特卖","shop":"wine"}}},{"type":"Feature","id":"node/6964145285","geometry":{"type":"Point","coordinates":[113.5378738,22.1936476]},"properties":{"osm_type":"node","osm_id":6964145285,"category":"wine_shop","tags":{"shop":"wine"}}},{"type":"Feature","id":"node/6975879091","geometry":{"type":"Point","coordinates":[108.3508082,22.8055252]},"properties":{"osm_type":"node","osm_id":6975879091,"category":"wine_shop","name":"Wine Shop","tags":{"name:en":"Wine Shop","shop":"wine"}}},{"type":"Feature","id":"node/7046721493","geometry":{"type":"Point","coordinates":[114.1521868,22.2838072]},"properties":{"osm_type":"node","osm_id":7046721493,"category":"wine_shop","name":"La Cabane à Vin","tags":{"addr:city":"Hong Kong","addr:housenumber":"97","addr:street":"荷李活道 Hollywood Road","name":"La Cabane à Vin","shop":"wine"}}},{"type":"Feature","id":"node/7068551097","geometry":{"type":"Point","coordinates":[112.9004306,28.2220067]},"properties":{"osm_type":"node","osm_id":7068551097,"category":"wine_shop","name":"名典国际酒店","tags":{"name":"名典国际酒店","shop":"wine"}}},{"type":"Feature","id":"node/7068551098","geometry":{"type":"Point","coordinates":[112.8990217,28.2234012]},"properties":{"osm_type":"node","osm_id":7068551098,"category":"wine_shop","name":"长沙金沨麓景酒店","tags":{"name":"长沙金沨麓景酒店","shop":"wine"}}},{"type":"Feature","id":"node/7068581875","geometry":{"type":"Point","coordinates":[112.945107,28.2306964]},"properties":{"osm_type":"node","osm_id":7068581875,"category":"wine_shop","name":"初见酒店","tags":{"name":"初见酒店","shop":"wine"}}},{"type":"Feature","id":"node/7071355812","geometry":{"type":"Point","coordinates":[112.9036591,28.2132848]},"properties":{"osm_type":"node","osm_id":7071355812,"category":"wine_shop","name":"莫林风尚酒店","tags":{"name":"莫林风尚酒店","shop":"wine"}}},{"type":"Feature","id":"node/7071355816","geometry":{"type":"Point","coordinates":[112.9040501,28.2134216]},"properties":{"osm_type":"node","osm_id":7071355816,"category":"wine_shop","name":"胜锦酒店","tags":{"name":"胜锦酒店","shop":"wine"}}},{"type":"Feature","id":"node/7071355819","geometry":{"type":"Point","coordinates":[112.9046365,28.2137661]},"properties":{"osm_type":"node","osm_id":7071355819,"category":"wine_shop","name":"湘麓汇国际大酒店","tags":{"name":"湘麓汇国际大酒店","shop":"wine"}}},{"type":"Feature","id":"node/7071729985","geometry":{"type":"Point","coordinates":[112.9561085,28.2438738]},"properties":{"osm_type":"node","osm_id":7071729985,"category":"wine_shop","name":"梅尔酒窖","tags":{"name":"梅尔酒窖","shop":"wine"}}},{"type":"Feature","id":"node/7072193436","geometry":{"type":"Point","coordinates":[112.9309426,28.215827]},"properties":{"osm_type":"node","osm_id":7072193436,"category":"wine_shop","name":"嘉桐酒店","tags":{"name":"嘉桐酒店","shop":"wine"}}},{"type":"Feature","id":"node/7074243015","geometry":{"type":"Point","coordinates":[112.9290964,28.2180074]},"properties":{"osm_type":"node","osm_id":7074243015,"category":"wine_shop","name":"景轩年华酒店","tags":{"name":"景轩年华酒店","shop":"wine"}}},{"type":"Feature","id":"node/7074557105","geometry":{"type":"Point","coordinates":[112.9269461,28.2296767]},"properties":{"osm_type":"node","osm_id":7074557105,"category":"wine_shop","name":"长沙高程大酒店","tags":{"name":"长沙高程大酒店","shop":"wine"}}},{"type":"Feature","id":"node/7149378238","geometry":{"type":"Point","coordinates":[108.3517718,22.8284702]},"properties":{"osm_type":"node","osm_id":7149378238,"category":"winery","name":"Rock'n Wine","tags":{"craft":"winery","name":"Rock'n Wine","opening_hours":"Every Day 4:00pm - 11:00pm"}}},{"type":"Feature","id":"node/7159790587","geometry":{"type":"Point","coordinates":[114.0161265,22.2962085]},"properties":{"osm_type":"node","osm_id":7159790587,"category":"wine_shop","name":"Island Health","tags":{"amenity":"doctors","name":"Island Health","name:en":"Island Health","operator":"Island Health","shop":"wine"}}},{"type":"Feature","id":"node/7159790593","geometry":{"type":"Point","coordinates":[114.016476,22.2952707]},"properties":{"osm_type":"node","osm_id":7159790593,"category":"wine_shop","name":"Watson's Wine","tags":{"addr:housenumber":"G11A-2","name":"Watson's Wine","name:en":"Watson's Wine","operator":"Watson's Wine","shop":"wine"}}},{"type":"Feature","id":"node/7374952774","geometry":{"type":"Point","coordinates":[112.1317948,32.0346608]},"properties":{"osm_type":"node","osm_id":7374952774,"category":"wine_shop","tags":{"shop":"wine"}}},{"type":"Feature","id":"node/7374963733","geometry":{"type":"Point","coordinates":[112.1300668,32.0429487]},"properties":{"osm_type":"node","osm_id":7374963733,"category":"wine_shop","tags":{"shop":"wine"}}},{"type":"Feature","id":"node/7604449585","geometry":{"type":"Point","coordinates":[114.1716215,22.2744423]},"properties":{"osm_type":"node","osm_id":7604449585,"category":"wine_shop","name":"Watson’s Wine","tags":{"name:en":"Watson’s Wine","shop":"wine"}}},{"type":"Feature","id":"node/7686341287","geometry":{"type":"Point","coordinates":[119.5321607,31.1995312]},"properties":{"osm_type":"node","osm_id":7686341287,"category":"wine_shop","name":"一生一遇温泉度假酒店","tags":{"name":"一生一遇温泉度假酒店","shop":"wine"}}},{"type":"Feature","id":"node/7728551985","geometry":{"type":"Point","coordinates":[85.1414401,31.0136677]},"properties":{"osm_type":"node","osm_id":7728551985,"category":"wine_shop","name":"樂一家酒店","tags":{"name":"樂一家酒店","shop":"wine"}}},{"type":"Feature","id":"node/7735278085","geometry":{"type":"Point","coordinates":[90.0106992,31.3997809]},"properties":{"osm_type":"node","osm_id":7735278085,"category":"wine_shop","name":"鑫津酒店","tags":{"name":"鑫津酒店","shop":"wine"}}},{"type":"Feature","id":"node/7886469385","geometry":{"type":"Point","coordinates":[102.9327218,33.5930979]},"properties":{"osm_type":"node","osm_id":7886469385,"category":"wine_shop","name":"西部牧场古格王朝大酒店","tags":{"name":"西部牧场古格王朝大酒店","shop":"wine"}}},{"type":"Feature","id":"node/7888010220","geometry":{"type":"Point","coordinates":[104.9664077,37.5095727]},"properties":{"osm_type":"node","osm_id":7888010220,"category":"wine_shop","name":"沙漠星星酒店","tags":{"name":"沙漠星星酒店","shop":"wine"}}},{"type":"Feature","id":"node/7888039610","geometry":{"type":"Point","coordinates":[104.9652276,37.5074619]},"properties":{"osm_type":"node","osm_id":7888039610,"category":"wine_shop","name":"中卫沙漠星星酒店","tags":{"name":"中卫沙漠星星酒店","shop":"wine"}}},{"type":"Feature","id":"node/7940558473","geometry":{"type":"Point","coordinates":[117.162821,39.0774823]},"properties":{"osm_type":"node","osm_id":7940558473,"category":"wine_shop","name":"金麦根烟酒茶超市","tags":{"name":"金麦根烟酒茶超市","shop":"wine"}}},{"type":"Feature","id":"node/7990280442","geometry":{"type":"Point","coordinates":[117.1905096,39.1338158]},"properties":{"osm_type":"node","osm_id":7990280442,"category":"wine_bar","name":"法国王朝","tags":{"amenity":"restaurant","cuisine":"wine","name":"法国王朝","name:zh":"法国王朝","name:zh-Hans":"法国王朝","name:zh-Hant":"法國王朝"}}},{"type":"Feature","id":"node/7998192076","geometry":{"type":"Point","coordinates":[117.1977,39.1118192]},"properties":{"osm_type":"node","osm_id":7998192076,"category":"wine_bar","name":"VICS","tags":{"amenity":"restaurant","cuisine":"wine","name":"VICS","name:en":"VICS"}}},{"type":"Feature","id":"node/8014234385","geometry":{"type":"Point","coordinates":[108.7245892,34.405241]},"properties":{"osm_type":"node","osm_id":8014234385,"category":"wine_shop","name":"咸陽皇家龍空港酒店","tags":{"name":"咸陽皇家龍空港酒店","shop":"wine"}}},{"type":"Feature","id":"node/8088939542","geometry":{"type":"Point","coordinates":[119.3982856,36.8593146]},"properties":{"osm_type":"node","osm_id":8088939542,"category":"wine_shop","name":"昌邑市即墨妙府老酒专卖店","tags":{"name":"昌邑市即墨妙府老酒专卖店","shop":"wine"}}},{"type":"Feature","id":"node/8221559055","geometry":{"type":"Point","coordinates":[121.4480321,31.2125876]},"properties":{"osm_type":"node","osm_id":8221559055,"category":"wine_shop","name":"W&W Wine Shop","tags":{"name":"W&W Wine Shop","shop":"wine"}}},{"type":"Feature","id":"node/8282892714","geometry":{"type":"Point","coordinates":[120.7598631,31.336003]},"properties":{"osm_type":"node","osm_id":8282892714,"category":"wine_shop","name":"博海烟酒商行","tags":{"addr:city":"苏州市","addr:housenumber":"68","addr:postcode":"215026","addr:street":"北榭雨街","name":"博海烟酒商行","opening_hours":"Mo-Su 07:30-23:00","phone":"+86 133 3867 4225","shop":"wine"}}},{"type":"Feature","id":"node/8326623602","geometry":{"type":"Point","coordinates":[120.7586645,31.3358341]},"properties":{"osm_type":"node","osm_id":8326623602,"category":"wine_shop","name":"金帆烟酒","tags":{"name":"金帆烟酒","shop":"wine"}}},{"type":"Feature","id":"node/8345336298","geometry":{"type":"Point","coordinates":[120.7542705,31.3359897]},"properties":{"osm_type":"node","osm_id":8345336298,"category":"wine_shop","tags":{"shop":"wine"}}},{"type":"Feature","id":"node/8488381709","geometry":{"type":"Point","coordinates":[115.5890723,32.8137558]},"properties":{"osm_type":"node","osm_id":8488381709,"category":"wine_shop","name":"柴集大酒店","tags":{"name":"柴集大酒店","shop":"wine"}}},{"type":"Feature","id":"node/9023098697","geometry":{"type":"Point","coordinates":[108.375033,22.767381]},"properties":{"osm_type":"node","osm_id":9023098697,"category":"wine_shop","name":"Kopi云咖啡","tags":{"addr:housenumber":"8","addr:street":"云英路","alt_name":"五象会客厅","amenity":"restaurant","cuisine":"coffee_shop;chinese","name":"Kopi云咖啡","shop":"wine"}}},{"type":"Feature","id":"node/9026547117","geometry":{"type":"Point","coordinates":[81.1202635,43.1538396]},"properties":{"osm_type":"node","osm_id":9026547117,"category":"wine_shop","name":"崑崙大酒店","tags":{"name":"崑崙大酒店","shop":"wine"}}},{"type":"Feature","id":"node/9139787219","geometry":{"type":"Point","coordinates":[112.1645208,27.4557384]},"properties":{"osm_type":"node","osm_id":9139787219,"category":"wine_shop","name":"富厚雅居精品酒店","tags":{"name":"富厚雅居精品酒店","shop":"wine"}}},{"type":"Feature","id":"node/9218496596","geometry":{"type":"Point","coordinates":[125.3153057,43.8995147]},"properties":{"osm_type":"node","osm_id":9218496596,"category":"wine_shop","tags":{"shop":"wine"}}},{"type":"Feature","id":"node/9399106617","geometry":{"type":"Point","coordinates":[116.6257984,40.3402978]},"properties":{"osm_type":"node","osm_id":9399106617,"category":"wine_shop","name":"世纪恒晟·名酒汇","tags":{"name":"世纪恒晟·名酒汇","shop":"wine"}}},{"type":"Feature","id":"node/9445323246","geometry":{"type":"Point","coordinates":[116.9334447,23.6250753]},"properties":{"osm_type":"node","osm_id":9445323246,"category":"wine_shop","name":"晨曦酒庄","tags":{"name":"晨曦酒庄","shop":"wine"}}},{"type":"Feature","id":"node/9536287771","geometry":{"type":"Point","coordinates":[116.6243471,40.3255073]},"properties":{"osm_type":"node","osm_id":9536287771,"category":"wine_shop","name":"泰山原浆七天啤酒","tags":{"name":"泰山原浆七天啤酒","shop":"wine"}}},{"type":"Feature","id":"node/9590071572","geometry":{"type":"Point","coordinates":[116.62492,40.3283263]},"properties":{"osm_type":"node","osm_id":9590071572,"category":"wine_shop","name":"隆腾酒行","tags":{"name":"隆腾酒行","shop":"wine"}}},{"type":"Feature","id":"node/9835186471","geometry":{"type":"Point","coordinates":[116.6321164,39.8839007]},"properties":{"osm_type":"node","osm_id":9835186471,"category":"wine_shop","name":"靓景烟酒超市","tags":{"name":"靓景烟酒超市","shop":"wine"}}},{"type":"Feature","id":"node/9886939887","geometry":{"type":"Point","coordinates":[116.6333109,39.8838984]},"properties":{"osm_type":"node","osm_id":9886939887,"category":"wine_shop","name":"朝正烟酒","tags":{"name":"朝正烟酒","shop":"wine"}}},{"type":"Feature","id":"node/9892751017","geometry":{"type":"Point","coordinates":[99.4356017,27.5659275]},"properties":{"osm_type":"node","osm_id":9892751017,"category":"wine_shop","name":"La Pu Winery","tags":{"name:en":"La Pu Winery","shop":"wine"}}},{"type":"Feature","id":"node/9895439519","geometry":{"type":"Point","coordinates":[98.9069376,28.0175279]},"properties":{"osm_type":"node","osm_id":9895439519,"category":"wine_shop","name":"Local wine producer","tags":{"name:en":"Local wine producer","shop":"wine"}}},{"type":"Feature","id":"node/9901465617","geometry":{"type":"Point","coordinates":[99.3335281,28.2063584]},"properties":{"osm_type":"node","osm_id":9901465617,"category":"wine_shop","name":"Walnut Tree Winery","tags":{"name:en":"Walnut Tree Winery","shop":"wine"}}},{"type":"Feature","id":"node/9939009857","geometry":{"type":"Point","coordinates":[111.3402376,25.2799343]},"properties":{"osm_type":"node","osm_id":9939009857,"category":"wine_shop","name":"锦和茶酒","tags":{"name":"锦和茶酒","shop":"wine"}}},{"type":"Feature","id":"node/9970279411","geometry":{"type":"Point","coordinates":[114.4432574,23.0720767]},"properties":{"osm_type":"node","osm_id":9970279411,"category":"wine_shop","name":"爵伦·酒世界","tags":{"addr:city":"惠州市","addr:housenumber":"2号110","addr:postcode":"516002","addr:street":"旭日路","name":"爵伦·酒世界","name:en":"JueLun Chateau","name:zh":"爵伦·酒世界","opening_hours":"Mo-Su 09:00-23:00","operator":"惠州市爵伦商贸有限公司","phone":"+86 180 4626 3556","shop":"wine"}}},{"type":"Feature","id":"node/10081122404","geometry":{"type":"Point","coordinates":[121.6345915,38.9138579]},"properties":{"osm_type":"node","osm_id":10081122404,"category":"wine_shop","name":"四海阁烟酒商行","tags":{"name":"四海阁烟酒商行","shop":"wine"}}},{"type":"Feature","id":"node/10081122409","geometry":{"type":"Point","coordinates":[121.6347508,38.9131393]},"properties":{"osm_type":"node","osm_id":10081122409,"category":"wine_shop","name":"华致名酒库","tags":{"name":"华致名酒库","shop":"wine"}}},{"type":"Feature","id":"node/10094903837","geometry":{"type":"Point","coordinates":[114.4469453,23.0731917]},"properties":{"osm_type":"node","osm_id":10094903837,"category":"wine_shop","name":"鑫叶烟酒商行","tags":{"addr:city":"惠州市","addr:housenumber":"1号012","addr:postcode":"516002","addr:street":"旭日路","name":"鑫叶烟酒商行","official_name":"惠州市惠城区鑫太鑫烟酒商行","operator":"张钦亮","phone":"+86 180 6027 1600","shop":"wine"}}},{"type":"Feature","id":"node/10213573682","geometry":{"type":"Point","coordinates":[122.1145097,30.0204372]},"properties":{"osm_type":"node","osm_id":10213573682,"category":"wine_shop","name":"赛君烟酒店","tags":{"name":"赛君烟酒店","shop":"wine"}}},{"type":"Feature","id":"node/10277278073","geometry":{"type":"Point","coordinates":[123.9611233,47.338499]},"properties":{"osm_type":"node","osm_id":10277278073,"category":"wine_shop","name":"1919.CN 酒类直供","tags":{"name":"1919.CN 酒类直供","name:zh":"1919.CN 酒类直供","name:zh-Hans":"1919.CN 酒类直供","name:zh-Hant":"1919.CN 酒類直供","phone":"+86 400 999 1919","shop":"wine"}}},{"type":"Feature","id":"node/10554122267","geometry":{"type":"Point","coordinates":[111.6954689,35.7355073]},"properties":{"osm_type":"node","osm_id":10554122267,"category":"wine_shop","name":"三琪宜居","tags":{"name":"三琪宜居","shop":"wine"}}},{"type":"Feature","id":"node/10558971048","geometry":{"type":"Point","coordinates":[120.6595484,28.0133539]},"properties":{"osm_type":"node","osm_id":10558971048,"category":"winery","name":"金锡烟酒","tags":{"craft":"winery","name":"金锡烟酒"}}},{"type":"Feature","id":"node/10594382287","geometry":{"type":"Point","coordinates":[114.446039,23.0735323]},"properties":{"osm_type":"node","osm_id":10594382287,"category":"wine_shop","name":"太鑫酒业","tags":{"addr:city":"惠州市","addr:housenumber":"1号019","addr:postcode":"516002","addr:street":"东升一路","name":"太鑫酒业","official_name":"惠州市惠城区太鑫酒业","operator":"练立波","phone":"+86 752 782 1616","shop":"wine"}}},{"type":"Feature","id":"node/10595421573","geometry":{"type":"Point","coordinates":[123.3651576,41.8122268]},"properties":{"osm_type":"node","osm_id":10595421573,"category":"wine_shop","name":"古井贡酒品牌体验中心","tags":{"addr:city":"笃工街道","addr:street":"齐贤北街","name":"古井贡酒品牌体验中心","opening_hours":"09:30-21:00","phone":"+86 24 3182 5789","shop":"wine"}}},{"type":"Feature","id":"node/10595458714","geometry":{"type":"Point","coordinates":[120.6169166,27.9849587]},"properties":{"osm_type":"node","osm_id":10595458714,"category":"wine_shop","name":"久益烟酒行","tags":{"name":"久益烟酒行","shop":"wine"}}},{"type":"Feature","id":"node/10595739139","geometry":{"type":"Point","coordinates":[114.4410094,23.0730544]},"properties":{"osm_type":"node","osm_id":10595739139,"category":"wine_shop","name":"钓鱼台国宾酒业","tags":{"addr:city":"惠州市","addr:housenumber":"1号190","addr:postcode":"516002","addr:street":"东升二路","brand":"钓鱼台国宾酒","name":"钓鱼台国宾酒业","operator":"惠州市惠城区致敬食品商行","phone":"+86 136 2279 9655","shop":"wine"}}},{"type":"Feature","id":"node/10595739148","geometry":{"type":"Point","coordinates":[114.4404725,23.0733009]},"properties":{"osm_type":"node","osm_id":10595739148,"category":"wine_shop","name":"林生酒仓","tags":{"addr:city":"惠州市","addr:housenumber":"1号205","addr:postcode":"516002","addr:street":"东升二路","name":"林生酒仓","name:en":"Linsheng Wine","name:zh":"林生酒仓","operator":"林生贸易（广东）有限公司","shop":"wine"}}},{"type":"Feature","id":"node/10606350964","geometry":{"type":"Point","coordinates":[114.4369786,23.0764406]},"properties":{"osm_type":"node","osm_id":10606350964,"category":"wine_shop","name":"华浤茶酒商行","tags":{"addr:city":"惠州市","addr:housenumber":"1号072","addr:postcode":"516002","addr:street":"东升三路","name":"华浤茶酒商行","official_name":"惠州市惠城区华浤茶酒商行","operator":"田情情","phone":"+86 136 4095 9818","shop":"wine"}}},{"type":"Feature","id":"node/10611512004","geometry":{"type":"Point","coordinates":[114.4402164,23.0769642]},"properties":{"osm_type":"node","osm_id":10611512004,"category":"wine_shop","name":"康朗轩·斯多比葡萄酒庄","tags":{"addr:city":"惠州市","addr:housenumber":"1号146","addr:postcode":"516002","addr:street":"东升三路","name":"康朗轩·斯多比葡萄酒庄","name:en":"Stobi","name:zh":"康朗轩·斯多比葡萄酒庄","official_name":"惠州市惠城区康朗轩食品商行","opening_hours":"Mo-Su 10:00-22:00","operator":"陈怀群","phone":"+86 133 1634 1298","shop":"wine"}}},{"type":"Feature","id":"node/10611518083","geometry":{"type":"Point","coordinates":[114.437202,23.0769842]},"properties":{"osm_type":"node","osm_id":10611518083,"category":"wine_shop","name":"逸仙台酒业酱酒文化体验中心","tags":{"addr:city":"惠州市","addr:housenumber":"1号081","addr:postcode":"516002","addr:street":"东升三路","name":"逸仙台酒业酱酒文化体验中心","official_name":"惠州市惠城区瑞尔琳娜酒庄","operator":"陈惠斌","phone":"+86 159 1775 8616","shop":"wine"}}},{"type":"Feature","id":"node/10617633860","geometry":{"type":"Point","coordinates":[113.9838241,22.5277458]},"properties":{"osm_type":"node","osm_id":10617633860,"category":"wine_shop","name":"大美黔酒","tags":{"name":"大美黔酒","shop":"wine"}}},{"type":"Feature","id":"node/10637293619","geometry":{"type":"Point","coordinates":[113.2958172,23.3921558]},"properties":{"osm_type":"node","osm_id":10637293619,"category":"wine_shop","name":"feisun","tags":{"name":"feisun","shop":"wine"}}},{"type":"Feature","id":"node/10649401981","geometry":{"type":"Point","coordinates":[114.4474452,23.0761961]},"properties":{"osm_type":"node","osm_id":10649401981,"category":"wine_shop","name":"老酒合作社","tags":{"addr:city":"惠州市","addr:housenumber":"1号","addr:postcode":"516002","addr:street":"旭日一路","name":"老酒合作社","opening_hours":"Mo-Su 10:00-22:30","operator":"惠州市同坤酒业有限公司","phone":"+86 132 6666 6538","shop":"wine"}}},{"type":"Feature","id":"node/10651068034","geometry":{"type":"Point","coordinates":[114.4476979,23.0770899]},"properties":{"osm_type":"node","osm_id":10651068034,"category":"wine_shop","name":"茂缘商行","tags":{"addr:city":"惠州市","addr:housenumber":"1号","addr:postcode":"516002","addr:street":"旭日一路","name":"茂缘商行","official_name":"惠州市惠城区鑫典茶烟酒商行","operator":"黄君茂","phone":"+86 187 1919 9888","shop":"wine"}}},{"type":"Feature","id":"node/10657852561","geometry":{"type":"Point","coordinates":[114.4480669,23.0779462]},"properties":{"osm_type":"node","osm_id":10657852561,"category":"wine_shop","name":"晖煌酒业","tags":{"addr:city":"惠州市","addr:housenumber":"3号055","addr:postcode":"516002","addr:street":"旭日二路","email":"hzwbhlp129@163.com","name":"晖煌酒业","name:en":"Hui Huang Alcoholic Beverages","name:zh":"晖煌酒业","opening_hours":"Mo-Su 09:00-21:30","operator":"惠州市晖煌商贸有限公司","phone":"+86 752 222 3232","shop":"wine"}}},{"type":"Feature","id":"node/10657852602","geometry":{"type":"Point","coordinates":[114.4481285,23.0798258]},"properties":{"osm_type":"node","osm_id":10657852602,"category":"wine_shop","name":"嘉恒悦商行","tags":{"addr:city":"惠州市","addr:housenumber":"3号095","addr:postcode":"516002","addr:street":"旭日二路","name":"嘉恒悦商行","official_name":"惠州市惠城区嘉恒悦食品商行","operator":"丘丽乔","phone":"+86 133 6087 8619","shop":"wine"}}},{"type":"Feature","id":"node/10663373020","geometry":{"type":"Point","coordinates":[114.447718,23.0805287]},"properties":{"osm_type":"node","osm_id":10663373020,"category":"wine_shop","name":"君荣酒业","tags":{"addr:city":"惠州市","addr:housenumber":"3号074","addr:postcode":"516002","addr:street":"东升一路","name":"君荣酒业","official_name":"惠州市惠城区君荣贸易经营部","opening_hours":"Mo-Su 09:00-21:00","operator":"邓勇","phone":"+86 134 3769 8538","shop":"wine"}}},{"type":"Feature","id":"node/10669992704","geometry":{"type":"Point","coordinates":[114.4467552,23.0817077]},"properties":{"osm_type":"node","osm_id":10669992704,"category":"wine_shop","name":"凯裕酒业","tags":{"addr:city":"惠州市","addr:housenumber":"3号048","addr:postcode":"516002","addr:street":"东升一路","email":"3320827688@qq.com","name":"凯裕酒业","opening_hours":"Mo-Su 09:00-00:00","operator":"惠州市凯裕贸易有限公司","phone":"+86 752 591 6879","shop":"wine"}}},{"type":"Feature","id":"node/10670028413","geometry":{"type":"Point","coordinates":[114.4463559,23.0818661]},"properties":{"osm_type":"node","osm_id":10670028413,"category":"wine_shop","name":"繁沙酒业","tags":{"addr:city":"惠州市","addr:housenumber":"3号039","addr:postcode":"516002","addr:street":"东升一路","name":"繁沙酒业","shop":"wine"}}},{"type":"Feature","id":"node/10670028465","geometry":{"type":"Point","coordinates":[114.4474184,23.0800349]},"properties":{"osm_type":"node","osm_id":10670028465,"category":"wine_shop","name":"卡宜利斯酒业","tags":{"addr:city":"惠州市","addr:housenumber":"3号084","addr:postcode":"516002","addr:street":"东升一路","name":"卡宜利斯酒业","official_name":"惠州市惠城区卡宜利斯酒业商行","operator":"张国珍","phone":"+86 138 2990 3888","shop":"wine"}}},{"type":"Feature","id":"node/10670028498","geometry":{"type":"Point","coordinates":[114.4472493,23.0818163]},"properties":{"osm_type":"node","osm_id":10670028498,"category":"wine_shop","name":"和润酒业","tags":{"addr:city":"惠州市","addr:housenumber":"4号004","addr:postcode":"516002","addr:street":"东升路","name":"和润酒业","shop":"wine"}}},{"type":"Feature","id":"node/10673529419","geometry":{"type":"Point","coordinates":[114.4496821,23.0790333]},"properties":{"osm_type":"node","osm_id":10673529419,"category":"wine_shop","name":"歪马送酒","tags":{"addr:city":"惠州市","addr:housenumber":"9号072","addr:postcode":"516002","addr:street":"旭日二路","brand":"歪马送酒","name":"歪马送酒","phone":"+86 176 3910 3427","shop":"wine"}}},{"type":"Feature","id":"node/10674283095","geometry":{"type":"Point","coordinates":[114.4501588,23.0769676]},"properties":{"osm_type":"node","osm_id":10674283095,"category":"wine_shop","name":"惠铭轩商行","tags":{"addr:city":"惠州市","addr:housenumber":"9号014","addr:postcode":"516002","addr:street":"旭日二路","name":"惠铭轩商行","official_name":"惠州市惠城区惠铭轩食品商行","opening_hours":"Mo-Su 08:00-23:45","operator":"刘虹娜","phone":"+86 138 0287 2168","shop":"wine"}}},{"type":"Feature","id":"node/10707011263","geometry":{"type":"Point","coordinates":[116.33893,40.0140987]},"properties":{"osm_type":"node","osm_id":10707011263,"category":"wine_shop","name":"京东酒世界","tags":{"name":"京东酒世界","shop":"wine"}}},{"type":"Feature","id":"node/10708205589","geometry":{"type":"Point","coordinates":[116.6297581,39.885849]},"properties":{"osm_type":"node","osm_id":10708205589,"category":"wine_shop","tags":{"shop":"wine"}}},{"type":"Feature","id":"node/10906766145","geometry":{"type":"Point","coordinates":[106.4190838,23.1276986]},"properties":{"osm_type":"node","osm_id":10906766145,"category":"wine_shop","name":"盛祺酒坊","tags":{"name":"盛祺酒坊","shop":"wine"}}},{"type":"Feature","id":"node/11014059079","geometry":{"type":"Point","coordinates":[116.1212721,24.2903713]},"properties":{"osm_type":"node","osm_id":11014059079,"category":"wine_shop","tags":{"shop":"wine"}}},{"type":"Feature","id":"node/11014092609","geometry":{"type":"Point","coordinates":[116.1102586,24.2828509]},"properties":{"osm_type":"node","osm_id":11014092609,"category":"wine_shop","name":"和兴酒行","tags":{"name":"和兴酒行","shop":"wine"}}},{"type":"Feature","id":"node/11014098420","geometry":{"type":"Point","coordinates":[116.1108559,24.2832552]},"properties":{"osm_type":"node","osm_id":11014098420,"category":"wine_shop","name":"长乐烧","tags":{"name":"长乐烧","shop":"wine"}}},{"type":"Feature","id":"node/11069274577","geometry":{"type":"Point","coordinates":[119.3841076,32.3964296]},"properties":{"osm_type":"node","osm_id":11069274577,"category":"wine_shop","name":"今世缘·国缘","tags":{"addr:housenumber":"125","addr:street":"百祥路","name":"今世缘·国缘","opening_hours":"08:00-20:00","shop":"wine"}}},{"type":"Feature","id":"node/11112955983","geometry":{"type":"Point","coordinates":[116.6822516,24.3588915]},"properties":{"osm_type":"node","osm_id":11112955983,"category":"wine_shop","name":"城堡酒业","tags":{"name":"城堡酒业","shop":"wine"}}},{"type":"Feature","id":"node/11112978043","geometry":{"type":"Point","coordinates":[116.1590701,24.6529411]},"properties":{"osm_type":"node","osm_id":11112978043,"category":"wine_shop","name":"郡逸酒品荟","tags":{"name":"郡逸酒品荟","shop":"wine"}}},{"type":"Feature","id":"node/11115765636","geometry":{"type":"Point","coordinates":[104.9305388,29.4178765]},"properties":{"osm_type":"node","osm_id":11115765636,"category":"winery","name":"何市赖雅庙酒坊","tags":{"craft":"winery","name":"何市赖雅庙酒坊"}}},{"type":"Feature","id":"node/11172359600","geometry":{"type":"Point","coordinates":[112.494627,23.0738974]},"properties":{"osm_type":"node","osm_id":11172359600,"category":"wine_shop","tags":{"shop":"wine"}}},{"type":"Feature","id":"node/11181076330","geometry":{"type":"Point","coordinates":[119.2228385,39.7434972]},"properties":{"osm_type":"node","osm_id":11181076330,"category":"winery","name":"茅台葡萄酒厂","tags":{"craft":"winery","name":"茅台葡萄酒厂"}}},{"type":"Feature","id":"node/11186558467","geometry":{"type":"Point","coordinates":[112.5005554,23.0824041]},"properties":{"osm_type":"node","osm_id":11186558467,"category":"wine_shop","name":"轩利烟酒行","tags":{"name":"轩利烟酒行","shop":"wine"}}},{"type":"Feature","id":"node/11201752624","geometry":{"type":"Point","coordinates":[112.4861586,23.0726118]},"properties":{"osm_type":"node","osm_id":11201752624,"category":"wine_shop","name":"洪亿烟酒专营 烟酒回收","tags":{"name":"洪亿烟酒专营 烟酒回收","shop":"wine"}}},{"type":"Feature","id":"node/11308875369","geometry":{"type":"Point","coordinates":[130.3618999,42.8701004]},"properties":{"osm_type":"node","osm_id":11308875369,"category":"wine_shop","tags":{"name:ru":"Уао Син","shop":"wine"}}},{"type":"Feature","id":"node/11314050972","geometry":{"type":"Point","coordinates":[130.3504513,42.8609007]},"properties":{"osm_type":"node","osm_id":11314050972,"category":"wine_shop","name":"小酒喔酒类直供","tags":{"name":"小酒喔酒类直供","name:en":"Wine&Spirits importer and retailer","name:ru":"Алкогольный магазин с Обезьянкой","shop":"wine"}}},{"type":"Feature","id":"node/11335123770","geometry":{"type":"Point","coordinates":[114.1743546,22.2942028]},"properties":{"osm_type":"node","osm_id":11335123770,"category":"wine_shop","tags":{"shop":"wine"}}},{"type":"Feature","id":"node/11375356395","geometry":{"type":"Point","coordinates":[121.2998664,31.150319]},"properties":{"osm_type":"node","osm_id":11375356395,"category":"wine_shop","name":"苏酒酒行","tags":{"name":"苏酒酒行","name:en":"Sujiu Liquor Store","name:zh-Hans":"苏酒酒行","shop":"wine"}}},{"type":"Feature","id":"node/11389444284","geometry":{"type":"Point","coordinates":[121.3490422,31.1370585]},"properties":{"osm_type":"node","osm_id":11389444284,"category":"wine_shop","name":"茅台酱香品鉴馆","tags":{"name":"茅台酱香品鉴馆","name:zh":"茅台酱香品鉴馆","name:zh-Hans":"茅台酱香品鉴馆","shop":"wine"}}},{"type":"Feature","id":"node/11556188804","geometry":{"type":"Point","coordinates":[120.472865,30.0608091]},"properties":{"osm_type":"node","osm_id":11556188804,"category":"wine_shop","name":"风土酒市","tags":{"name":"风土酒市","shop":"wine"}}},{"type":"Feature","id":"node/11612750775","geometry":{"type":"Point","coordinates":[115.0873282,35.7702168]},"properties":{"osm_type":"node","osm_id":11612750775,"category":"wine_shop","name":"华致名酒库","tags":{"addr:city":"濮阳市","addr:street":"任丘路","name":"华致名酒库","shop":"wine"}}},{"type":"Feature","id":"node/11809298340","geometry":{"type":"Point","coordinates":[115.0384799,35.7857759]},"properties":{"osm_type":"node","osm_id":11809298340,"category":"wine_shop","name":"豫濮名酒收藏馆","tags":{"addr:city":"濮阳市","addr:street":"五一中路","name":"豫濮名酒收藏馆","shop":"wine"}}},{"type":"Feature","id":"node/11862249416","geometry":{"type":"Point","coordinates":[121.0989851,31.2865829]},"properties":{"osm_type":"node","osm_id":11862249416,"category":"wine_shop","name":"昆元汇烟酒店","tags":{"name":"昆元汇烟酒店","shop":"wine"}}},{"type":"Feature","id":"node/11871353640","geometry":{"type":"Point","coordinates":[114.1920591,22.3300124]},"properties":{"osm_type":"node","osm_id":11871353640,"category":"winery","tags":{"craft":"winery"}}},{"type":"Feature","id":"node/11883497343","geometry":{"type":"Point","coordinates":[121.1377693,31.2508724]},"properties":{"osm_type":"node","osm_id":11883497343,"category":"wine_shop","name":"百锐酒庄有限公司","tags":{"name":"百锐酒庄有限公司","shop":"wine"}}},{"type":"Feature","id":"node/11906850472","geometry":{"type":"Point","coordinates":[126.6235097,45.7806103]},"properties":{"osm_type":"node","osm_id":11906850472,"category":"wine_shop","name":"Wine and Spirits importer and retailer","tags":{"name:en":"Wine and Spirits importer and retailer","name:ru":"Магазин иностранных алкогольных напитков","shop":"wine"}}},{"type":"Feature","id":"node/11915785800","geometry":{"type":"Point","coordinates":[121.0366703,31.0119189]},"properties":{"osm_type":"node","osm_id":11915785800,"category":"wine_shop","name":"阿二酒庄(练塘形象店)","tags":{"name":"阿二酒庄(练塘形象店)","shop":"wine"}}},{"type":"Feature","id":"node/11915862381","geometry":{"type":"Point","coordinates":[121.0366485,31.0113471]},"properties":{"osm_type":"node","osm_id":11915862381,"category":"wine_shop","name":"绍兴黄白酒","tags":{"name":"绍兴黄白酒","shop":"wine"}}},{"type":"Feature","id":"node/11993493833","geometry":{"type":"Point","coordinates":[113.3412744,23.100754]},"properties":{"osm_type":"node","osm_id":11993493833,"category":"wine_shop","name":"茅台专营店","tags":{"name":"茅台专营店","shop":"wine"}}},{"type":"Feature","id":"node/12032229188","geometry":{"type":"Point","coordinates":[107.2002344,22.8358028]},"properties":{"osm_type":"node","osm_id":12032229188,"category":"wine_shop","name":"茅台","tags":{"name":"茅台","shop":"wine"}}},{"type":"Feature","id":"node/12039070508","geometry":{"type":"Point","coordinates":[126.9662919,46.6477195]},"properties":{"osm_type":"node","osm_id":12039070508,"category":"wine_shop","name":"小酒喔酒类直供(黄河北路店)","tags":{"name":"小酒喔酒类直供(黄河北路店)","shop":"wine"}}},{"type":"Feature","id":"node/12039070511","geometry":{"type":"Point","coordinates":[126.9663588,46.6474314]},"properties":{"osm_type":"node","osm_id":12039070511,"category":"wine_shop","name":"酒直达(黄河北路店)","tags":{"name":"酒直达(黄河北路店)","shop":"wine"}}},{"type":"Feature","id":"node/12039070513","geometry":{"type":"Point","coordinates":[126.9663818,46.6473391]},"properties":{"osm_type":"node","osm_id":12039070513,"category":"wine_shop","name":"1919中国酱香白酒名酒馆","tags":{"name":"1919中国酱香白酒名酒馆","shop":"wine"}}},{"type":"Feature","id":"node/12039070525","geometry":{"type":"Point","coordinates":[126.9665673,46.6466256]},"properties":{"osm_type":"node","osm_id":12039070525,"category":"wine_shop","name":"好烟好酒","tags":{"name":"好烟好酒","shop":"wine"}}},{"type":"Feature","id":"node/12039070540","geometry":{"type":"Point","coordinates":[126.9668609,46.6456467]},"properties":{"osm_type":"node","osm_id":12039070540,"category":"wine_shop","name":"919酒类直供(黄河北路店)","tags":{"name":"919酒类直供(黄河北路店)","shop":"wine"}}},{"type":"Feature","id":"node/12091515114","geometry":{"type":"Point","coordinates":[121.6602353,31.7957896]},"properties":{"osm_type":"node","osm_id":12091515114,"category":"wine_shop","name":"小马烟酒","tags":{"name":"小马烟酒","shop":"wine"}}},{"type":"Feature","id":"node/12111518676","geometry":{"type":"Point","coordinates":[126.9653047,46.6445821]},"properties":{"osm_type":"node","osm_id":12111518676,"category":"wine_shop","name":"八旗酒业","tags":{"name":"八旗酒业","shop":"wine"}}},{"type":"Feature","id":"node/12113878145","geometry":{"type":"Point","coordinates":[113.7513292,23.024158]},"properties":{"osm_type":"node","osm_id":12113878145,"category":"wine_shop","tags":{"shop":"wine"}}},{"type":"Feature","id":"node/12161938158","geometry":{"type":"Point","coordinates":[103.8895574,30.7953679]},"properties":{"osm_type":"node","osm_id":12161938158,"category":"wine_shop","name":"水井坊","tags":{"name":"水井坊","shop":"wine"}}},{"type":"Feature","id":"node/12178476147","geometry":{"type":"Point","coordinates":[120.6512697,27.9191856]},"properties":{"osm_type":"node","osm_id":12178476147,"category":"wine_shop","name":"卡托尼酒庄","tags":{"name":"卡托尼酒庄","shop":"wine"}}},{"type":"Feature","id":"node/12197197695","geometry":{"type":"Point","coordinates":[116.732154,39.9062817]},"properties":{"osm_type":"node","osm_id":12197197695,"category":"wine_shop","name":"京华烟云","tags":{"name":"京华烟云","shop":"wine"}}},{"type":"Feature","id":"node/12252432344","geometry":{"type":"Point","coordinates":[116.1916781,39.9275973]},"properties":{"osm_type":"node","osm_id":12252432344,"category":"wine_shop","name":"点点通电竞酒店","tags":{"name":"点点通电竞酒店","shop":"wine"}}},{"type":"Feature","id":"node/12348584696","geometry":{"type":"Point","coordinates":[100.2177642,25.5883585]},"properties":{"osm_type":"node","osm_id":12348584696,"category":"wine_shop","name":"百芭乐","tags":{"name":"百芭乐","shop":"wine"}}},{"type":"Feature","id":"node/12431287558","geometry":{"type":"Point","coordinates":[114.1959289,22.3251844]},"properties":{"osm_type":"node","osm_id":12431287558,"category":"wine_shop","name":"Sake Z Plus","tags":{"addr:housenumber":"38","addr:street":"承啟道 Shing Kai Road","name":"Sake Z Plus","opening_hours":"Mo-Su 10:00-22:00","phone":"+852 6364 6611","shop":"wine"}}},{"type":"Feature","id":"node/12460404482","geometry":{"type":"Point","coordinates":[106.403398,23.1462242]},"properties":{"osm_type":"node","osm_id":12460404482,"category":"wine_shop","name":"梦之蓝","tags":{"name":"梦之蓝","shop":"wine"}}},{"type":"Feature","id":"node/12466796422","geometry":{"type":"Point","coordinates":[104.0054321,30.6605927]},"properties":{"osm_type":"node","osm_id":12466796422,"category":"wine_shop","name":"四道诺登法国葡萄酒专卖","tags":{"name":"四道诺登法国葡萄酒专卖","shop":"wine"}}},{"type":"Feature","id":"node/12509259877","geometry":{"type":"Point","coordinates":[104.0886673,30.5510334]},"properties":{"osm_type":"node","osm_id":12509259877,"category":"wine_shop","name":"升湖金尊酒","tags":{"name":"升湖金尊酒","shop":"wine"}}},{"type":"Feature","id":"node/12514848366","geometry":{"type":"Point","coordinates":[104.1236614,30.6760179]},"properties":{"osm_type":"node","osm_id":12514848366,"category":"wine_shop","name":"江津白酒","tags":{"name":"江津白酒","shop":"wine"}}},{"type":"Feature","id":"node/12514848654","geometry":{"type":"Point","coordinates":[104.0652779,30.5296346]},"properties":{"osm_type":"node","osm_id":12514848654,"category":"wine_shop","name":"弘吉烟酒(华府大道一段店)","tags":{"name":"弘吉烟酒(华府大道一段店)","shop":"wine"}}},{"type":"Feature","id":"node/12536082244","geometry":{"type":"Point","coordinates":[108.3479206,21.6360703]},"properties":{"osm_type":"node","osm_id":12536082244,"category":"wine_shop","name":"泽华商行","tags":{"name":"泽华商行","shop":"wine"}}},{"type":"Feature","id":"node/12553893029","geometry":{"type":"Point","coordinates":[104.0994319,30.6291574]},"properties":{"osm_type":"node","osm_id":12553893029,"category":"wine_shop","name":"水井坊(牛沙后街店)","tags":{"name":"水井坊(牛沙后街店)","shop":"wine"}}},{"type":"Feature","id":"node/12555860596","geometry":{"type":"Point","coordinates":[104.1000218,30.6461004]},"properties":{"osm_type":"node","osm_id":12555860596,"category":"wine_shop","name":"泸州老窖官方旗舰店(东大街锦东路店)","tags":{"name":"泸州老窖官方旗舰店(东大街锦东路店)","shop":"wine"}}},{"type":"Feature","id":"node/12555907085","geometry":{"type":"Point","coordinates":[104.1002542,30.6428763]},"properties":{"osm_type":"node","osm_id":12555907085,"category":"wine_shop","name":"泸州老窖","tags":{"name":"泸州老窖","shop":"wine"}}},{"type":"Feature","id":"node/12555907473","geometry":{"type":"Point","coordinates":[104.1008908,30.6389166]},"properties":{"osm_type":"node","osm_id":12555907473,"category":"wine_shop","name":"原生态纯高粱酒(海椒市东街店)","tags":{"name":"原生态纯高粱酒(海椒市东街店)","shop":"wine"}}},{"type":"Feature","id":"node/12555907474","geometry":{"type":"Point","coordinates":[104.1008217,30.6389323]},"properties":{"osm_type":"node","osm_id":12555907474,"category":"wine_shop","name":"脸红熊猫·中国精酿(海椒市店)","tags":{"name":"脸红熊猫·中国精酿(海椒市店)","shop":"wine"}}},{"type":"Feature","id":"node/12556579358","geometry":{"type":"Point","coordinates":[116.3879705,39.9461193]},"properties":{"osm_type":"node","osm_id":12556579358,"category":"winery","name":"东诚酒业","tags":{"craft":"winery","name":"东诚酒业"}}},{"type":"Feature","id":"node/12556796630","geometry":{"type":"Point","coordinates":[104.1287189,30.678525]},"properties":{"osm_type":"node","osm_id":12556796630,"category":"wine_shop","name":"贵州茅台专卖店(成都市二仙桥东路店)","tags":{"name":"贵州茅台专卖店(成都市二仙桥东路店)","shop":"wine"}}},{"type":"Feature","id":"node/12558978344","geometry":{"type":"Point","coordinates":[104.1347508,30.648061]},"properties":{"osm_type":"node","osm_id":12558978344,"category":"wine_shop","name":"米兰酒庄","tags":{"name":"米兰酒庄","shop":"wine"}}},{"type":"Feature","id":"node/12560984354","geometry":{"type":"Point","coordinates":[104.1555819,30.630746]},"properties":{"osm_type":"node","osm_id":12560984354,"category":"wine_shop","name":"金剑南(和韵西路店)","tags":{"name":"金剑南(和韵西路店)","shop":"wine"}}},{"type":"Feature","id":"node/12562217844","geometry":{"type":"Point","coordinates":[104.1355662,30.6192281]},"properties":{"osm_type":"node","osm_id":12562217844,"category":"wine_shop","name":"通惠酒水(通惠店)","tags":{"name":"通惠酒水(通惠店)","shop":"wine"}}},{"type":"Feature","id":"node/12565840282","geometry":{"type":"Point","coordinates":[104.1226265,30.6199909]},"properties":{"osm_type":"node","osm_id":12565840282,"category":"wine_shop","name":"豪庆酒窖","tags":{"name":"豪庆酒窖","shop":"wine"}}},{"type":"Feature","id":"node/12565840323","geometry":{"type":"Point","coordinates":[104.1240349,30.619134]},"properties":{"osm_type":"node","osm_id":12565840323,"category":"wine_shop","name":"泰山原浆啤酒(东门市井店)","tags":{"name":"泰山原浆啤酒(东门市井店)","shop":"wine"}}},{"type":"Feature","id":"node/12565840614","geometry":{"type":"Point","coordinates":[104.1261409,30.6136079]},"properties":{"osm_type":"node","osm_id":12565840614,"category":"wine_shop","name":"红云烟酒","tags":{"name":"红云烟酒","shop":"wine"}}},{"type":"Feature","id":"node/12568190890","geometry":{"type":"Point","coordinates":[104.1525161,30.5916418]},"properties":{"osm_type":"node","osm_id":12568190890,"category":"wine_shop","name":"国窖1573御品轩烟酒商行(银杏大道店)","tags":{"name":"国窖1573御品轩烟酒商行(银杏大道店)","shop":"wine"}}},{"type":"Feature","id":"node/12579215795","geometry":{"type":"Point","coordinates":[103.9978022,30.6658272]},"properties":{"osm_type":"node","osm_id":12579215795,"category":"wine_shop","name":"国窖1573(瑞南街店)","tags":{"name":"国窖1573(瑞南街店)","shop":"wine"}}},{"type":"Feature","id":"node/12584776161","geometry":{"type":"Point","coordinates":[104.0341043,30.6704407]},"properties":{"osm_type":"node","osm_id":12584776161,"category":"wine_shop","name":"泸州老窖专卖店","tags":{"name":"泸州老窖专卖店","shop":"wine"}}},{"type":"Feature","id":"node/12587052801","geometry":{"type":"Point","coordinates":[119.5833118,39.9294018]},"properties":{"osm_type":"node","osm_id":12587052801,"category":"wine_shop","name":"茅台葡萄酒专卖店","tags":{"name":"茅台葡萄酒专卖店","opening_hours":"Mo-Su 09:00-18:30","phone":"+8615232349995","shop":"wine"}}},{"type":"Feature","id":"node/12587683847","geometry":{"type":"Point","coordinates":[109.4085764,24.2963265]},"properties":{"osm_type":"node","osm_id":12587683847,"category":"wine_shop","name":"贵州珍酒","tags":{"name":"贵州珍酒","shop":"wine"}}},{"type":"Feature","id":"node/12598667844","geometry":{"type":"Point","coordinates":[104.0316009,30.7009977]},"properties":{"osm_type":"node","osm_id":12598667844,"category":"wine_shop","tags":{"shop":"wine"}}},{"type":"Feature","id":"node/12603872811","geometry":{"type":"Point","coordinates":[104.0228624,30.7070281]},"properties":{"osm_type":"node","osm_id":12603872811,"category":"wine_shop","name":"佳和鑫酒业","tags":{"name":"佳和鑫酒业","shop":"wine"}}},{"type":"Feature","id":"node/12614924856","geometry":{"type":"Point","coordinates":[104.026824,30.6074945]},"properties":{"osm_type":"node","osm_id":12614924856,"category":"wine_shop","name":"剑南春","tags":{"name":"剑南春","shop":"wine"}}},{"type":"Feature","id":"node/12620423428","geometry":{"type":"Point","coordinates":[104.0613822,30.7083918]},"properties":{"osm_type":"node","osm_id":12620423428,"category":"wine_shop","name":"佳鑫商贸","tags":{"name":"佳鑫商贸","shop":"wine"}}},{"type":"Feature","id":"node/12620626140","geometry":{"type":"Point","coordinates":[104.0722464,30.7028824]},"properties":{"osm_type":"node","osm_id":12620626140,"category":"wine_shop","name":"丰谷酒业","tags":{"name":"丰谷酒业","shop":"wine"}}},{"type":"Feature","id":"node/12628198527","geometry":{"type":"Point","coordinates":[104.0389138,30.6046968]},"properties":{"osm_type":"node","osm_id":12628198527,"category":"wine_shop","name":"千佛白酒纯高粱酒","tags":{"name":"千佛白酒纯高粱酒","shop":"wine"}}},{"type":"Feature","id":"node/12638805449","geometry":{"type":"Point","coordinates":[104.1129356,30.5913358]},"properties":{"osm_type":"node","osm_id":12638805449,"category":"wine_shop","name":"子阳酒业","tags":{"name":"子阳酒业","shop":"wine"}}},{"type":"Feature","id":"node/12662829186","geometry":{"type":"Point","coordinates":[104.1797158,30.7344698]},"properties":{"osm_type":"node","osm_id":12662829186,"category":"wine_shop","name":"醉妙酒水","tags":{"name":"醉妙酒水","shop":"wine"}}},{"type":"Feature","id":"node/12679981601","geometry":{"type":"Point","coordinates":[131.8701035,45.5399747]},"properties":{"osm_type":"node","osm_id":12679981601,"category":"wine_shop","tags":{"name:ru":"Алкомаркет","shop":"wine"}}},{"type":"Feature","id":"node/12712342535","geometry":{"type":"Point","coordinates":[104.277498,30.9870818]},"properties":{"osm_type":"node","osm_id":12712342535,"category":"wine_shop","name":"泸州老窖","tags":{"name":"泸州老窖","shop":"wine"}}},{"type":"Feature","id":"node/12750123003","geometry":{"type":"Point","coordinates":[113.2877842,23.3733487]},"properties":{"osm_type":"node","osm_id":12750123003,"category":"wine_shop","name":"Tobacco Alcohol Tea","tags":{"name":"Tobacco Alcohol Tea","shop":"wine"}}},{"type":"Feature","id":"node/12811610259","geometry":{"type":"Point","coordinates":[121.5931429,31.2793887]},"properties":{"osm_type":"node","osm_id":12811610259,"category":"wine_shop","name":"仁来丰","tags":{"name":"仁来丰","shop":"wine"}}},{"type":"Feature","id":"node/13039867826","geometry":{"type":"Point","coordinates":[112.4593394,23.0535328]},"properties":{"osm_type":"node","osm_id":13039867826,"category":"wine_shop","name":"盛宝烟酒商行","tags":{"name":"盛宝烟酒商行","shop":"wine"}}},{"type":"Feature","id":"node/13052299530","geometry":{"type":"Point","coordinates":[114.1623645,22.3246299]},"properties":{"osm_type":"node","osm_id":13052299530,"category":"wine_shop","name":"點酒網 Click Your Wine","tags":{"addr:city":"Tai Kok Tsui","addr:country":"HK","addr:housenumber":"123","addr:street":"通州街 Tung Chau Street","name":"點酒網 Click Your Wine","name:en":"Click Your Wine","name:zh":"點酒網","opening_hours":"Mo-Fr 09:30-18:30","shop":"wine","wheelchair":"yes"}}},{"type":"Feature","id":"node/13062856012","geometry":{"type":"Point","coordinates":[112.4909813,23.0857497]},"properties":{"osm_type":"node","osm_id":13062856012,"category":"wine_shop","name":"五粮液专卖店","tags":{"name":"五粮液专卖店","shop":"wine"}}},{"type":"Feature","id":"node/13071012421","geometry":{"type":"Point","coordinates":[121.5123942,31.2822759]},"properties":{"osm_type":"node","osm_id":13071012421,"category":"wine_shop","name":"嘉宏烟酒","tags":{"name":"嘉宏烟酒","shop":"wine"}}},{"type":"Feature","id":"node/13071012422","geometry":{"type":"Point","coordinates":[121.5124094,31.282232]},"properties":{"osm_type":"node","osm_id":13071012422,"category":"wine_shop","name":"国酿1959","tags":{"name":"国酿1959","shop":"wine"}}},{"type":"Feature","id":"node/13075916015","geometry":{"type":"Point","coordinates":[121.3156185,31.2977649]},"properties":{"osm_type":"node","osm_id":13075916015,"category":"wine_shop","name":"洪锋烟酒商行","tags":{"name":"洪锋烟酒商行","shop":"wine"}}},{"type":"Feature","id":"node/13081566175","geometry":{"type":"Point","coordinates":[112.4991364,23.0593606]},"properties":{"osm_type":"node","osm_id":13081566175,"category":"wine_shop","name":"通源烟酒商行","tags":{"name":"通源烟酒商行","shop":"wine"}}},{"type":"Feature","id":"node/13081591611","geometry":{"type":"Point","coordinates":[112.4560862,23.0485439]},"properties":{"osm_type":"node","osm_id":13081591611,"category":"wine_shop","name":"华夏烟酒行","tags":{"name":"华夏烟酒行","shop":"wine"}}},{"type":"Feature","id":"node/13095982993","geometry":{"type":"Point","coordinates":[118.1902799,39.6272534]},"properties":{"osm_type":"node","osm_id":13095982993,"category":"wine_shop","name":"馨亚酒楼","tags":{"name":"馨亚酒楼","shop":"wine"}}},{"type":"Feature","id":"node/13228044504","geometry":{"type":"Point","coordinates":[113.3641988,22.1321066]},"properties":{"osm_type":"node","osm_id":13228044504,"category":"wine_shop","tags":{"shop":"wine"}}},{"type":"Feature","id":"node/13275944901","geometry":{"type":"Point","coordinates":[127.4949206,50.2375371]},"properties":{"osm_type":"node","osm_id":13275944901,"category":"wine_shop","name":"小酒喔酒类直供(黑河龙源店)","tags":{"addr:housenumber":"123","addr:street":"龙源路","name":"小酒喔酒类直供(黑河龙源店)","shop":"wine"}}},{"type":"Feature","id":"node/13337738372","geometry":{"type":"Point","coordinates":[117.8211346,24.1751614]},"properties":{"osm_type":"node","osm_id":13337738372,"category":"wine_shop","name":"秦皇岛大洋酒业","tags":{"name":"秦皇岛大洋酒业","name:en":"Qinhuangdao Dayang Wine Business","name:zh-Hant":"秦皇島大洋酒業","shop":"wine"}}},{"type":"Feature","id":"node/13339889157","geometry":{"type":"Point","coordinates":[102.7193008,25.0338458]},"properties":{"osm_type":"node","osm_id":13339889157,"category":"wine_shop","name":"睿麒进口红酒体验店","tags":{"name":"睿麒进口红酒体验店","shop":"wine"}}},{"type":"Feature","id":"node/13351206558","geometry":{"type":"Point","coordinates":[115.8899348,28.6617276]},"properties":{"osm_type":"node","osm_id":13351206558,"category":"wine_shop","name":"兴旺烟酒商行","tags":{"name":"兴旺烟酒商行","shop":"wine"}}},{"type":"Feature","id":"node/13387881548","geometry":{"type":"Point","coordinates":[114.1511616,22.2803429]},"properties":{"osm_type":"node","osm_id":13387881548,"category":"wine_shop","name":"紅酒公會 The Wine Guild","tags":{"addr:housenumber":"31-37","addr:street":"摩羅廟街 Mosque Street","name":"紅酒公會 The Wine Guild","name:en":"The Wine Guild","name:zh":"紅酒公會","shop":"wine","wheelchair":"yes"}}},{"type":"Feature","id":"node/13410172292","geometry":{"type":"Point","coordinates":[125.4000925,41.9749755]},"properties":{"osm_type":"node","osm_id":13410172292,"category":"wine_shop","name":"甘杯满溢酒坊","tags":{"name":"甘杯满溢酒坊","shop":"wine"}}},{"type":"Feature","id":"node/13444709106","geometry":{"type":"Point","coordinates":[120.359903,36.1254317]},"properties":{"osm_type":"node","osm_id":13444709106,"category":"winery","name":"青岛葡萄酒厂","tags":{"craft":"winery","name":"青岛葡萄酒厂"}}},{"type":"Feature","id":"node/13447574835","geometry":{"type":"Point","coordinates":[114.1740415,22.2737583]},"properties":{"osm_type":"node","osm_id":13447574835,"category":"wine_shop","name":"紅酒公會 The Wine Guild","tags":{"addr:housenumber":"31-37","addr:street":"摩羅廟街 Mosque Street","name":"紅酒公會 The Wine Guild","name:en":"The Wine Guild","name:zh":"紅酒公會","shop":"wine","wheelchair":"no"}}},{"type":"Feature","id":"node/13503150528","geometry":{"type":"Point","coordinates":[104.9628761,37.5106637]},"properties":{"osm_type":"node","osm_id":13503150528,"category":"wine_shop","name":"沙坡头沙漠钻石酒店","tags":{"name":"沙坡头沙漠钻石酒店","shop":"wine"}}},{"type":"Feature","id":"node/13503150564","geometry":{"type":"Point","coordinates":[105.0201805,37.5206351]},"properties":{"osm_type":"node","osm_id":13503150564,"category":"wine_shop","name":"中卫腾格里星旅沙漠酒店","tags":{"name":"中卫腾格里星旅沙漠酒店","shop":"wine"}}},{"type":"Feature","id":"node/13503150594","geometry":{"type":"Point","coordinates":[104.9942971,37.5250736]},"properties":{"osm_type":"node","osm_id":13503150594,"category":"wine_shop","name":"朔漠·隐舍亲子酒店","tags":{"name":"朔漠·隐舍亲子酒店","shop":"wine"}}},{"type":"Feature","id":"node/13503160221","geometry":{"type":"Point","coordinates":[104.9897651,37.5438841]},"properties":{"osm_type":"node","osm_id":13503160221,"category":"wine_shop","name":"夜宿·驿旅星辰沙漠酒店","tags":{"name":"夜宿·驿旅星辰沙漠酒店","shop":"wine"}}},{"type":"Feature","id":"node/13543645628","geometry":{"type":"Point","coordinates":[113.5912635,24.7899848]},"properties":{"osm_type":"node","osm_id":13543645628,"category":"wine_shop","name":"水井坊·第一坊","tags":{"name":"水井坊·第一坊","shop":"wine"}}},{"type":"Feature","id":"node/13577491802","geometry":{"type":"Point","coordinates":[107.190989,30.3145724]},"properties":{"osm_type":"node","osm_id":13577491802,"category":"wine_shop","name":"包氏纯粮白酒","tags":{"addr:housenumber":"463","addr:street":"长兴街","name":"包氏纯粮白酒","shop":"wine"}}},{"type":"Feature","id":"node/13580717380","geometry":{"type":"Point","coordinates":[120.3828634,36.1722507]},"properties":{"osm_type":"node","osm_id":13580717380,"category":"wine_shop","name":"酒号公社","tags":{"name":"酒号公社","shop":"wine"}}},{"type":"Feature","id":"node/13611101287","geometry":{"type":"Point","coordinates":[102.7325012,25.0243638]},"properties":{"osm_type":"node","osm_id":13611101287,"category":"wine_shop","name":"金鼎红酒坊","tags":{"addr:city":"昆明市","addr:housenumber":"366","addr:street":"吴井路","name":"金鼎红酒坊","shop":"wine"}}},{"type":"Feature","id":"node/13645572593","geometry":{"type":"Point","coordinates":[117.7498374,39.3522069]},"properties":{"osm_type":"node","osm_id":13645572593,"category":"wine_shop","name":"宁河源酒业","tags":{"name":"宁河源酒业","shop":"wine"}}},{"type":"Feature","id":"node/13646965202","geometry":{"type":"Point","coordinates":[126.3108586,45.3838298]},"properties":{"osm_type":"node","osm_id":13646965202,"category":"wine_shop","name":"乾昊烟酒行","tags":{"name":"乾昊烟酒行","shop":"wine"}}},{"type":"Feature","id":"node/13660340217","geometry":{"type":"Point","coordinates":[114.0385187,22.2834421]},"properties":{"osm_type":"node","osm_id":13660340217,"category":"wine_shop","name":"Lou Natural Wine","tags":{"addr:city":"坪洲 Peng Chau","addr:housenumber":"38C","addr:street":"永興街 Wing Hing Street","name":"Lou Natural Wine","shop":"wine"}}},{"type":"Feature","id":"node/13672838118","geometry":{"type":"Point","coordinates":[114.3633375,30.5194831]},"properties":{"osm_type":"node","osm_id":13672838118,"category":"wine_shop","name":"聚义烟酒超市","tags":{"name":"聚义烟酒超市","shop":"wine"}}},{"type":"Feature","id":"node/13685384902","geometry":{"type":"Point","coordinates":[114.3667977,30.5313583]},"properties":{"osm_type":"node","osm_id":13685384902,"category":"wine_shop","name":"嘉业酒仓","tags":{"name":"嘉业酒仓","shop":"wine"}}},{"type":"Feature","id":"node/13719171886","geometry":{"type":"Point","coordinates":[117.2625974,39.1044386]},"properties":{"osm_type":"node","osm_id":13719171886,"category":"wine_shop","name":"歪马送酒","tags":{"name":"歪马送酒","shop":"wine"}}},{"type":"Feature","id":"node/13726985775","geometry":{"type":"Point","coordinates":[116.7256323,39.9101638]},"properties":{"osm_type":"node","osm_id":13726985775,"category":"wine_shop","name":"亿丰烟酒茶行","tags":{"name":"亿丰烟酒茶行","shop":"wine"}}},{"type":"Feature","id":"node/13739877121","geometry":{"type":"Point","coordinates":[111.6772431,29.0651117]},"properties":{"osm_type":"node","osm_id":13739877121,"category":"wine_shop","name":"五粮液专卖店","tags":{"addr:city":"常德市","addr:housenumber":"1252","addr:postcode":"415001","addr:street":"皂果路","name":"五粮液专卖店","shop":"wine"}}},{"type":"Feature","id":"node/13798201047","geometry":{"type":"Point","coordinates":[110.3878426,18.7930791]},"properties":{"osm_type":"node","osm_id":13798201047,"category":"wine_shop","name":"威隆菸酒商行","tags":{"name":"威隆菸酒商行","name:en":"Weilong Tobacco and Liquor Store","shop":"wine","wheelchair":"no"}}},{"type":"Feature","id":"node/13824039714","geometry":{"type":"Point","coordinates":[119.9193828,31.3137028]},"properties":{"osm_type":"node","osm_id":13824039714,"category":"wine_shop","name":"古承老曲","tags":{"name":"古承老曲","shop":"wine"}}},{"type":"Feature","id":"node/13830261490","geometry":{"type":"Point","coordinates":[102.7074265,25.0420494]},"properties":{"osm_type":"node","osm_id":13830261490,"category":"wine_shop","tags":{"shop":"wine"}}},{"type":"Feature","id":"way/183602778","geometry":{"type":"Point","coordinates":[120.5324878,29.9639081]},"properties":{"osm_type":"way","osm_id":183602778,"category":"vineyard","name":"联合葡萄园","tags":{"landuse":"vineyard","name":"联合葡萄园"}}},{"type":"Feature","id":"way/183602779","geometry":{"type":"Point","coordinates":[120.5321576,29.9642841]},"properties":{"osm_type":"way","osm_id":183602779,"category":"vineyard","name":"联合葡萄园","tags":{"landuse":"vineyard","name":"联合葡萄园"}}},{"type":"Feature","id":"way/240677146","geometry":{"type":"Point","coordinates":[117.4258919,35.090426]},"properties":{"osm_type":"way","osm_id":240677146,"category":"wine_shop","tags":{"building":"yes","shop":"wine"}}},{"type":"Feature","id":"way/267929730","geometry":{"type":"Point","coordinates":[114.3385918,30.5124195]},"properties":{"osm_type":"way","osm_id":267929730,"category":"wine_shop","name":"九龙大酒店","tags":{"building":"yes","name":"九龙大酒店","shop":"wine"}}},{"type":"Feature","id":"way/297136346","geometry":{"type":"Point","coordinates":[121.4629252,31.0490788]},"properties":{"osm_type":"way","osm_id":297136346,"category":"wine_shop","tags":{"building":"yes","shop":"wine"}}},{"type":"Feature","id":"way/297136922","geometry":{"type":"Point","coordinates":[121.4605127,31.0520829]},"properties":{"osm_type":"way","osm_id":297136922,"category":"wine_shop","tags":{"building":"yes","shop":"wine"}}},{"type":"Feature","id":"way/299841121","geometry":{"type":"Point","coordinates":[125.3198271,43.8553753]},"properties":{"osm_type":"way","osm_id":299841121,"category":"wine_shop","name":"海航紫荆花大酒店","tags":{"building":"yes","name":"海航紫荆花大酒店","shop":"wine"}}},{"type":"Feature","id":"way/303000279","geometry":{"type":"Point","coordinates":[86.0499609,44.2513209]},"properties":{"osm_type":"way","osm_id":303000279,"category":"vineyard","name":"新疆张裕巴保男爵酒庄","tags":{"craft":"brewery","landuse":"vineyard","name":"新疆张裕巴保男爵酒庄"}}},{"type":"Feature","id":"way/304168875","geometry":{"type":"Point","coordinates":[125.3064439,43.8890076]},"properties":{"osm_type":"way","osm_id":304168875,"category":"wine_shop","name":"金都饭店","tags":{"building":"yes","name":"金都饭店","name:en":"Jindu Hotel","shop":"wine"}}},{"type":"Feature","id":"way/318198197","geometry":{"type":"Point","coordinates":[118.7955569,32.0399463]},"properties":{"osm_type":"way","osm_id":318198197,"category":"wine_shop","name":"七天连锁酒店","tags":{"building":"yes","name":"七天连锁酒店","shop":"wine"}}},{"type":"Feature","id":"way/322238626","geometry":{"type":"Point","coordinates":[117.3336844,34.8039547]},"properties":{"osm_type":"way","osm_id":322238626,"category":"wine_shop","name":"恒隆假日酒店","tags":{"building":"yes","name":"恒隆假日酒店","shop":"wine"}}},{"type":"Feature","id":"way/323226172","geometry":{"type":"Point","coordinates":[117.3098571,34.8070679]},"properties":{"osm_type":"way","osm_id":323226172,"category":"wine_shop","name":"锦丽华随缘阁酒店","tags":{"building":"yes","name":"锦丽华随缘阁酒店","phone":"+86 632 888 8899","shop":"wine"}}},{"type":"Feature","id":"way/324948756","geometry":{"type":"Point","coordinates":[121.2602833,28.6396493]},"properties":{"osm_type":"way","osm_id":324948756,"category":"wine_shop","name":"罗曼国际大酒店","tags":{"building":"yes","name":"罗曼国际大酒店","shop":"wine"}}},{"type":"Feature","id":"way/324955630","geometry":{"type":"Point","coordinates":[121.2739362,28.6443952]},"properties":{"osm_type":"way","osm_id":324955630,"category":"wine_shop","name":"黄岩国际大酒店","tags":{"building":"yes","name":"黄岩国际大酒店","shop":"wine"}}},{"type":"Feature","id":"way/325209626","geometry":{"type":"Point","coordinates":[117.2922482,31.8453261]},"properties":{"osm_type":"way","osm_id":325209626,"category":"wine_shop","name":"锦怡园宾馆","tags":{"building":"yes","name":"锦怡园宾馆","shop":"wine"}}},{"type":"Feature","id":"way/326493800","geometry":{"type":"Point","coordinates":[115.4465036,35.2346131]},"properties":{"osm_type":"way","osm_id":326493800,"category":"wine_shop","name":"水邑柏青","tags":{"building":"yes","name":"水邑柏青","shop":"wine"}}},{"type":"Feature","id":"way/327730111","geometry":{"type":"Point","coordinates":[119.1352451,36.7026977]},"properties":{"osm_type":"way","osm_id":327730111,"category":"wine_shop","name":"丽华好日子酒店","tags":{"building":"yes","name":"丽华好日子酒店","shop":"wine"}}},{"type":"Feature","id":"way/331537627","geometry":{"type":"Point","coordinates":[120.1580047,30.2711253]},"properties":{"osm_type":"way","osm_id":331537627,"category":"wine_shop","name":"浙江大酒店","tags":{"building":"yes","name":"浙江大酒店","shop":"wine"}}},{"type":"Feature","id":"way/341196910","geometry":{"type":"Point","coordinates":[117.4258447,35.0904915]},"properties":{"osm_type":"way","osm_id":341196910,"category":"wine_shop","name":"银都大酒店","tags":{"name":"银都大酒店","shop":"wine"}}},{"type":"Feature","id":"way/342740562","geometry":{"type":"Point","coordinates":[117.0429229,36.2139633]},"properties":{"osm_type":"way","osm_id":342740562,"category":"wine_shop","tags":{"building":"yes","shop":"wine"}}},{"type":"Feature","id":"way/355516837","geometry":{"type":"Point","coordinates":[117.0899991,36.2010358]},"properties":{"osm_type":"way","osm_id":355516837,"category":"wine_shop","name":"丽景新天地","tags":{"building":"yes","name":"丽景新天地","name:en":"Panaroma Hotel","shop":"wine"}}},{"type":"Feature","id":"way/369024401","geometry":{"type":"Point","coordinates":[117.8173739,31.5796508]},"properties":{"osm_type":"way","osm_id":369024401,"category":"wine_shop","name":"巢湖碧桂园凤凰酒店","tags":{"name":"巢湖碧桂园凤凰酒店","shop":"wine"}}},{"type":"Feature","id":"way/373171758","geometry":{"type":"Point","coordinates":[118.2439102,24.6195695]},"properties":{"osm_type":"way","osm_id":373171758,"category":"wine_shop","name":"葛翔大酒店","tags":{"building":"yes","name":"葛翔大酒店","shop":"wine"}}},{"type":"Feature","id":"way/374976603","geometry":{"type":"Point","coordinates":[119.4192427,31.3011214]},"properties":{"osm_type":"way","osm_id":374976603,"category":"wine_shop","name":"涵田度假村酒店","tags":{"addr:city":"溧阳市","addr:housenumber":"88号","addr:postcode":"213333","addr:street":"东园路","building":"yes","name":"涵田度假村酒店","operator":"溧阳亚东实业","shop":"wine","website":"http://www.hentique.com/"}}},{"type":"Feature","id":"way/374976604","geometry":{"type":"Point","coordinates":[119.4203093,31.3015355]},"properties":{"osm_type":"way","osm_id":374976604,"category":"wine_shop","tags":{"building":"yes","shop":"wine"}}},{"type":"Feature","id":"way/374976605","geometry":{"type":"Point","coordinates":[119.4194785,31.3002373]},"properties":{"osm_type":"way","osm_id":374976605,"category":"wine_shop","tags":{"building":"yes","shop":"wine"}}},{"type":"Feature","id":"way/375970484","geometry":{"type":"Point","coordinates":[119.427829,31.3166817]},"properties":{"osm_type":"way","osm_id":375970484,"category":"wine_shop","name":"静泊山庄","tags":{"name":"静泊山庄","phone":"+86 519 8716 9999","shop":"wine","website":"http://www.tmhjphotel.com.cn/"}}},{"type":"Feature","id":"way/375970492","geometry":{"type":"Point","coordinates":[119.4274044,31.3178712]},"properties":{"osm_type":"way","osm_id":375970492,"category":"wine_shop","name":"水悦山庄","tags":{"name":"水悦山庄","shop":"wine"}}},{"type":"Feature","id":"way/375970503","geometry":{"type":"Point","coordinates":[119.4306184,31.3194576]},"properties":{"osm_type":"way","osm_id":375970503,"category":"wine_shop","name":"天目湖金峰度假饭店","tags":{"building":"yes","name":"天目湖金峰度假饭店","name:en":"Tianmugu Jinfeng Holiday Hotel","shop":"wine"}}},{"type":"Feature","id":"way/375970510","geometry":{"type":"Point","coordinates":[119.4302953,31.3179791]},"properties":{"osm_type":"way","osm_id":375970510,"category":"wine_shop","name":"假日花园酒店","tags":{"building":"yes","name":"假日花园酒店","shop":"wine"}}},{"type":"Feature","id":"way/375970511","geometry":{"type":"Point","coordinates":[119.4306337,31.317666]},"properties":{"osm_type":"way","osm_id":375970511,"category":"wine_shop","tags":{"building":"yes","shop":"wine"}}},{"type":"Feature","id":"way/375970512","geometry":{"type":"Point","coordinates":[119.4301371,31.3177198]},"properties":{"osm_type":"way","osm_id":375970512,"category":"wine_shop","tags":{"building":"yes","shop":"wine"}}},{"type":"Feature","id":"way/376388300","geometry":{"type":"Point","coordinates":[118.4993648,31.6795451]},"properties":{"osm_type":"way","osm_id":376388300,"category":"wine_shop","name":"海外海大酒店","tags":{"building":"yes","name":"海外海大酒店","shop":"wine"}}},{"type":"Feature","id":"way/384156758","geometry":{"type":"Point","coordinates":[117.308198,35.808313]},"properties":{"osm_type":"way","osm_id":384156758,"category":"wine_shop","name":"岚鑫湖度假村酒店","tags":{"building":"commercial","name":"岚鑫湖度假村酒店","shop":"wine"}}},{"type":"Feature","id":"way/385226590","geometry":{"type":"Point","coordinates":[113.4701785,22.5153867]},"properties":{"osm_type":"way","osm_id":385226590,"category":"wine_shop","name":"保利王子酒店","tags":{"building":"yes","name":"保利王子酒店","name:zh":"保利王子酒店","shop":"wine"}}},{"type":"Feature","id":"way/386112246","geometry":{"type":"Point","coordinates":[113.4073045,22.4840048]},"properties":{"osm_type":"way","osm_id":386112246,"category":"wine_shop","name":"中山长命水海逸酒店","tags":{"addr:housenumber":"9","addr:street":"长命水大街","landuse":"commercial","name":"中山长命水海逸酒店","name:zh":"中山长命水海逸酒店","shop":"wine"}}},{"type":"Feature","id":"way/386430003","geometry":{"type":"Point","coordinates":[113.5232116,22.5077156]},"properties":{"osm_type":"way","osm_id":386430003,"category":"wine_shop","name":"南朗雅居乐酒店","tags":{"name":"南朗雅居乐酒店","name:zh":"南朗雅居乐酒店","shop":"wine"}}},{"type":"Feature","id":"way/391364940","geometry":{"type":"Point","coordinates":[119.5618343,26.6653647]},"properties":{"osm_type":"way","osm_id":391364940,"category":"wine_shop","name":"华尔道夫世鸿大酒店","tags":{"building":"yes","name":"华尔道夫世鸿大酒店","shop":"wine"}}},{"type":"Feature","id":"way/427776096","geometry":{"type":"Point","coordinates":[119.5795762,32.4100891]},"properties":{"osm_type":"way","osm_id":427776096,"category":"wine_shop","name":"方正国际酒店","tags":{"building":"yes","name":"方正国际酒店","shop":"wine"}}},{"type":"Feature","id":"way/427776097","geometry":{"type":"Point","coordinates":[119.5873626,32.412632]},"properties":{"osm_type":"way","osm_id":427776097,"category":"wine_shop","name":"双汇国际大酒店","tags":{"building":"yes","name":"双汇国际大酒店","shop":"wine"}}},{"type":"Feature","id":"way/473044077","geometry":{"type":"Point","coordinates":[105.7271771,29.6945889]},"properties":{"osm_type":"way","osm_id":473044077,"category":"wine_shop","name":"华帝王朝","tags":{"building":"yes","name":"华帝王朝","shop":"wine"}}},{"type":"Feature","id":"way/517110988","geometry":{"type":"Point","coordinates":[118.1842791,39.6755959]},"properties":{"osm_type":"way","osm_id":517110988,"category":"wine_shop","name":"同伟酒业","tags":{"building":"yes","name":"同伟酒业","name:zh":"同伟酒业","shop":"wine"}}},{"type":"Feature","id":"way/527904701","geometry":{"type":"Point","coordinates":[113.1212856,23.1432314]},"properties":{"osm_type":"way","osm_id":527904701,"category":"wine_shop","name":"杏禾苑","tags":{"building":"yes","name":"杏禾苑","name:zh":"杏禾苑","shop":"wine"}}},{"type":"Feature","id":"way/543877984","geometry":{"type":"Point","coordinates":[117.1491659,39.1066503]},"properties":{"osm_type":"way","osm_id":543877984,"category":"wine_shop","name":"汇高花园酒店","tags":{"building":"yes","name":"汇高花园酒店","shop":"wine"}}},{"type":"Feature","id":"way/555346554","geometry":{"type":"Point","coordinates":[113.9631905,22.539383]},"properties":{"osm_type":"way","osm_id":555346554,"category":"wine_shop","tags":{"building":"yes","shop":"wine"}}},{"type":"Feature","id":"way/632003758","geometry":{"type":"Point","coordinates":[105.0350555,27.8468662]},"properties":{"osm_type":"way","osm_id":632003758,"category":"wine_shop","name":"瑞丰大酒店","tags":{"building":"yes","name":"瑞丰大酒店","shop":"wine"}}},{"type":"Feature","id":"way/632003761","geometry":{"type":"Point","coordinates":[105.0438908,27.8426834]},"properties":{"osm_type":"way","osm_id":632003761,"category":"wine_shop","name":"喜来登酒店","tags":{"building":"yes","name":"喜来登酒店","shop":"wine"}}},{"type":"Feature","id":"way/643035389","geometry":{"type":"Point","coordinates":[116.3270678,39.9124565]},"properties":{"osm_type":"way","osm_id":643035389,"category":"wine_shop","name":"钓鱼台大酒店","tags":{"building":"yes","name":"钓鱼台大酒店","shop":"wine"}}},{"type":"Feature","id":"way/646859569","geometry":{"type":"Point","coordinates":[112.9755871,28.1784782]},"properties":{"osm_type":"way","osm_id":646859569,"category":"wine_shop","name":"美丽传说温泉度假酒店","tags":{"building":"yes","name":"美丽传说温泉度假酒店","shop":"wine"}}},{"type":"Feature","id":"way/651524276","geometry":{"type":"Point","coordinates":[112.8621747,27.8894881]},"properties":{"osm_type":"way","osm_id":651524276,"category":"wine_shop","name":"松涛山庄","tags":{"building":"yes","name":"松涛山庄","shop":"wine"}}},{"type":"Feature","id":"way/651524280","geometry":{"type":"Point","coordinates":[112.8625184,27.8895143]},"properties":{"osm_type":"way","osm_id":651524280,"category":"wine_shop","name":"松涛山庄","tags":{"building":"yes","name":"松涛山庄","shop":"wine"}}},{"type":"Feature","id":"way/657599736","geometry":{"type":"Point","coordinates":[111.1229083,35.2119777]},"properties":{"osm_type":"way","osm_id":657599736,"category":"winery","tags":{"craft":"winery"}}},{"type":"Feature","id":"way/657599739","geometry":{"type":"Point","coordinates":[111.1219132,35.2112491]},"properties":{"osm_type":"way","osm_id":657599739,"category":"vineyard","name":"格瑞特农业生态园","tags":{"landuse":"vineyard","name":"格瑞特农业生态园"}}},{"type":"Feature","id":"way/662883955","geometry":{"type":"Point","coordinates":[113.2966378,22.4705746]},"properties":{"osm_type":"way","osm_id":662883955,"category":"wine_shop","name":"励豪","tags":{"addr:city":"大涌镇","addr:housenumber":"1","addr:street":"Qishan Road","building":"hotel","name":"励豪","name:en":"Lihao Commercial Hotel","shop":"wine"}}},{"type":"Feature","id":"way/675747216","geometry":{"type":"Point","coordinates":[113.2520784,22.830257]},"properties":{"osm_type":"way","osm_id":675747216,"category":"wine_shop","name":"君莱酒店","tags":{"building":"yes","name":"君莱酒店","shop":"wine"}}},{"type":"Feature","id":"way/686720489","geometry":{"type":"Point","coordinates":[103.8084148,36.065961]},"properties":{"osm_type":"way","osm_id":686720489,"category":"wine_shop","name":"国窖1573体验馆","tags":{"building":"yes","name":"国窖1573体验馆","shop":"wine"}}},{"type":"Feature","id":"way/704272815","geometry":{"type":"Point","coordinates":[106.102918,38.4516198]},"properties":{"osm_type":"way","osm_id":704272815,"category":"vineyard","name":"龙谕酒庄","tags":{"landuse":"vineyard","name":"龙谕酒庄"}}},{"type":"Feature","id":"way/746048278","geometry":{"type":"Point","coordinates":[116.8535751,25.1211855]},"properties":{"osm_type":"way","osm_id":746048278,"category":"winery","name":"9 Rivers","tags":{"craft":"winery","landuse":"industrial","name":"9 Rivers"}}},{"type":"Feature","id":"way/817433921","geometry":{"type":"Point","coordinates":[105.7276911,29.6956171]},"properties":{"osm_type":"way","osm_id":817433921,"category":"wine_shop","name":"七十二行","tags":{"building":"yes","name":"七十二行","shop":"wine"}}},{"type":"Feature","id":"way/834854607","geometry":{"type":"Point","coordinates":[119.4019171,35.9968105]},"properties":{"osm_type":"way","osm_id":834854607,"category":"wine_shop","name":"时尚巴黎","tags":{"building":"yes","name":"时尚巴黎","shop":"wine"}}},{"type":"Feature","id":"way/839533596","geometry":{"type":"Point","coordinates":[131.0250331,45.2602658]},"properties":{"osm_type":"way","osm_id":839533596,"category":"vineyard","name":"玉芹葡萄采摘园","tags":{"landuse":"vineyard","name":"玉芹葡萄采摘园"}}},{"type":"Feature","id":"way/842780117","geometry":{"type":"Point","coordinates":[118.3755533,33.790125]},"properties":{"osm_type":"way","osm_id":842780117,"category":"winery","name":"江苏洋河酒厂股份有限公司洋河基地酿酒2区","tags":{"industrial":"winery","landuse":"industrial","name":"江苏洋河酒厂股份有限公司洋河基地酿酒2区"}}},{"type":"Feature","id":"way/867231228","geometry":{"type":"Point","coordinates":[115.8107486,40.3044716]},"properties":{"osm_type":"way","osm_id":867231228,"category":"winery","name":"怀来紫晶庄园","tags":{"craft":"winery","name":"怀来紫晶庄园"}}},{"type":"Feature","id":"way/905646708","geometry":{"type":"Point","coordinates":[118.3702339,33.7816885]},"properties":{"osm_type":"way","osm_id":905646708,"category":"winery","name":"江苏洋河酒厂股份有限公司洋河基地酿酒1区","tags":{"industrial":"winery","landuse":"industrial","name":"江苏洋河酒厂股份有限公司洋河基地酿酒1区"}}},{"type":"Feature","id":"way/931926852","geometry":{"type":"Point","coordinates":[115.5501321,40.3495508]},"properties":{"osm_type":"way","osm_id":931926852,"category":"winery","name":"长城桑干酒庄","tags":{"addr:city":"张家口市","addr:postcode":"075499","addr:street":"沙城镇东水泉村东","building":"yes","craft":"winery","name":"长城桑干酒庄","name:en":"Chateau Sungod Greatwall"}}},{"type":"Feature","id":"way/932977111","geometry":{"type":"Point","coordinates":[105.8831498,38.0662178]},"properties":{"osm_type":"way","osm_id":932977111,"category":"vineyard","name":"西鸽酒庄","tags":{"landuse":"vineyard","name":"西鸽酒庄"}}},{"type":"Feature","id":"way/982031936","geometry":{"type":"Point","coordinates":[121.5511299,31.0777931]},"properties":{"osm_type":"way","osm_id":982031936,"category":"winery","name":"召楼酒厂","tags":{"building":"yes","craft":"winery","name":"召楼酒厂"}}},{"type":"Feature","id":"way/982380113","geometry":{"type":"Point","coordinates":[129.491216,42.8849047]},"properties":{"osm_type":"way","osm_id":982380113,"category":"wine_shop","name":"馨荣旅店","tags":{"building":"yes","name":"馨荣旅店","name:zh":"馨荣旅店","name:zh-Hans":"馨荣旅店","name:zh-Hant":"馨榮旅店","shop":"wine"}}},{"type":"Feature","id":"way/995893241","geometry":{"type":"Point","coordinates":[118.3179827,33.8806759]},"properties":{"osm_type":"way","osm_id":995893241,"category":"winery","name":"青岛啤酒（宿迁）有限公司","tags":{"industrial":"winery","landuse":"industrial","name":"青岛啤酒（宿迁）有限公司"}}},{"type":"Feature","id":"way/1004936693","geometry":{"type":"Point","coordinates":[118.3628446,33.9370658]},"properties":{"osm_type":"way","osm_id":1004936693,"category":"winery","tags":{"building":"yes","craft":"winery"}}},{"type":"Feature","id":"way/1004936694","geometry":{"type":"Point","coordinates":[118.3623908,33.9371529]},"properties":{"osm_type":"way","osm_id":1004936694,"category":"winery","tags":{"building":"yes","craft":"winery"}}},{"type":"Feature","id":"way/1004936695","geometry":{"type":"Point","coordinates":[118.3624114,33.9365672]},"properties":{"osm_type":"way","osm_id":1004936695,"category":"winery","tags":{"building":"yes","craft":"winery"}}},{"type":"Feature","id":"way/1007517955","geometry":{"type":"Point","coordinates":[121.1734965,37.5745765]},"properties":{"osm_type":"way","osm_id":1007517955,"category":"winery","name":"张裕卡斯特酒庄","tags":{"craft":"winery","landuse":"farmland","name":"张裕卡斯特酒庄","name:en":"Changyu Castel Winery","name:zh":"张裕卡斯特酒庄"}}},{"type":"Feature","id":"way/1033321603","geometry":{"type":"Point","coordinates":[101.7473131,26.4875669]},"properties":{"osm_type":"way","osm_id":1033321603,"category":"vineyard","name":"葡萄园","tags":{"landuse":"vineyard","name":"葡萄园"}}},{"type":"Feature","id":"way/1042357472","geometry":{"type":"Point","coordinates":[118.1794115,33.2433235]},"properties":{"osm_type":"way","osm_id":1042357472,"category":"winery","name":"江苏双甑坊酒业有限公司","tags":{"industrial":"winery","landuse":"industrial","name":"江苏双甑坊酒业有限公司"}}},{"type":"Feature","id":"way/1042357509","geometry":{"type":"Point","coordinates":[118.1850599,33.2453626]},"properties":{"osm_type":"way","osm_id":1042357509,"category":"winery","name":"江苏裕苏酒业","tags":{"industrial":"winery","landuse":"industrial","name":"江苏裕苏酒业"}}},{"type":"Feature","id":"way/1042357510","geometry":{"type":"Point","coordinates":[118.187881,33.2454731]},"properties":{"osm_type":"way","osm_id":1042357510,"category":"winery","name":"泗洪县双沟酒厂新区","tags":{"industrial":"winery","landuse":"industrial","name":"泗洪县双沟酒厂新区"}}},{"type":"Feature","id":"way/1042357514","geometry":{"type":"Point","coordinates":[118.1953438,33.2429301]},"properties":{"osm_type":"way","osm_id":1042357514,"category":"winery","name":"泗洪县双沟酿酒有限公司","tags":{"industrial":"winery","landuse":"industrial","name":"泗洪县双沟酿酒有限公司"}}},{"type":"Feature","id":"way/1042357570","geometry":{"type":"Point","coordinates":[118.1972754,33.229983]},"properties":{"osm_type":"way","osm_id":1042357570,"category":"winery","name":"泗洪县双沟酒厂","tags":{"industrial":"winery","landuse":"industrial","name":"泗洪县双沟酒厂"}}},{"type":"Feature","id":"way/1042357582","geometry":{"type":"Point","coordinates":[118.1760273,33.2223583]},"properties":{"osm_type":"way","osm_id":1042357582,"category":"winery","name":"江苏双沟曲酒厂","tags":{"industrial":"winery","landuse":"industrial","name":"江苏双沟曲酒厂"}}},{"type":"Feature","id":"way/1042550612","geometry":{"type":"Point","coordinates":[118.3053253,33.8237769]},"properties":{"osm_type":"way","osm_id":1042550612,"category":"vineyard","name":"金康利有机葡萄园","tags":{"landuse":"vineyard","name":"金康利有机葡萄园"}}},{"type":"Feature","id":"way/1057711987","geometry":{"type":"Point","coordinates":[105.0176311,37.518675]},"properties":{"osm_type":"way","osm_id":1057711987,"category":"wine_shop","name":"沙漠主题火车旅馆","tags":{"building":"yes","name":"沙漠主题火车旅馆","shop":"wine"}}},{"type":"Feature","id":"way/1060434994","geometry":{"type":"Point","coordinates":[112.584421,23.3755978]},"properties":{"osm_type":"way","osm_id":1060434994,"category":"wine_shop","name":"四会市既济烟酒商行","tags":{"building":"yes","name":"四会市既济烟酒商行","shop":"wine"}}},{"type":"Feature","id":"way/1077580427","geometry":{"type":"Point","coordinates":[116.2047306,39.7227938]},