{"type":"FeatureCollection","features":[{"type":"Feature","id":"node/2972501083","geometry":{"type":"Point","coordinates":[116.86415,31.80268]},"properties":{"osm_type":"node","osm_id":2972501083,"category":"wine_shop","tags":{"shop":"wine"}}},{"type":"Feature","id":"node/2972501265","geometry":{"type":"Point","coordinates":[116.86514,31.80302]},"properties":{"osm_type":"node","osm_id":2972501265,"category":"wine_shop","name":"官亭大酒店","tags":{"name":"官亭大酒店","shop":"wine"}}},{"type":"Feature","id":"node/2999208413","geometry":{"type":"Point","coordinates":[121.37234,31.23355]},"properties":{"osm_type":"node","osm_id":2999208413,"category":"wine_shop","name":"圣诺亚酒店","tags":{"name":"圣诺亚酒店","shop":"wine"}}},{"type":"Feature","id":"node/3024775081","geometry":{"type":"Point","coordinates":[119.64621,29.10272]},"properties":{"osm_type":"node","osm_id":3024775081,"category":"wine_shop","name":"嘉恒澜庭大酒店","tags":{"name":"嘉恒澜庭大酒店","shop":"wine"}}},{"type":"Feature","id":"node/3127296569","geometry":{"type":"Point","coordinates":[119.53421,26.6438]},"properties":{"osm_type":"node","osm_id":3127296569,"category":"wine_shop","name":"寧德市國稅局","tags":{"name":"寧德市國稅局","phone":"+86 593 299 1007","shop":"wine"}}},{"type":"Feature","id":"node/3127298379","geometry":{"type":"Point","coordinates":[119.5208,26.66751]},"properties":{"osm_type":"node","osm_id":3127298379,"category":"wine_shop","name":"金海岸大酒店","tags":{"name":"金海岸大酒店","phone":"+86 593 288 2118","shop":"wine"}}},{"type":"Feature","id":"node/3162374407","geometry":{"type":"Point","coordinates":[116.69953,23.91187]},"properties":{"osm_type":"node","osm_id":3162374407,"category":"wine_shop","name":"凤凰华景商厦","tags":{"name":"凤凰华景商厦","shop":"wine"}}},{"type":"Feature","id":"node/3268678793","geometry":{"type":"Point","coordinates":[117.27154,34.79941]},"properties":{"osm_type":"node","osm_id":3268678793,"category":"wine_shop","name":"大唐之星快捷酒店","tags":{"name":"大唐之星快捷酒店","shop":"wine"}}},{"type":"Feature","id":"node/3268721959","geometry":{"type":"Point","coordinates":[117.27115,34.79655]},"properties":{"osm_type":"node","osm_id":3268721959,"category":"wine_shop","name":"格林豪泰快捷酒店","tags":{"name":"格林豪泰快捷酒店","shop":"wine"}}},{"type":"Feature","id":"node/3291831334","geometry":{"type":"Point","coordinates":[117.32335,34.80493]},"properties":{"osm_type":"node","osm_id":3291831334,"category":"wine_shop","name":"枣庄购物中心新城大酒店","tags":{"name":"枣庄购物中心新城大酒店","shop":"wine"}}},{"type":"Feature","id":"node/3316149369","geometry":{"type":"Point","coordinates":[121.24935,28.64935]},"properties":{"osm_type":"node","osm_id":3316149369,"category":"wine_shop","name":"金王子国际大酒店","tags":{"name":"金王子国际大酒店","shop":"wine"}}},{"type":"Feature","id":"node/3334258639","geometry":{"type":"Point","coordinates":[121.25894,28.64976]},"properties":{"osm_type":"node","osm_id":3334258639,"category":"wine_shop","name":"白玉兰酒店","tags":{"name":"白玉兰酒店","shop":"wine"}}},{"type":"Feature","id":"node/3336248140","geometry":{"type":"Point","coordinates":[114.17319,22.29841]},"properties":{"osm_type":"node","osm_id":3336248140,"category":"wine_shop","name":"Voi_la!","tags":{"name":"Voi_la!","operator":"華潤萬家 Vanguard","shop":"wine"}}},{"type":"Feature","id":"node/3345220769","geometry":{"type":"Point","coordinates":[113.40589,24.18386]},"properties":{"osm_type":"node","osm_id":3345220769,"category":"wine_shop","name":"东方大酒店","tags":{"name":"东方大酒店","shop":"wine"}}},{"type":"Feature","id":"node/3394718751","geometry":{"type":"Point","coordinates":[98.49296,25.00054]},"properties":{"osm_type":"node","osm_id":3394718751,"category":"wine_shop","name":"民航大夏","tags":{"name":"民航大夏","shop":"wine"}}},{"type":"Feature","id":"node/3415421651","geometry":{"type":"Point","coordinates":[110.39696,21.19548]},"properties":{"osm_type":"node","osm_id":3415421651,"category":"wine_shop","name":"新格里拉","tags":{"name":"新格里拉","shop":"wine"}}},{"type":"Feature","id":"node/3424361233","geometry":{"type":"Point","coordinates":[116.96705,23.67521]},"properties":{"osm_type":"node","osm_id":3424361233,"category":"wine_shop","name":"东海酒家","tags":{"name":"东海酒家","shop":"wine"}}},{"type":"Feature","id":"node/3431153207","geometry":{"type":"Point","coordinates":[117.19329,34.26551]},"properties":{"osm_type":"node","osm_id":3431153207,"category":"wine_shop","name":"城市名人酒店","tags":{"name":"城市名人酒店","shop":"wine"}}},{"type":"Feature","id":"node/3463137057","geometry":{"type":"Point","coordinates":[106.91644,27.70906]},"properties":{"osm_type":"node","osm_id":3463137057,"category":"wine_shop","name":"贵州茅台镇国传酒","tags":{"addr:city":"遵义市","addr:housenumber":"617","addr:street":"上海路","name":"贵州茅台镇国传酒","shop":"wine"}}},{"type":"Feature","id":"node/3530515332","geometry":{"type":"Point","coordinates":[116.44452,39.93006]},"properties":{"osm_type":"node","osm_id":3530515332,"category":"wine_shop","tags":{"shop":"wine"}}},{"type":"Feature","id":"node/3533293888","geometry":{"type":"Point","coordinates":[116.43844,39.93435]},"properties":{"osm_type":"node","osm_id":3533293888,"category":"wine_shop","name":"Cru","tags":{"name":"Cru","shop":"wine"}}},{"type":"Feature","id":"node/3540396698","geometry":{"type":"Point","coordinates":[104.76289,29.35073]},"properties":{"osm_type":"node","osm_id":3540396698,"category":"wine_shop","name":"雄飞假日酒店","tags":{"name":"雄飞假日酒店","shop":"wine"}}},{"type":"Feature","id":"node/3570885273","geometry":{"type":"Point","coordinates":[106.76616,27.4185]},"properties":{"osm_type":"node","osm_id":3570885273,"category":"wine_shop","name":"黔北酒坊","tags":{"name":"黔北酒坊","shop":"wine"}}},{"type":"Feature","id":"node/3591757574","geometry":{"type":"Point","coordinates":[106.82158,27.52866]},"properties":{"osm_type":"node","osm_id":3591757574,"category":"wine_shop","name":"华慧酒楼","tags":{"addr:city":"遵义市","addr:housenumber":"271","addr:street":"西大街南段","name":"华慧酒楼","shop":"wine"}}},{"type":"Feature","id":"node/3591800969","geometry":{"type":"Point","coordinates":[106.82421,27.52806]},"properties":{"osm_type":"node","osm_id":3591800969,"category":"wine_shop","name":"习将军","tags":{"name":"习将军","shop":"wine"}}},{"type":"Feature","id":"node/3591820239","geometry":{"type":"Point","coordinates":[106.82359,27.52672]},"properties":{"osm_type":"node","osm_id":3591820239,"category":"wine_shop","name":"洞藏青酒","tags":{"name":"洞藏青酒","shop":"wine"}}},{"type":"Feature","id":"node/3606284504","geometry":{"type":"Point","coordinates":[106.82488,27.53169]},"properties":{"osm_type":"node","osm_id":3606284504,"category":"wine_shop","name":"茅台镇北街酒馆","tags":{"name":"茅台镇北街酒馆","operator":"北街酒厂集团","shop":"wine"}}},{"type":"Feature","id":"node/3624776292","geometry":{"type":"Point","coordinates":[106.82323,27.53542]},"properties":{"osm_type":"node","osm_id":3624776292,"category":"wine_shop","name":"名烟名酒","tags":{"name":"名烟名酒","shop":"wine"}}},{"type":"Feature","id":"node/3657412050","geometry":{"type":"Point","coordinates":[120.98757,31.38642]},"properties":{"osm_type":"node","osm_id":3657412050,"category":"wine_shop","name":"Aussina Wine Shop","tags":{"name":"Aussina Wine Shop","shop":"wine"}}},{"type":"Feature","id":"node/3667111855","geometry":{"type":"Point","coordinates":[110.00579,25.79969]},"properties":{"osm_type":"node","osm_id":3667111855,"category":"wine_shop","name":"龙腾大酒店","tags":{"name":"龙腾大酒店","shop":"wine"}}},{"type":"Feature","id":"node/3676346767","geometry":{"type":"Point","coordinates":[110.00993,25.80528]},"properties":{"osm_type":"node","osm_id":3676346767,"category":"wine_shop","name":"龙脊国际大酒店","tags":{"name":"龙脊国际大酒店","shop":"wine"}}},{"type":"Feature","id":"node/3678359025","geometry":{"type":"Point","coordinates":[114.15602,22.28207]},"properties":{"osm_type":"node","osm_id":3678359025,"category":"wine_shop","name":"Ginsberg+Chan Wine Merchants Asia","tags":{"addr:city":"Hong Kong","addr:housenumber":"50-52","addr:street":"皇后大道中 Queen's Road Central","name":"Ginsberg+Chan Wine Merchants Asia","shop":"wine"}}},{"type":"Feature","id":"node/3719629435","geometry":{"type":"Point","coordinates":[113.82914,30.64491]},"properties":{"osm_type":"node","osm_id":3719629435,"category":"wine_shop","name":"白云大酒店","tags":{"addr:city":"湖北省汉川市","addr:street":"欢乐街","name":"白云大酒店","shop":"wine"}}},{"type":"Feature","id":"node/3798083759","geometry":{"type":"Point","coordinates":[117.07575,36.18102]},"properties":{"osm_type":"node","osm_id":3798083759,"category":"wine_shop","name":"荣昌大酒店","tags":{"name":"荣昌大酒店","shop":"wine"}}},{"type":"Feature","id":"node/3806262678","geometry":{"type":"Point","coordinates":[116.39951,39.90185]},"properties":{"osm_type":"node","osm_id":3806262678,"category":"wine_shop","name":"7天","tags":{"name":"7天","shop":"wine"}}},{"type":"Feature","id":"node/3840186091","geometry":{"type":"Point","coordinates":[117.1269,36.20489]},"properties":{"osm_type":"node","osm_id":3840186091,"category":"wine_shop","name":"军马酒行","tags":{"name":"军马酒行","shop":"wine"}}},{"type":"Feature","id":"node/3894493160","geometry":{"type":"Point","coordinates":[113.42344,22.5367]},"properties":{"osm_type":"node","osm_id":3894493160,"category":"wine_shop","name":"拾乐水疗酒店","tags":{"name":"拾乐水疗酒店","shop":"wine"}}},{"type":"Feature","id":"node/3897583332","geometry":{"type":"Point","coordinates":[113.52341,22.50784]},"properties":{"osm_type":"node","osm_id":3897583332,"category":"wine_shop","name":"南朗雅居乐酒店","tags":{"name":"南朗雅居乐酒店","shop":"wine"}}},{"type":"Feature","id":"node/4071872840","geometry":{"type":"Point","coordinates":[113.08965,39.81355]},"properties":{"osm_type":"node","osm_id":4071872840,"category":"wine_shop","name":"阳光大酒店","tags":{"name":"阳光大酒店","shop":"wine"}}},{"type":"Feature","id":"node/4118418175","geometry":{"type":"Point","coordinates":[114.14746,22.28762]},"properties":{"osm_type":"node","osm_id":4118418175,"category":"wine_shop","name":"Voi_la!","tags":{"name":"Voi_la!","operator":"華潤萬家 Vanguard","shop":"wine"}}},{"type":"Feature","id":"node/4266389491","geometry":{"type":"Point","coordinates":[117.12621,36.19873]},"properties":{"osm_type":"node","osm_id":4266389491,"category":"wine_shop","name":"尊皇大酒店北门","tags":{"name":"尊皇大酒店北门","shop":"wine"}}},{"type":"Feature","id":"node/4266398289","geometry":{"type":"Point","coordinates":[117.12283,36.19286]},"properties":{"osm_type":"node","osm_id":4266398289,"category":"wine_shop","name":"东悦坊精致酒店","tags":{"addr:housenumber":"86号","addr:street":"青年路","name":"东悦坊精致酒店","phone":"+86 538 807 0077","shop":"wine"}}},{"type":"Feature","id":"node/4319744520","geometry":{"type":"Point","coordinates":[120.17738,30.2477]},"properties":{"osm_type":"node","osm_id":4319744520,"category":"wine_shop","name":"杭州红楼大酒店","tags":{"name":"杭州红楼大酒店","shop":"wine"}}},{"type":"Feature","id":"node/4338191092","geometry":{"type":"Point","coordinates":[118.33147,29.71978]},"properties":{"osm_type":"node","osm_id":4338191092,"category":"wine_shop","tags":{"shop":"wine"}}},{"type":"Feature","id":"node/4361492393","geometry":{"type":"Point","coordinates":[113.54738,22.19141]},"properties":{"osm_type":"node","osm_id":4361492393,"category":"wine_shop","name":"Holiday Inn Macau","tags":{"addr:housenumber":"82-86","addr:street":"北京街 Rua de Pequim","name":"Holiday Inn Macau","phone":"85328783333","shop":"wine"}}},{"type":"Feature","id":"node/4584856011","geometry":{"type":"Point","coordinates":[113.05346,23.68186]},"properties":{"osm_type":"node","osm_id":4584856011,"category":"wine_shop","name":"老酒屋","tags":{"name":"老酒屋","name:zh":"老酒屋","shop":"wine"}}},{"type":"Feature","id":"node/4584856015","geometry":{"type":"Point","coordinates":[113.05315,23.68197]},"properties":{"osm_type":"node","osm_id":4584856015,"category":"wine_shop","name":"骏德酒业","tags":{"name":"骏德酒业","shop":"wine"}}},{"type":"Feature","id":"node/4585165894","geometry":{"type":"Point","coordinates":[114.32083,30.51574]},"properties":{"osm_type":"node","osm_id":4585165894,"category":"wine_shop","name":"品食尚大酒店","tags":{"addr:postcode":"430064","addr:street":"丁字桥南路","name":"品食尚大酒店","name:en":"Pinshishang Hotel","name:zh":"品食尚大酒店","shop":"wine"}}},{"type":"Feature","id":"node/4627867965","geometry":{"type":"Point","coordinates":[113.05507,23.68222]},"properties":{"osm_type":"node","osm_id":4627867965,"category":"wine_shop","name":"广源酒庄","tags":{"name":"广源酒庄","name:zh":"广源酒庄","shop":"wine"}}},{"type":"Feature","id":"node/4686903003","geometry":{"type":"Point","coordinates":[109.4983,18.21291]},"properties":{"osm_type":"node","osm_id":4686903003,"category":"wine_shop","tags":{"shop":"wine"}}},{"type":"Feature","id":"node/4704818889","geometry":{"type":"Point","coordinates":[97.89593,23.9807]},"properties":{"osm_type":"node","osm_id":4704818889,"category":"wine_shop","name":"ေရႊဆိုင္","tags":{"name":"ေရႊဆိုင္","name:my":"ေရႊဆိုင္","shop":"wine"}}},{"type":"Feature","id":"node/4716607241","geometry":{"type":"Point","coordinates":[105.71796,34.58467]},"properties":{"osm_type":"node","osm_id":4716607241,"category":"wine_shop","tags":{"shop":"wine"}}},{"type":"Feature","id":"node/4739658844","geometry":{"type":"Point","coordinates":[115.46337,38.85635]},"properties":{"osm_type":"node","osm_id":4739658844,"category":"wine_shop","name":"1919","tags":{"name":"1919","name:zh":"1919","shop":"wine"}}},{"type":"Feature","id":"node/4826683923","geometry":{"type":"Point","coordinates":[115.49895,38.86529]},"properties":{"osm_type":"node","osm_id":4826683923,"category":"wine_shop","name":"1919","tags":{"name":"1919","name:en":"1919","name:zh":"1919","shop":"wine"}}},{"type":"Feature","id":"node/4831638607","geometry":{"type":"Point","coordinates":[113.54958,22.18765]},"properties":{"osm_type":"node","osm_id":4831638607,"category":"wine_shop","name":"Happiness Chateau","tags":{"addr:street":"倫斯泰特大馬路 Avenida Sir Anders Ljungstedt","name":"Happiness Chateau","shop":"wine"}}},{"type":"Feature","id":"node/4850025681","geometry":{"type":"Point","coordinates":[114.17111,22.296]},"properties":{"osm_type":"node","osm_id":4850025681,"category":"wine_shop","name":"Major Cellar","tags":{"addr:street":"漢口道 Hankow Road","name":"Major Cellar","shop":"wine"}}},{"type":"Feature","id":"node/4850137426","geometry":{"type":"Point","coordinates":[114.17344,22.29805]},"properties":{"osm_type":"node","osm_id":4850137426,"category":"wine_shop","name":"Wine Chateau","tags":{"addr:street":"加拿分道 Carnarvon Road","name":"Wine Chateau","shop":"wine"}}},{"type":"Feature","id":"node/4850294651","geometry":{"type":"Point","coordinates":[114.17304,22.29765]},"properties":{"osm_type":"node","osm_id":4850294651,"category":"wine_shop","name":"Watson's Wine","tags":{"addr:street":"碧仙桃路 Bristol Avenue","name":"Watson's Wine","shop":"wine"}}},{"type":"Feature","id":"node/4858340231","geometry":{"type":"Point","coordinates":[114.17191,22.27896]},"properties":{"osm_type":"node","osm_id":4858340231,"category":"wine_shop","name":"Madison Wine","tags":{"addr:street":"告士打道 Gloucester Road","name":"Madison Wine","shop":"wine"}}},{"type":"Feature","id":"node/4861990727","geometry":{"type":"Point","coordinates":[114.19231,22.27915]},"properties":{"osm_type":"node","osm_id":4861990727,"category":"wine_shop","name":"Brix","tags":{"addr:street":"浣紗街 Wun Sha Street","name":"Brix","shop":"wine"}}},{"type":"Feature","id":"node/4864295178","geometry":{"type":"Point","coordinates":[114.11862,22.36884]},"properties":{"osm_type":"node","osm_id":4864295178,"category":"wine_shop","name":"Cheiling Kee International Wines","tags":{"name":"Cheiling Kee International Wines","opening_hours":"Mo-Su 11:00-21:00","shop":"wine"}}},{"type":"Feature","id":"node/4866210422","geometry":{"type":"Point","coordinates":[113.90988,22.48707]},"properties":{"osm_type":"node","osm_id":4866210422,"category":"wine_shop","name":"Vintage Fine Wines","tags":{"name:en":"Vintage Fine Wines","shop":"wine"}}},{"type":"Feature","id":"node/4948935183","geometry":{"type":"Point","coordinates":[103.63463,36.09672]},"properties":{"osm_type":"node","osm_id":4948935183,"category":"wine_shop","name":"人家酒业","tags":{"name":"人家酒业","shop":"wine"}}},{"type":"Feature","id":"node/4959511721","geometry":{"type":"Point","coordinates":[103.38835,24.30568]},"properties":{"osm_type":"node","osm_id":4959511721,"category":"wine_shop","name":"Dong feng fu chi","tags":{"name":"Dong feng fu chi","name:en":"better wine shop","phone":"+86 136 4963 8118","shop":"wine"}}},{"type":"Feature","id":"node/5169911940","geometry":{"type":"Point","coordinates":[113.98838,22.53956]},"properties":{"osm_type":"node","osm_id":5169911940,"category":"wine_shop","name":"鹊尔斯酒窖","tags":{"name":"鹊尔斯酒窖","name:en":"Cheers Wine Cellars","name:zh":"鹊尔斯酒窖","shop":"wine"}}},{"type":"Feature","id":"node/5201383523","geometry":{"type":"Point","coordinates":[82.06129,44.88708]},"properties":{"osm_type":"node","osm_id":5201383523,"category":"wine_shop","name":"super market","tags":{"name":"super market","shop":"wine"}}},{"type":"Feature","id":"node/5218845826","geometry":{"type":"Point","coordinates":[115.05248,30.24628]},"properties":{"osm_type":"node","osm_id":5218845826,"category":"wine_shop","name":"黄石万达嘉华酒店","tags":{"name":"黄石万达嘉华酒店","shop":"wine"}}},{"type":"Feature","id":"node/5239073622","geometry":{"type":"Point","coordinates":[114.17277,22.2991]},"properties":{"osm_type":"node","osm_id":5239073622,"category":"wine_shop","name":"MUSIC INSTRUMENTAL SHOP","tags":{"name:en":"MUSIC INSTRUMENTAL SHOP","shop":"wine"}}},{"type":"Feature","id":"node/5314462887","geometry":{"type":"Point","coordinates":[120.34966,36.08894]},"properties":{"osm_type":"node","osm_id":5314462887,"category":"wine_shop","name":"即墨老酒","tags":{"name":"即墨老酒","shop":"wine"}}},{"type":"Feature","id":"node/5345055622","geometry":{"type":"Point","coordinates":[110.74906,35.13391]},"properties":{"osm_type":"node","osm_id":5345055622,"category":"wine_shop","name":"希悦商务酒店","tags":{"name":"希悦商务酒店","name:zh":"希悦商务酒店","shop":"wine"}}},{"type":"Feature","id":"node/5529556119","geometry":{"type":"Point","coordinates":[106.71414,26.57893]},"properties":{"osm_type":"node","osm_id":5529556119,"category":"wine_shop","tags":{"shop":"wine"}}},{"type":"Feature","id":"node/5543281122","geometry":{"type":"Point","coordinates":[126.621,45.74036]},"properties":{"osm_type":"node","osm_id":5543281122,"category":"wine_shop","name":"四季快捷酒店","tags":{"name":"四季快捷酒店","name:en":"Four season hotel","shop":"wine"}}},{"type":"Feature","id":"node/5554890853","geometry":{"type":"Point","coordinates":[126.62034,45.73891]},"properties":{"osm_type":"node","osm_id":5554890853,"category":"wine_shop","name":"四季度酒店","tags":{"addr:housenumber":"40","name":"四季度酒店","name:en":"Four season Hotel","name:zh":"四季快捷酒店","shop":"wine"}}},{"type":"Feature","id":"node/5594228970","geometry":{"type":"Point","coordinates":[120.29505,36.06249]},"properties":{"osm_type":"node","osm_id":5594228970,"category":"wine_shop","name":"国酒茅台","tags":{"name":"国酒茅台","shop":"wine"}}},{"type":"Feature","id":"node/5609473614","geometry":{"type":"Point","coordinates":[112.14521,28.52191]},"properties":{"osm_type":"node","osm_id":5609473614,"category":"wine_shop","name":"桃花村大酒店","tags":{"name":"桃花村大酒店","shop":"wine"}}},{"type":"Feature","id":"node/5609473923","geometry":{"type":"Point","coordinates":[112.14358,28.519]},"properties":{"osm_type":"node","osm_id":5609473923,"category":"wine_shop","name":"锦龙大酒店","tags":{"name":"锦龙大酒店","shop":"wine"}}},{"type":"Feature","id":"node/5621553527","geometry":{"type":"Point","coordinates":[115.65968,32.20215]},"properties":{"osm_type":"node","osm_id":5621553527,"category":"wine_shop","name":"大唐酒业","tags":{"name":"大唐酒业","opening_hours":"10:00-22:00","shop":"wine"}}},{"type":"Feature","id":"node/5663458791","geometry":{"type":"Point","coordinates":[105.08964,29.20944]},"properties":{"osm_type":"node","osm_id":5663458791,"category":"wine_shop","name":"张八酒店","tags":{"name":"张八酒店","shop":"wine"}}},{"type":"Feature","id":"node/5813779936","geometry":{"type":"Point","coordinates":[115.83228,32.89458]},"properties":{"osm_type":"node","osm_id":5813779936,"category":"wine_shop","name":"汇隆大酒店","tags":{"name":"汇隆大酒店","shop":"wine"}}},{"type":"Feature","id":"node/5963885704","geometry":{"type":"Point","coordinates":[121.42491,31.2346]},"properties":{"osm_type":"node","osm_id":5963885704,"category":"wine_shop","name":"1919.cn","tags":{"name:en":"1919.cn","shop":"wine"}}},{"type":"Feature","id":"node/5989286885","geometry":{"type":"Point","coordinates":[118.34431,24.58951]},"properties":{"osm_type":"node","osm_id":5989286885,"category":"wine_shop","name":"鸿翔商务酒店","tags":{"addr:street":"翔安南路 - Xiang'An South Road","name":"鸿翔商务酒店","shop":"wine"}}},{"type":"Feature","id":"node/6032116387","geometry":{"type":"Point","coordinates":[115.46773,38.8461]},"properties":{"osm_type":"node","osm_id":6032116387,"category":"wine_shop","tags":{"shop":"wine"}}},{"type":"Feature","id":"node/6060431785","geometry":{"type":"Point","coordinates":[99.70612,27.81575]},"properties":{"osm_type":"node","osm_id":6060431785,"category":"wine_shop","name":"Shangri-La Wine Shop","tags":{"name:en":"Shangri-La Wine Shop","shop":"wine"}}},{"type":"Feature","id":"node/6069090994","geometry":{"type":"Point","coordinates":[121.39608,31.21014]},"properties":{"osm_type":"node","osm_id":6069090994,"category":"wine_shop","tags":{"addr:housenumber":"551","addr:street":"古北路","shop":"wine"}}},{"type":"Feature","id":"node/6202694485","geometry":{"type":"Point","coordinates":[113.54042,22.19703]},"properties":{"osm_type":"node","osm_id":6202694485,"category":"wine_shop","name":"澳感廊","tags":{"addr:housenumber":"31","addr:street":"大三巴街 Rua de S. Paulo","name":"澳感廊","name:en":"Macau Soul","name:ja":"マカオ・ソウル","name:zh":"澳感廊","name:zh-Hans":"澳感廊","name:zh-Hant":"澳感廊","opening_hours":"We-Th 15:00-22:00; Fr-Su 15:00-00:00","shop":"wine"}}},{"type":"Feature","id":"node/6323004017","geometry":{"type":"Point","coordinates":[110.2925,25.27589]},"properties":{"osm_type":"node","osm_id":6323004017,"category":"wine_shop","name":"桂林三花酒","tags":{"name":"桂林三花酒","name:en":"Guilin Sanhua Liquor","name:zh":"桂林三花酒","shop":"wine"}}},{"type":"Feature","id":"node/6324679575","geometry":{"type":"Point","coordinates":[121.44124,31.2176]},"properties":{"osm_type":"node","osm_id":6324679575,"category":"wine_shop","name":"Le Vin","tags":{"name":"Le Vin","shop":"wine"}}},{"type":"Feature","id":"node/6325191790","geometry":{"type":"Point","coordinates":[99.17404,25.1141]},"properties":{"osm_type":"node","osm_id":6325191790,"category":"wine_shop","tags":{"shop":"wine"}}},{"type":"Feature","id":"node/6342950685","geometry":{"type":"Point","coordinates":[102.72407,25.06207]},"properties":{"osm_type":"node","osm_id":6342950685,"category":"wine_shop","tags":{"shop":"wine"}}},{"type":"Feature","id":"node/6366808631","geometry":{"type":"Point","coordinates":[121.43482,31.20872]},"properties":{"osm_type":"node","osm_id":6366808631,"category":"wine_shop","name":"Pudao Wines","tags":{"name:en":"Pudao Wines","shop":"wine"}}},{"type":"Feature","id":"node/6438071686","geometry":{"type":"Point","coordinates":[114.17793,22.27771]},"properties":{"osm_type":"node","osm_id":6438071686,"category":"wine_shop","name":"Hungary Wine","tags":{"name:en":"Hungary Wine","shop":"wine"}}},{"type":"Feature","id":"node/6438497685","geometry":{"type":"Point","coordinates":[109.4489,18.29891]},"properties":{"osm_type":"node","osm_id":6438497685,"category":"wine_shop","tags":{"shop":"wine"}}},{"type":"Feature","id":"node/6506331293","geometry":{"type":"Point","coordinates":[100.21512,26.95698]},"properties":{"osm_type":"node","osm_id":6506331293,"category":"wine_shop","name":"Handmade Plum & Rose Wine","tags":{"name:en":"Handmade Plum & Rose Wine","shop":"wine"}}},{"type":"Feature","id":"node/6510458785","geometry":{"type":"Point","coordinates":[120.02567,30.28175]},"properties":{"osm_type":"node","osm_id":6510458785,"category":"wine_shop","name":"菲住布渴阿里未来酒店","tags":{"addr:street":"常二路","name":"菲住布渴阿里未来酒店","name:en":"Filipino Bust Ali Future Hotel","shop":"wine","website":"https://m.fliggy.com/hotel/54651034"}}},{"type":"Feature","id":"node/6510560886","geometry":{"type":"Point","coordinates":[103.82481,36.04631]},"properties":{"osm_type":"node","osm_id":6510560886,"category":"wine_shop","name":"名庄茶","tags":{"name":"名庄茶","shop":"wine"}}},{"type":"Feature","id":"node/6512472887","geometry":{"type":"Point","coordinates":[116.92445,26.16904]},"properties":{"osm_type":"node","osm_id":6512472887,"category":"wine_shop","name":"天芳悦谭","tags":{"name":"天芳悦谭","name:zh":"天芳悦谭温泉度假村","shop":"wine"}}},{"type":"Feature","id":"node/6514348485","geometry":{"type":"Point","coordinates":[116.92632,26.1721]},"properties":{"osm_type":"node","osm_id":6514348485,"category":"wine_shop","name":"天芳悦谭温泉","tags":{"name":"天芳悦谭温泉","shop":"wine"}}},{"type":"Feature","id":"node/6517728586","geometry":{"type":"Point","coordinates":[121.43545,31.24469]},"properties":{"osm_type":"node","osm_id":6517728586,"category":"wine_shop","tags":{"shop":"wine"}}},{"type":"Feature","id":"node/6842478812","geometry":{"type":"Point","coordinates":[116.27612,39.96008]},"properties":{"osm_type":"node","osm_id":6842478812,"category":"wine_shop","name":"特卖","tags":{"addr:city":"北京","addr:postcode":"100097","addr:street":"老营房路","name":"特卖","shop":"wine"}}},{"type":"Feature","id":"node/6964145285","geometry":{"type":"Point","coordinates":[113.53787,22.19365]},"properties":{"osm_type":"node","osm_id":6964145285,"category":"wine_shop","tags":{"shop":"wine"}}},{"type":"Feature","id":"node/6975879091","geometry":{"type":"Point","coordinates":[108.35081,22.80553]},"properties":{"osm_type":"node","osm_id":6975879091,"category":"wine_shop","name":"Wine Shop","tags":{"name:en":"Wine Shop","shop":"wine"}}},{"type":"Feature","id":"node/7046721493","geometry":{"type":"Point","coordinates":[114.15219,22.28381]},"properties":{"osm_type":"node","osm_id":7046721493,"category":"wine_shop","name":"La Cabane à Vin","tags":{"addr:city":"Hong Kong","addr:housenumber":"97","addr:street":"荷李活道 Hollywood Road","name":"La Cabane à Vin","shop":"wine"}}},{"type":"Feature","id":"node/7068551097","geometry":{"type":"Point","coordinates":[112.90043,28.22201]},"properties":{"osm_type":"node","osm_id":7068551097,"category":"wine_shop","name":"名典国际酒店","tags":{"name":"名典国际酒店","shop":"wine"}}},{"type":"Feature","id":"node/7068551098","geometry":{"type":"Point","coordinates":[112.89902,28.2234]},"properties":{"osm_type":"node","osm_id":7068551098,"category":"wine_shop","name":"长沙金沨麓景酒店","tags":{"name":"长沙金沨麓景酒店","shop":"wine"}}},{"type":"Feature","id":"node/7068581875","geometry":{"type":"Point","coordinates":[112.94511,28.2307]},"properties":{"osm_type":"node","osm_id":7068581875,"category":"wine_shop","name":"初见酒店","tags":{"name":"初见酒店","shop":"wine"}}},{"type":"Feature","id":"node/7071355812","geometry":{"type":"Point","coordinates":[112.90366,28.21328]},"properties":{"osm_type":"node","osm_id":7071355812,"category":"wine_shop","name":"莫林风尚酒店","tags":{"name":"莫林风尚酒店","shop":"wine"}}},{"type":"Feature","id":"node/7071355816","geometry":{"type":"Point","coordinates":[112.90405,28.21342]},"properties":{"osm_type":"node","osm_id":7071355816,"category":"wine_shop","name":"胜锦酒店","tags":{"name":"胜锦酒店","shop":"wine"}}},{"type":"Feature","id":"node/7071355819","geometry":{"type":"Point","coordinates":[112.90464,28.21377]},"properties":{"osm_type":"node","osm_id":7071355819,"category":"wine_shop","name":"湘麓汇国际大酒店","tags":{"name":"湘麓汇国际大酒店","shop":"wine"}}},{"type":"Feature","id":"node/7071729985","geometry":{"type":"Point","coordinates":[112.95611,28.24387]},"properties":{"osm_type":"node","osm_id":7071729985,"category":"wine_shop","name":"梅尔酒窖","tags":{"name":"梅尔酒窖","shop":"wine"}}},{"type":"Feature","id":"node/7072193436","geometry":{"type":"Point","coordinates":[112.93094,28.21583]},"properties":{"osm_type":"node","osm_id":7072193436,"category":"wine_shop","name":"嘉桐酒店","tags":{"name":"嘉桐酒店","shop":"wine"}}},{"type":"Feature","id":"node/7074243015","geometry":{"type":"Point","coordinates":[112.9291,28.21801]},"properties":{"osm_type":"node","osm_id":7074243015,"category":"wine_shop","name":"景轩年华酒店","tags":{"name":"景轩年华酒店","shop":"wine"}}},{"type":"Feature","id":"node/7074557105","geometry":{"type":"Point","coordinates":[112.92695,28.22968]},"properties":{"osm_type":"node","osm_id":7074557105,"category":"wine_shop","name":"长沙高程大酒店","tags":{"name":"长沙高程大酒店","shop":"wine"}}},{"type":"Feature","id":"node/7149378238","geometry":{"type":"Point","coordinates":[108.35177,22.82847]},"properties":{"osm_type":"node","osm_id":7149378238,"category":"winery","name":"Rock'n Wine","tags":{"craft":"winery","name":"Rock'n Wine","opening_hours":"Every Day 4:00pm - 11:00pm"}}},{"type":"Feature","id":"node/7159790587","geometry":{"type":"Point","coordinates":[114.01613,22.29621]},"properties":{"osm_type":"node","osm_id":7159790587,"category":"wine_shop","name":"Island Health","tags":{"amenity":"doctors","name":"Island Health","name:en":"Island Health","operator":"Island Health","shop":"wine"}}},{"type":"Feature","id":"node/7159790593","geometry":{"type":"Point","coordinates":[114.01648,22.29527]},"properties":{"osm_type":"node","osm_id":7159790593,"category":"wine_shop","name":"Watson's Wine","tags":{"addr:housenumber":"G11A-2","name":"Watson's Wine","name:en":"Watson's Wine","operator":"Watson's Wine","shop":"wine"}}},{"type":"Feature","id":"node/7374952774","geometry":{"type":"Point","coordinates":[112.13179,32.03466]},"properties":{"osm_type":"node","osm_id":7374952774,"category":"wine_shop","tags":{"shop":"wine"}}},{"type":"Feature","id":"node/7374963733","geometry":{"type":"Point","coordinates":[112.13007,32.04295]},"properties":{"osm_type":"node","osm_id":7374963733,"category":"wine_shop","tags":{"shop":"wine"}}},{"type":"Feature","id":"node/7604449585","geometry":{"type":"Point","coordinates":[114.17162,22.27444]},"properties":{"osm_type":"node","osm_id":7604449585,"category":"wine_shop","name":"Watson’s Wine","tags":{"name:en":"Watson’s Wine","shop":"wine"}}},{"type":"Feature","id":"node/7686341287","geometry":{"type":"Point","coordinates":[119.53216,31.19953]},"properties":{"osm_type":"node","osm_id":7686341287,"category":"wine_shop","name":"一生一遇温泉度假酒店","tags":{"name":"一生一遇温泉度假酒店","shop":"wine"}}},{"type":"Feature","id":"node/7728551985","geometry":{"type":"Point","coordinates":[85.14144,31.01367]},"properties":{"osm_type":"node","osm_id":7728551985,"category":"wine_shop","name":"樂一家酒店","tags":{"name":"樂一家酒店","shop":"wine"}}},{"type":"Feature","id":"node/7735278085","geometry":{"type":"Point","coordinates":[90.0107,31.39978]},"properties":{"osm_type":"node","osm_id":7735278085,"category":"wine_shop","name":"鑫津酒店","tags":{"name":"鑫津酒店","shop":"wine"}}},{"type":"Feature","id":"node/7886469385","geometry":{"type":"Point","coordinates":[102.93272,33.5931]},"properties":{"osm_type":"node","osm_id":7886469385,"category":"wine_shop","name":"西部牧场古格王朝大酒店","tags":{"name":"西部牧场古格王朝大酒店","shop":"wine"}}},{"type":"Feature","id":"node/7888010220","geometry":{"type":"Point","coordinates":[104.96641,37.50957]},"properties":{"osm_type":"node","osm_id":7888010220,"category":"wine_shop","name":"沙漠星星酒店","tags":{"name":"沙漠星星酒店","shop":"wine"}}},{"type":"Feature","id":"node/7888039610","geometry":{"type":"Point","coordinates":[104.96523,37.50746]},"properties":{"osm_type":"node","osm_id":7888039610,"category":"wine_shop","name":"中卫沙漠星星酒店","tags":{"name":"中卫沙漠星星酒店","shop":"wine"}}},{"type":"Feature","id":"node/7940558473","geometry":{"type":"Point","coordinates":[117.16282,39.07748]},"properties":{"osm_type":"node","osm_id":7940558473,"category":"wine_shop","name":"金麦根烟酒茶超市","tags":{"name":"金麦根烟酒茶超市","shop":"wine"}}},{"type":"Feature","id":"node/7990280442","geometry":{"type":"Point","coordinates":[117.19051,39.13382]},"properties":{"osm_type":"node","osm_id":7990280442,"category":"wine_bar","name":"法国王朝","tags":{"amenity":"restaurant","cuisine":"wine","name":"法国王朝","name:zh":"法国王朝","name:zh-Hans":"法国王朝","name:zh-Hant":"法國王朝"}}},{"type":"Feature","id":"node/7998192076","geometry":{"type":"Point","coordinates":[117.1977,39.11182]},"properties":{"osm_type":"node","osm_id":7998192076,"category":"wine_bar","name":"VICS","tags":{"amenity":"restaurant","cuisine":"wine","name":"VICS","name:en":"VICS"}}},{"type":"Feature","id":"node/8014234385","geometry":{"type":"Point","coordinates":[108.72459,34.40524]},"properties":{"osm_type":"node","osm_id":8014234385,"category":"wine_shop","name":"咸陽皇家龍空港酒店","tags":{"name":"咸陽皇家龍空港酒店","shop":"wine"}}},{"type":"Feature","id":"node/8088939542","geometry":{"type":"Point","coordinates":[119.39829,36.85931]},"properties":{"osm_type":"node","osm_id":8088939542,"category":"wine_shop","name":"昌邑市即墨妙府老酒专卖店","tags":{"name":"昌邑市即墨妙府老酒专卖店","shop":"wine"}}},{"type":"Feature","id":"node/8221559055","geometry":{"type":"Point","coordinates":[121.44803,31.21259]},"properties":{"osm_type":"node","osm_id":8221559055,"category":"wine_shop","name":"W&W Wine Shop","tags":{"name":"W&W Wine Shop","shop":"wine"}}},{"type":"Feature","id":"node/8282892714","geometry":{"type":"Point","coordinates":[120.75986,31.336]},"properties":{"osm_type":"node","osm_id":8282892714,"category":"wine_shop","name":"博海烟酒商行","tags":{"addr:city":"苏州市","addr:housenumber":"68","addr:postcode":"215026","addr:street":"北榭雨街","name":"博海烟酒商行","opening_hours":"Mo-Su 07:30-23:00","phone":"+86 133 3867 4225","shop":"wine"}}},{"type":"Feature","id":"node/8326623602","geometry":{"type":"Point","coordinates":[120.75866,31.33583]},"properties":{"osm_type":"node","osm_id":8326623602,"category":"wine_shop","name":"金帆烟酒","tags":{"name":"金帆烟酒","shop":"wine"}}},{"type":"Feature","id":"node/8345336298","geometry":{"type":"Point","coordinates":[120.75427,31.33599]},"properties":{"osm_type":"node","osm_id":8345336298,"category":"wine_shop","tags":{"shop":"wine"}}},{"type":"Feature","id":"node/8488381709","geometry":{"type":"Point","coordinates":[115.58907,32.81376]},"properties":{"osm_type":"node","osm_id":8488381709,"category":"wine_shop","name":"柴集大酒店","tags":{"name":"柴集大酒店","shop":"wine"}}},{"type":"Feature","id":"node/9023098697","geometry":{"type":"Point","coordinates":[108.37503,22.76738]},"properties":{"osm_type":"node","osm_id":9023098697,"category":"wine_shop","name":"Kopi云咖啡","tags":{"addr:housenumber":"8","addr:street":"云英路","alt_name":"五象会客厅","amenity":"restaurant","cuisine":"coffee_shop;chinese","name":"Kopi云咖啡","shop":"wine"}}},{"type":"Feature","id":"node/9026547117","geometry":{"type":"Point","coordinates":[81.12026,43.15384]},"properties":{"osm_type":"node","osm_id":9026547117,"category":"wine_shop","name":"崑崙大酒店","tags":{"name":"崑崙大酒店","shop":"wine"}}},{"type":"Feature","id":"node/9139787219","geometry":{"type":"Point","coordinates":[112.16452,27.45574]},"properties":{"osm_type":"node","osm_id":9139787219,"category":"wine_shop","name":"富厚雅居精品酒店","tags":{"name":"富厚雅居精品酒店","shop":"wine"}}},{"type":"Feature","id":"node/9218496596","geometry":{"type":"Point","coordinates":[125.31531,43.89951]},"properties":{"osm_type":"node","osm_id":9218496596,"category":"wine_shop","tags":{"shop":"wine"}}},{"type":"Feature","id":"node/9399106617","geometry":{"type":"Point","coordinates":[116.6258,40.3403]},"properties":{"osm_type":"node","osm_id":9399106617,"category":"wine_shop","name":"世纪恒晟·名酒汇","tags":{"name":"世纪恒晟·名酒汇","shop":"wine"}}},{"type":"Feature","id":"node/9445323246","geometry":{"type":"Point","coordinates":[116.93344,23.62508]},"properties":{"osm_type":"node","osm_id":9445323246,"category":"wine_shop","name":"晨曦酒庄","tags":{"name":"晨曦酒庄","shop":"wine"}}},{"type":"Feature","id":"node/9536287771","geometry":{"type":"Point","coordinates":[116.62435,40.32551]},"properties":{"osm_type":"node","osm_id":9536287771,"category":"wine_shop","name":"泰山原浆七天啤酒","tags":{"name":"泰山原浆七天啤酒","shop":"wine"}}},{"type":"Feature","id":"node/9590071572","geometry":{"type":"Point","coordinates":[116.62492,40.32833]},"properties":{"osm_type":"node","osm_id":9590071572,"category":"wine_shop","name":"隆腾酒行","tags":{"name":"隆腾酒行","shop":"wine"}}},{"type":"Feature","id":"node/9835186471","geometry":{"type":"Point","coordinates":[116.63212,39.8839]},"properties":{"osm_type":"node","osm_id":9835186471,"category":"wine_shop","name":"靓景烟酒超市","tags":{"name":"靓景烟酒超市","shop":"wine"}}},{"type":"Feature","id":"node/9886939887","geometry":{"type":"Point","coordinates":[116.63331,39.8839]},"properties":{"osm_type":"node","osm_id":9886939887,"category":"wine_shop","name":"朝正烟酒","tags":{"name":"朝正烟酒","shop":"wine"}}},{"type":"Feature","id":"node/9892751017","geometry":{"type":"Point","coordinates":[99.4356,27.56593]},"properties":{"osm_type":"node","osm_id":9892751017,"category":"wine_shop","name":"La Pu Winery","tags":{"name:en":"La Pu Winery","shop":"wine"}}},{"type":"Feature","id":"node/9895439519","geometry":{"type":"Point","coordinates":[98.90694,28.01753]},"properties":{"osm_type":"node","osm_id":9895439519,"category":"wine_shop","name":"Local wine producer","tags":{"name:en":"Local wine producer","shop":"wine"}}},{"type":"Feature","id":"node/9901465617","geometry":{"type":"Point","coordinates":[99.33353,28.20636]},"properties":{"osm_type":"node","osm_id":9901465617,"category":"wine_shop","name":"Walnut Tree Winery","tags":{"name:en":"Walnut Tree Winery","shop":"wine"}}},{"type":"Feature","id":"node/9939009857","geometry":{"type":"Point","coordinates":[111.34024,25.27993]},"properties":{"osm_type":"node","osm_id":9939009857,"category":"wine_shop","name":"锦和茶酒","tags":{"name":"锦和茶酒","shop":"wine"}}},{"type":"Feature","id":"node/9970279411","geometry":{"type":"Point","coordinates":[114.44326,23.07208]},"properties":{"osm_type":"node","osm_id":9970279411,"category":"wine_shop","name":"爵伦·酒世界","tags":{"addr:city":"惠州市","addr:housenumber":"2号110","addr:postcode":"516002","addr:street":"旭日路","name":"爵伦·酒世界","name:en":"JueLun Chateau","name:zh":"爵伦·酒世界","opening_hours":"Mo-Su 09:00-23:00","operator":"惠州市爵伦商贸有限公司","phone":"+86 180 4626 3556","shop":"wine"}}},{"type":"Feature","id":"node/10081122404","geometry":{"type":"Point","coordinates":[121.63459,38.91386]},"properties":{"osm_type":"node","osm_id":10081122404,"category":"wine_shop","name":"四海阁烟酒商行","tags":{"name":"四海阁烟酒商行","shop":"wine"}}},{"type":"Feature","id":"node/10081122409","geometry":{"type":"Point","coordinates":[121.63475,38.91314]},"properties":{"osm_type":"node","osm_id":10081122409,"category":"wine_shop","name":"华致名酒库","tags":{"name":"华致名酒库","shop":"wine"}}},{"type":"Feature","id":"node/10094903837","geometry":{"type":"Point","coordinates":[114.44695,23.07319]},"properties":{"osm_type":"node","osm_id":10094903837,"category":"wine_shop","name":"鑫叶烟酒商行","tags":{"addr:city":"惠州市","addr:housenumber":"1号012","addr:postcode":"516002","addr:street":"旭日路","name":"鑫叶烟酒商行","official_name":"惠州市惠城区鑫太鑫烟酒商行","operator":"张钦亮","phone":"+86 180 6027 1600","shop":"wine"}}},{"type":"Feature","id":"node/10213573682","geometry":{"type":"Point","coordinates":[122.11451,30.02044]},"properties":{"osm_type":"node","osm_id":10213573682,"category":"wine_shop","name":"赛君烟酒店","tags":{"name":"赛君烟酒店","shop":"wine"}}},{"type":"Feature","id":"node/10277278073","geometry":{"type":"Point","coordinates":[123.96112,47.3385]},"properties":{"osm_type":"node","osm_id":10277278073,"category":"wine_shop","name":"1919.CN 酒类直供","tags":{"name":"1919.CN 酒类直供","name:zh":"1919.CN 酒类直供","name:zh-Hans":"1919.CN 酒类直供","name:zh-Hant":"1919.CN 酒類直供","phone":"+86 400 999 1919","shop":"wine"}}},{"type":"Feature","id":"node/10554122267","geometry":{"type":"Point","coordinates":[111.69547,35.73551]},"properties":{"osm_type":"node","osm_id":10554122267,"category":"wine_shop","name":"三琪宜居","tags":{"name":"三琪宜居","shop":"wine"}}},{"type":"Feature","id":"node/10558971048","geometry":{"type":"Point","coordinates":[120.65955,28.01335]},"properties":{"osm_type":"node","osm_id":10558971048,"category":"winery","name":"金锡烟酒","tags":{"craft":"winery","name":"金锡烟酒"}}},{"type":"Feature","id":"node/10594382287","geometry":{"type":"Point","coordinates":[114.44604,23.07353]},"properties":{"osm_type":"node","osm_id":10594382287,"category":"wine_shop","name":"太鑫酒业","tags":{"addr:city":"惠州市","addr:housenumber":"1号019","addr:postcode":"516002","addr:street":"东升一路","name":"太鑫酒业","official_name":"惠州市惠城区太鑫酒业","operator":"练立波","phone":"+86 752 782 1616","shop":"wine"}}},{"type":"Feature","id":"node/10595421573","geometry":{"type":"Point","coordinates":[123.36516,41.81223]},"properties":{"osm_type":"node","osm_id":10595421573,"category":"wine_shop","name":"古井贡酒品牌体验中心","tags":{"addr:city":"笃工街道","addr:street":"齐贤北街","name":"古井贡酒品牌体验中心","opening_hours":"09:30-21:00","phone":"+86 24 3182 5789","shop":"wine"}}},{"type":"Feature","id":"node/10595458714","geometry":{"type":"Point","coordinates":[120.61692,27.98496]},"properties":{"osm_type":"node","osm_id":10595458714,"category":"wine_shop","name":"久益烟酒行","tags":{"name":"久益烟酒行","shop":"wine"}}},{"type":"Feature","id":"node/10595739139","geometry":{"type":"Point","coordinates":[114.44101,23.07305]},"properties":{"osm_type":"node","osm_id":10595739139,"category":"wine_shop","name":"钓鱼台国宾酒业","tags":{"addr:city":"惠州市","addr:housenumber":"1号190","addr:postcode":"516002","addr:street":"东升二路","brand":"钓鱼台国宾酒","name":"钓鱼台国宾酒业","operator":"惠州市惠城区致敬食品商行","phone":"+86 136 2279 9655","shop":"wine"}}},{"type":"Feature","id":"node/10595739148","geometry":{"type":"Point","coordinates":[114.44047,23.0733]},"properties":{"osm_type":"node","osm_id":10595739148,"category":"wine_shop","name":"林生酒仓","tags":{"addr:city":"惠州市","addr:housenumber":"1号205","addr:postcode":"516002","addr:street":"东升二路","name":"林生酒仓","name:en":"Linsheng Wine","name:zh":"林生酒仓","operator":"林生贸易（广东）有限公司","shop":"wine"}}},{"type":"Feature","id":"node/10606350964","geometry":{"type":"Point","coordinates":[114.43698,23.07644]},"properties":{"osm_type":"node","osm_id":10606350964,"category":"wine_shop","name":"华浤茶酒商行","tags":{"addr:city":"惠州市","addr:housenumber":"1号072","addr:postcode":"516002","addr:street":"东升三路","name":"华浤茶酒商行","official_name":"惠州市惠城区华浤茶酒商行","operator":"田情情","phone":"+86 136 4095 9818","shop":"wine"}}},{"type":"Feature","id":"node/10611512004","geometry":{"type":"Point","coordinates":[114.44022,23.07696]},"properties":{"osm_type":"node","osm_id":10611512004,"category":"wine_shop","name":"康朗轩·斯多比葡萄酒庄","tags":{"addr:city":"惠州市","addr:housenumber":"1号146","addr:postcode":"516002","addr:street":"东升三路","name":"康朗轩·斯多比葡萄酒庄","name:en":"Stobi","name:zh":"康朗轩·斯多比葡萄酒庄","official_name":"惠州市惠城区康朗轩食品商行","opening_hours":"Mo-Su 10:00-22:00","operator":"陈怀群","phone":"+86 133 1634 1298","shop":"wine"}}},{"type":"Feature","id":"node/10611518083","geometry":{"type":"Point","coordinates":[114.4372,23.07698]},"properties":{"osm_type":"node","osm_id":10611518083,"category":"wine_shop","name":"逸仙台酒业酱酒文化体验中心","tags":{"addr:city":"惠州市","addr:housenumber":"1号081","addr:postcode":"516002","addr:street":"东升三路","name":"逸仙台酒业酱酒文化体验中心","official_name":"惠州市惠城区瑞尔琳娜酒庄","operator":"陈惠斌","phone":"+86 159 1775 8616","shop":"wine"}}},{"type":"Feature","id":"node/10617633860","geometry":{"type":"Point","coordinates":[113.98382,22.52775]},"properties":{"osm_type":"node","osm_id":10617633860,"category":"wine_shop","name":"大美黔酒","tags":{"name":"大美黔酒","shop":"wine"}}},{"type":"Feature","id":"node/10637293619","geometry":{"type":"Point","coordinates":[113.29582,23.39216]},"properties":{"osm_type":"node","osm_id":10637293619,"category":"wine_shop","name":"feisun","tags":{"name":"feisun","shop":"wine"}}},{"type":"Feature","id":"node/10649401981","geometry":{"type":"Point","coordinates":[114.44745,23.0762]},"properties":{"osm_type":"node","osm_id":10649401981,"category":"wine_shop","name":"老酒合作社","tags":{"addr:city":"惠州市","addr:housenumber":"1号","addr:postcode":"516002","addr:street":"旭日一路","name":"老酒合作社","opening_hours":"Mo-Su 10:00-22:30","operator":"惠州市同坤酒业有限公司","phone":"+86 132 6666 6538","shop":"wine"}}},{"type":"Feature","id":"node/10651068034","geometry":{"type":"Point","coordinates":[114.4477,23.07709]},"properties":{"osm_type":"node","osm_id":10651068034,"category":"wine_shop","name":"茂缘商行","tags":{"addr:city":"惠州市","addr:housenumber":"1号","addr:postcode":"516002","addr:street":"旭日一路","name":"茂缘商行","official_name":"惠州市惠城区鑫典茶烟酒商行","operator":"黄君茂","phone":"+86 187 1919 9888","shop":"wine"}}},{"type":"Feature","id":"node/10657852561","geometry":{"type":"Point","coordinates":[114.44807,23.07795]},"properties":{"osm_type":"node","osm_id":10657852561,"category":"wine_shop","name":"晖煌酒业","tags":{"addr:city":"惠州市","addr:housenumber":"3号055","addr:postcode":"516002","addr:street":"旭日二路","email":"hzwbhlp129@163.com","name":"晖煌酒业","name:en":"Hui Huang Alcoholic Beverages","name:zh":"晖煌酒业","opening_hours":"Mo-Su 09:00-21:30","operator":"惠州市晖煌商贸有限公司","phone":"+86 752 222 3232","shop":"wine"}}},{"type":"Feature","id":"node/10657852602","geometry":{"type":"Point","coordinates":[114.44813,23.07983]},"properties":{"osm_type":"node","osm_id":10657852602,"category":"wine_shop","name":"嘉恒悦商行","tags":{"addr:city":"惠州市","addr:housenumber":"3号095","addr:postcode":"516002","addr:street":"旭日二路","name":"嘉恒悦商行","official_name":"惠州市惠城区嘉恒悦食品商行","operator":"丘丽乔","phone":"+86 133 6087 8619","shop":"wine"}}},{"type":"Feature","id":"node/10663373020","geometry":{"type":"Point","coordinates":[114.44772,23.08053]},"properties":{"osm_type":"node","osm_id":10663373020,"category":"wine_shop","name":"君荣酒业","tags":{"addr:city":"惠州市","addr:housenumber":"3号074","addr:postcode":"516002","addr:street":"东升一路","name":"君荣酒业","official_name":"惠州市惠城区君荣贸易经营部","opening_hours":"Mo-Su 09:00-21:00","operator":"邓勇","phone":"+86 134 3769 8538","shop":"wine"}}},{"type":"Feature","id":"node/10669992704","geometry":{"type":"Point","coordinates":[114.44676,23.08171]},"properties":{"osm_type":"node","osm_id":10669992704,"category":"wine_shop","name":"凯裕酒业","tags":{"addr:city":"惠州市","addr:housenumber":"3号048","addr:postcode":"516002","addr:street":"东升一路","email":"3320827688@qq.com","name":"凯裕酒业","opening_hours":"Mo-Su 09:00-00:00","operator":"惠州市凯裕贸易有限公司","phone":"+86 752 591 6879","shop":"wine"}}},{"type":"Feature","id":"node/10670028413","geometry":{"type":"Point","coordinates":[114.44636,23.08187]},"properties":{"osm_type":"node","osm_id":10670028413,"category":"wine_shop","name":"繁沙酒业","tags":{"addr:city":"惠州市","addr:housenumber":"3号039","addr:postcode":"516002","addr:street":"东升一路","name":"繁沙酒业","shop":"wine"}}},{"type":"Feature","id":"node/10670028465","geometry":{"type":"Point","coordinates":[114.44742,23.08003]},"properties":{"osm_type":"node","osm_id":10670028465,"category":"wine_shop","name":"卡宜利斯酒业","tags":{"addr:city":"惠州市","addr:housenumber":"3号084","addr:postcode":"516002","addr:street":"东升一路","name":"卡宜利斯酒业","official_name":"惠州市惠城区卡宜利斯酒业商行","operator":"张国珍","phone":"+86 138 2990 3888","shop":"wine"}}},{"type":"Feature","id":"node/10670028498","geometry":{"type":"Point","coordinates":[114.44725,23.08182]},"properties":{"osm_type":"node","osm_id":10670028498,"category":"wine_shop","name":"和润酒业","tags":{"addr:city":"惠州市","addr:housenumber":"4号004","addr:postcode":"516002","addr:street":"东升路","name":"和润酒业","shop":"wine"}}},{"type":"Feature","id":"node/10673529419","geometry":{"type":"Point","coordinates":[114.44968,23.07903]},"properties":{"osm_type":"node","osm_id":10673529419,"category":"wine_shop","name":"歪马送酒","tags":{"addr:city":"惠州市","addr:housenumber":"9号072","addr:postcode":"516002","addr:street":"旭日二路","brand":"歪马送酒","name":"歪马送酒","phone":"+86 176 3910 3427","shop":"wine"}}},{"type":"Feature","id":"node/10674283095","geometry":{"type":"Point","coordinates":[114.45016,23.07697]},"properties":{"osm_type":"node","osm_id":10674283095,"category":"wine_shop","name":"惠铭轩商行","tags":{"addr:city":"惠州市","addr:housenumber":"9号014","addr:postcode":"516002","addr:street":"旭日二路","name":"惠铭轩商行","official_name":"惠州市惠城区惠铭轩食品商行","opening_hours":"Mo-Su 08:00-23:45","operator":"刘虹娜","phone":"+86 138 0287 2168","shop":"wine"}}},{"type":"Feature","id":"node/10707011263","geometry":{"type":"Point","coordinates":[116.33893,40.0141]},"properties":{"osm_type":"node","osm_id":10707011263,"category":"wine_shop","name":"京东酒世界","tags":{"name":"京东酒世界","shop":"wine"}}},{"type":"Feature","id":"node/10708205589","geometry":{"type":"Point","coordinates":[116.62976,39.88585]},"properties":{"osm_type":"node","osm_id":10708205589,"category":"wine_shop","tags":{"shop":"wine"}}},{"type":"Feature","id":"node/10906766145","geometry":{"type":"Point","coordinates":[106.41908,23.1277]},"properties":{"osm_type":"node","osm_id":10906766145,"category":"wine_shop","name":"盛祺酒坊","tags":{"name":"盛祺酒坊","shop":"wine"}}},{"type":"Feature","id":"node/11014059079","geometry":{"type":"Point","coordinates":[116.12127,24.29037]},"properties":{"osm_type":"node","osm_id":11014059079,"category":"wine_shop","tags":{"shop":"wine"}}},{"type":"Feature","id":"node/11014092609","geometry":{"type":"Point","coordinates":[116.11026,24.28285]},"properties":{"osm_type":"node","osm_id":11014092609,"category":"wine_shop","name":"和兴酒行","tags":{"name":"和兴酒行","shop":"wine"}}},{"type":"Feature","id":"node/11014098420","geometry":{"type":"Point","coordinates":[116.11086,24.28326]},"properties":{"osm_type":"node","osm_id":11014098420,"category":"wine_shop","name":"长乐烧","tags":{"name":"长乐烧","shop":"wine"}}},{"type":"Feature","id":"node/11069274577","geometry":{"type":"Point","coordinates":[119.38411,32.39643]},"properties":{"osm_type":"node","osm_id":11069274577,"category":"wine_shop","name":"今世缘·国缘","tags":{"addr:housenumber":"125","addr:street":"百祥路","name":"今世缘·国缘","opening_hours":"08:00-20:00","shop":"wine"}}},{"type":"Feature","id":"node/11112955983","geometry":{"type":"Point","coordinates":[116.68225,24.35889]},"properties":{"osm_type":"node","osm_id":11112955983,"category":"wine_shop","name":"城堡酒业","tags":{"name":"城堡酒业","shop":"wine"}}},{"type":"Feature","id":"node/11112978043","geometry":{"type":"Point","coordinates":[116.15907,24.65294]},"properties":{"osm_type":"node","osm_id":11112978043,"category":"wine_shop","name":"郡逸酒品荟","tags":{"name":"郡逸酒品荟","shop":"wine"}}},{"type":"Feature","id":"node/11115765636","geometry":{"type":"Point","coordinates":[104.93054,29.41788]},"properties":{"osm_type":"node","osm_id":11115765636,"category":"winery","name":"何市赖雅庙酒坊","tags":{"craft":"winery","name":"何市赖雅庙酒坊"}}},{"type":"Feature","id":"node/11172359600","geometry":{"type":"Point","coordinates":[112.49463,23.0739]},"properties":{"osm_type":"node","osm_id":11172359600,"category":"wine_shop","tags":{"shop":"wine"}}},{"type":"Feature","id":"node/11181076330","geometry":{"type":"Point","coordinates":[119.22284,39.7435]},"properties":{"osm_type":"node","osm_id":11181076330,"category":"winery","name":"茅台葡萄酒厂","tags":{"craft":"winery","name":"茅台葡萄酒厂"}}},{"type":"Feature","id":"node/11186558467","geometry":{"type":"Point","coordinates":[112.50056,23.0824]},"properties":{"osm_type":"node","osm_id":11186558467,"category":"wine_shop","name":"轩利烟酒行","tags":{"name":"轩利烟酒行","shop":"wine"}}},{"type":"Feature","id":"node/11201752624","geometry":{"type":"Point","coordinates":[112.48616,23.07261]},"properties":{"osm_type":"node","osm_id":11201752624,"category":"wine_shop","name":"洪亿烟酒专营 烟酒回收","tags":{"name":"洪亿烟酒专营 烟酒回收","shop":"wine"}}},{"type":"Feature","id":"node/11308875369","geometry":{"type":"Point","coordinates":[130.3619,42.8701]},"properties":{"osm_type":"node","osm_id":11308875369,"category":"wine_shop","tags":{"name:ru":"Уао Син","shop":"wine"}}},{"type":"Feature","id":"node/11314050972","geometry":{"type":"Point","coordinates":[130.35045,42.8609]},"properties":{"osm_type":"node","osm_id":11314050972,"category":"wine_shop","name":"小酒喔酒类直供","tags":{"name":"小酒喔酒类直供","name:en":"Wine&Spirits importer and retailer","name:ru":"Алкогольный магазин с Обезьянкой","shop":"wine"}}},{"type":"Feature","id":"node/11335123770","geometry":{"type":"Point","coordinates":[114.17435,22.2942]},"properties":{"osm_type":"node","osm_id":11335123770,"category":"wine_shop","tags":{"shop":"wine"}}},{"type":"Feature","id":"node/11375356395","geometry":{"type":"Point","coordinates":[121.29987,31.15032]},"properties":{"osm_type":"node","osm_id":11375356395,"category":"wine_shop","name":"苏酒酒行","tags":{"name":"苏酒酒行","name:en":"Sujiu Liquor Store","name:zh-Hans":"苏酒酒行","shop":"wine"}}},{"type":"Feature","id":"node/11389444284","geometry":{"type":"Point","coordinates":[121.34904,31.13706]},"properties":{"osm_type":"node","osm_id":11389444284,"category":"wine_shop","name":"茅台酱香品鉴馆","tags":{"name":"茅台酱香品鉴馆","name:zh":"茅台酱香品鉴馆","name:zh-Hans":"茅台酱香品鉴馆","shop":"wine"}}},{"type":"Feature","id":"node/11556188804","geometry":{"type":"Point","coordinates":[120.47286,30.06081]},"properties":{"osm_type":"node","osm_id":11556188804,"category":"wine_shop","name":"风土酒市","tags":{"name":"风土酒市","shop":"wine"}}},{"type":"Feature","id":"node/11612750775","geometry":{"type":"Point","coordinates":[115.08733,35.77022]},"properties":{"osm_type":"node","osm_id":11612750775,"category":"wine_shop","name":"华致名酒库","tags":{"addr:city":"濮阳市","addr:street":"任丘路","name":"华致名酒库","shop":"wine"}}},{"type":"Feature","id":"node/11809298340","geometry":{"type":"Point","coordinates":[115.03848,35.78578]},"properties":{"osm_type":"node","osm_id":11809298340,"category":"wine_shop","name":"豫濮名酒收藏馆","tags":{"addr:city":"濮阳市","addr:street":"五一中路","name":"豫濮名酒收藏馆","shop":"wine"}}},{"type":"Feature","id":"node/11862249416","geometry":{"type":"Point","coordinates":[121.09899,31.28658]},"properties":{"osm_type":"node","osm_id":11862249416,"category":"wine_shop","name":"昆元汇烟酒店","tags":{"name":"昆元汇烟酒店","shop":"wine"}}},{"type":"Feature","id":"node/11871353640","geometry":{"type":"Point","coordinates":[114.19206,22.33001]},"properties":{"osm_type":"node","osm_id":11871353640,"category":"winery","tags":{"craft":"winery"}}},{"type":"Feature","id":"node/11883497343","geometry":{"type":"Point","coordinates":[121.13777,31.25087]},"properties":{"osm_type":"node","osm_id":11883497343,"category":"wine_shop","name":"百锐酒庄有限公司","tags":{"name":"百锐酒庄有限公司","shop":"wine"}}},{"type":"Feature","id":"node/11906850472","geometry":{"type":"Point","coordinates":[126.62351,45.78061]},"properties":{"osm_type":"node","osm_id":11906850472,"category":"wine_shop","name":"Wine and Spirits importer and retailer","tags":{"name:en":"Wine and Spirits importer and retailer","name:ru":"Магазин иностранных алкогольных напитков","shop":"wine"}}},{"type":"Feature","id":"node/11915785800","geometry":{"type":"Point","coordinates":[121.03667,31.01192]},"properties":{"osm_type":"node","osm_id":11915785800,"category":"wine_shop","name":"阿二酒庄(练塘形象店)","tags":{"name":"阿二酒庄(练塘形象店)","shop":"wine"}}},{"type":"Feature","id":"node/11915862381","geometry":{"type":"Point","coordinates":[121.03665,31.01135]},"properties":{"osm_type":"node","osm_id":11915862381,"category":"wine_shop","name":"绍兴黄白酒","tags":{"name":"绍兴黄白酒","shop":"wine"}}},{"type":"Feature","id":"node/11993493833","geometry":{"type":"Point","coordinates":[113.34127,23.10075]},"properties":{"osm_type":"node","osm_id":11993493833,"category":"wine_shop","name":"茅台专营店","tags":{"name":"茅台专营店","shop":"wine"}}},{"type":"Feature","id":"node/12032229188","geometry":{"type":"Point","coordinates":[107.20023,22.8358]},"properties":{"osm_type":"node","osm_id":12032229188,"category":"wine_shop","name":"茅台","tags":{"name":"茅台","shop":"wine"}}},{"type":"Feature","id":"node/12039070508","geometry":{"type":"Point","coordinates":[126.96629,46.64772]},"properties":{"osm_type":"node","osm_id":12039070508,"category":"wine_shop","name":"小酒喔酒类直供(黄河北路店)","tags":{"name":"小酒喔酒类直供(黄河北路店)","shop":"wine"}}},{"type":"Feature","id":"node/12039070511","geometry":{"type":"Point","coordinates":[126.96636,46.64743]},"properties":{"osm_type":"node","osm_id":12039070511,"category":"wine_shop","name":"酒直达(黄河北路店)","tags":{"name":"酒直达(黄河北路店)","shop":"wine"}}},{"type":"Feature","id":"node/12039070513","geometry":{"type":"Point","coordinates":[126.96638,46.64734]},"properties":{"osm_type":"node","osm_id":12039070513,"category":"wine_shop","name":"1919中国酱香白酒名酒馆","tags":{"name":"1919中国酱香白酒名酒馆","shop":"wine"}}},{"type":"Feature","id":"node/12039070525","geometry":{"type":"Point","coordinates":[126.96657,46.64663]},"properties":{"osm_type":"node","osm_id":12039070525,"category":"wine_shop","name":"好烟好酒","tags":{"name":"好烟好酒","shop":"wine"}}},{"type":"Feature","id":"node/12039070540","geometry":{"type":"Point","coordinates":[126.96686,46.64565]},"properties":{"osm_type":"node","osm_id":12039070540,"category":"wine_shop","name":"919酒类直供(黄河北路店)","tags":{"name":"919酒类直供(黄河北路店)","shop":"wine"}}},{"type":"Feature","id":"node/12091515114","geometry":{"type":"Point","coordinates":[121.66024,31.79579]},"properties":{"osm_type":"node","osm_id":12091515114,"category":"wine_shop","name":"小马烟酒","tags":{"name":"小马烟酒","shop":"wine"}}},{"type":"Feature","id":"node/12111518676","geometry":{"type":"Point","coordinates":[126.9653,46.64458]},"properties":{"osm_type":"node","osm_id":12111518676,"category":"wine_shop","name":"八旗酒业","tags":{"name":"八旗酒业","shop":"wine"}}},{"type":"Feature","id":"node/12113878145","geometry":{"type":"Point","coordinates":[113.75133,23.02416]},"properties":{"osm_type":"node","osm_id":12113878145,"category":"wine_shop","tags":{"shop":"wine"}}},{"type":"Feature","id":"node/12161938158","geometry":{"type":"Point","coordinates":[103.88956,30.79537]},"properties":{"osm_type":"node","osm_id":12161938158,"category":"wine_shop","name":"水井坊","tags":{"name":"水井坊","shop":"wine"}}},{"type":"Feature","id":"node/12178476147","geometry":{"type":"Point","coordinates":[120.65127,27.91919]},"properties":{"osm_type":"node","osm_id":12178476147,"category":"wine_shop","name":"卡托尼酒庄","tags":{"name":"卡托尼酒庄","shop":"wine"}}},{"type":"Feature","id":"node/12197197695","geometry":{"type":"Point","coordinates":[116.73215,39.90628]},"properties":{"osm_type":"node","osm_id":12197197695,"category":"wine_shop","name":"京华烟云","tags":{"name":"京华烟云","shop":"wine"}}},{"type":"Feature","id":"node/12252432344","geometry":{"type":"Point","coordinates":[116.19168,39.9276]},"properties":{"osm_type":"node","osm_id":12252432344,"category":"wine_shop","name":"点点通电竞酒店","tags":{"name":"点点通电竞酒店","shop":"wine"}}},{"type":"Feature","id":"node/12348584696","geometry":{"type":"Point","coordinates":[100.21776,25.58836]},"properties":{"osm_type":"node","osm_id":12348584696,"category":"wine_shop","name":"百芭乐","tags":{"name":"百芭乐","shop":"wine"}}},{"type":"Feature","id":"node/12431287558","geometry":{"type":"Point","coordinates":[114.19593,22.32518]},"properties":{"osm_type":"node","osm_id":12431287558,"category":"wine_shop","name":"Sake Z Plus","tags":{"addr:housenumber":"38","addr:street":"承啟道 Shing Kai Road","name":"Sake Z Plus","opening_hours":"Mo-Su 10:00-22:00","phone":"+852 6364 6611","shop":"wine"}}},{"type":"Feature","id":"node/12460404482","geometry":{"type":"Point","coordinates":[106.4034,23.14622]},"properties":{"osm_type":"node","osm_id":12460404482,"category":"wine_shop","name":"梦之蓝","tags":{"name":"梦之蓝","shop":"wine"}}},{"type":"Feature","id":"node/12466796422","geometry":{"type":"Point","coordinates":[104.00543,30.66059]},"properties":{"osm_type":"node","osm_id":12466796422,"category":"wine_shop","name":"四道诺登法国葡萄酒专卖","tags":{"name":"四道诺登法国葡萄酒专卖","shop":"wine"}}},{"type":"Feature","id":"node/12509259877","geometry":{"type":"Point","coordinates":[104.08867,30.55103]},"properties":{"osm_type":"node","osm_id":12509259877,"category":"wine_shop","name":"升湖金尊酒","tags":{"name":"升湖金尊酒","shop":"wine"}}},{"type":"Feature","id":"node/12514848366","geometry":{"type":"Point","coordinates":[104.12366,30.67602]},"properties":{"osm_type":"node","osm_id":12514848366,"category":"wine_shop","name":"江津白酒","tags":{"name":"江津白酒","shop":"wine"}}},{"type":"Feature","id":"node/12514848654","geometry":{"type":"Point","coordinates":[104.06528,30.52963]},"properties":{"osm_type":"node","osm_id":12514848654,"category":"wine_shop","name":"弘吉烟酒(华府大道一段店)","tags":{"name":"弘吉烟酒(华府大道一段店)","shop":"wine"}}},{"type":"Feature","id":"node/12536082244","geometry":{"type":"Point","coordinates":[108.34792,21.63607]},"properties":{"osm_type":"node","osm_id":12536082244,"category":"wine_shop","name":"泽华商行","tags":{"name":"泽华商行","shop":"wine"}}},{"type":"Feature","id":"node/12553893029","geometry":{"type":"Point","coordinates":[104.09943,30.62916]},"properties":{"osm_type":"node","osm_id":12553893029,"category":"wine_shop","name":"水井坊(牛沙后街店)","tags":{"name":"水井坊(牛沙后街店)","shop":"wine"}}},{"type":"Feature","id":"node/12555860596","geometry":{"type":"Point","coordinates":[104.10002,30.6461]},"properties":{"osm_type":"node","osm_id":12555860596,"category":"wine_shop","name":"泸州老窖官方旗舰店(东大街锦东路店)","tags":{"name":"泸州老窖官方旗舰店(东大街锦东路店)","shop":"wine"}}},{"type":"Feature","id":"node/12555907085","geometry":{"type":"Point","coordinates":[104.10025,30.64288]},"properties":{"osm_type":"node","osm_id":12555907085,"category":"wine_shop","name":"泸州老窖","tags":{"name":"泸州老窖","shop":"wine"}}},{"type":"Feature","id":"node/12555907473","geometry":{"type":"Point","coordinates":[104.10089,30.63892]},"properties":{"osm_type":"node","osm_id":12555907473,"category":"wine_shop","name":"原生态纯高粱酒(海椒市东街店)","tags":{"name":"原生态纯高粱酒(海椒市东街店)","shop":"wine"}}},{"type":"Feature","id":"node/12555907474","geometry":{"type":"Point","coordinates":[104.10082,30.63893]},"properties":{"osm_type":"node","osm_id":12555907474,"category":"wine_shop","name":"脸红熊猫·中国精酿(海椒市店)","tags":{"name":"脸红熊猫·中国精酿(海椒市店)","shop":"wine"}}},{"type":"Feature","id":"node/12556579358","geometry":{"type":"Point","coordinates":[116.38797,39.94612]},"properties":{"osm_type":"node","osm_id":12556579358,"category":"winery","name":"东诚酒业","tags":{"craft":"winery","name":"东诚酒业"}}},{"type":"Feature","id":"node/12556796630","geometry":{"type":"Point","coordinates":[104.12872,30.67853]},"properties":{"osm_type":"node","osm_id":12556796630,"category":"wine_shop","name":"贵州茅台专卖店(成都市二仙桥东路店)","tags":{"name":"贵州茅台专卖店(成都市二仙桥东路店)","shop":"wine"}}},{"type":"Feature","id":"node/12558978344","geometry":{"type":"Point","coordinates":[104.13475,30.64806]},"properties":{"osm_type":"node","osm_id":12558978344,"category":"wine_shop","name":"米兰酒庄","tags":{"name":"米兰酒庄","shop":"wine"}}},{"type":"Feature","id":"node/12560984354","geometry":{"type":"Point","coordinates":[104.15558,30.63075]},"properties":{"osm_type":"node","osm_id":12560984354,"category":"wine_shop","name":"金剑南(和韵西路店)","tags":{"name":"金剑南(和韵西路店)","shop":"wine"}}},{"type":"Feature","id":"node/12562217844","geometry":{"type":"Point","coordinates":[104.13557,30.61923]},"properties":{"osm_type":"node","osm_id":12562217844,"category":"wine_shop","name":"通惠酒水(通惠店)","tags":{"name":"通惠酒水(通惠店)","shop":"wine"}}},{"type":"Feature","id":"node/12565840282","geometry":{"type":"Point","coordinates":[104.12263,30.61999]},"properties":{"osm_type":"node","osm_id":12565840282,"category":"wine_shop","name":"豪庆酒窖","tags":{"name":"豪庆酒窖","shop":"wine"}}},{"type":"Feature","id":"node/12565840323","geometry":{"type":"Point","coordinates":[104.12403,30.61913]},"properties":{"osm_type":"node","osm_id":12565840323,"category":"wine_shop","name":"泰山原浆啤酒(东门市井店)","tags":{"name":"泰山原浆啤酒(东门市井店)","shop":"wine"}}},{"type":"Feature","id":"node/12565840614","geometry":{"type":"Point","coordinates":[104.12614,30.61361]},"properties":{"osm_type":"node","osm_id":12565840614,"category":"wine_shop","name":"红云烟酒","tags":{"name":"红云烟酒","shop":"wine"}}},{"type":"Feature","id":"node/12568190890","geometry":{"type":"Point","coordinates":[104.15252,30.59164]},"properties":{"osm_type":"node","osm_id":12568190890,"category":"wine_shop","name":"国窖1573御品轩烟酒商行(银杏大道店)","tags":{"name":"国窖1573御品轩烟酒商行(银杏大道店)","shop":"wine"}}},{"type":"Feature","id":"node/12579215795","geometry":{"type":"Point","coordinates":[103.9978,30.66583]},"properties":{"osm_type":"node","osm_id":12579215795,"category":"wine_shop","name":"国窖1573(瑞南街店)","tags":{"name":"国窖1573(瑞南街店)","shop":"wine"}}},{"type":"Feature","id":"node/12584776161","geometry":{"type":"Point","coordinates":[104.0341,30.67044]},"properties":{"osm_type":"node","osm_id":12584776161,"category":"wine_shop","name":"泸州老窖专卖店","tags":{"name":"泸州老窖专卖店","shop":"wine"}}},{"type":"Feature","id":"node/12587052801","geometry":{"type":"Point","coordinates":[119.58331,39.9294]},"properties":{"osm_type":"node","osm_id":12587052801,"category":"wine_shop","name":"茅台葡萄酒专卖店","tags":{"name":"茅台葡萄酒专卖店","opening_hours":"Mo-Su 09:00-18:30","phone":"+8615232349995","shop":"wine"}}},{"type":"Feature","id":"node/12587683847","geometry":{"type":"Point","coordinates":[109.40858,24.29633]},"properties":{"osm_type":"node","osm_id":12587683847,"category":"wine_shop","name":"贵州珍酒","tags":{"name":"贵州珍酒","shop":"wine"}}},{"type":"Feature","id":"node/12598667844","geometry":{"type":"Point","coordinates":[104.0316,30.701]},"properties":{"osm_type":"node","osm_id":12598667844,"category":"wine_shop","tags":{"shop":"wine"}}},{"type":"Feature","id":"node/12603872811","geometry":{"type":"Point","coordinates":[104.02286,30.70703]},"properties":{"osm_type":"node","osm_id":12603872811,"category":"wine_shop","name":"佳和鑫酒业","tags":{"name":"佳和鑫酒业","shop":"wine"}}},{"type":"Feature","id":"node/12614924856","geometry":{"type":"Point","coordinates":[104.02682,30.60749]},"properties":{"osm_type":"node","osm_id":12614924856,"category":"wine_shop","name":"剑南春","tags":{"name":"剑南春","shop":"wine"}}},{"type":"Feature","id":"node/12620423428","geometry":{"type":"Point","coordinates":[104.06138,30.70839]},"properties":{"osm_type":"node","osm_id":12620423428,"category":"wine_shop","name":"佳鑫商贸","tags":{"name":"佳鑫商贸","shop":"wine"}}},{"type":"Feature","id":"node/12620626140","geometry":{"type":"Point","coordinates":[104.07225,30.70288]},"properties":{"osm_type":"node","osm_id":12620626140,"category":"wine_shop","name":"丰谷酒业","tags":{"name":"丰谷酒业","shop":"wine"}}},{"type":"Feature","id":"node/12628198527","geometry":{"type":"Point","coordinates":[104.03891,30.6047]},"properties":{"osm_type":"node","osm_id":12628198527,"category":"wine_shop","name":"千佛白酒纯高粱酒","tags":{"name":"千佛白酒纯高粱酒","shop":"wine"}}},{"type":"Feature","id":"node/12638805449","geometry":{"type":"Point","coordinates":[104.11294,30.59134]},"properties":{"osm_type":"node","osm_id":12638805449,"category":"wine_shop","name":"子阳酒业","tags":{"name":"子阳酒业","shop":"wine"}}},{"type":"Feature","id":"node/12662829186","geometry":{"type":"Point","coordinates":[104.17972,30.73447]},"properties":{"osm_type":"node","osm_id":12662829186,"category":"wine_shop","name":"醉妙酒水","tags":{"name":"醉妙酒水","shop":"wine"}}},{"type":"Feature","id":"node/12679981601","geometry":{"type":"Point","coordinates":[131.8701,45.53997]},"properties":{"osm_type":"node","osm_id":12679981601,"category":"wine_shop","tags":{"name:ru":"Алкомаркет","shop":"wine"}}},{"type":"Feature","id":"node/12712342535","geometry":{"type":"Point","coordinates":[104.2775,30.98708]},"properties":{"osm_type":"node","osm_id":12712342535,"category":"wine_shop","name":"泸州老窖","tags":{"name":"泸州老窖","shop":"wine"}}},{"type":"Feature","id":"node/12750123003","geometry":{"type":"Point","coordinates":[113.28778,23.37335]},"properties":{"osm_type":"node","osm_id":12750123003,"category":"wine_shop","name":"Tobacco Alcohol Tea","tags":{"name":"Tobacco Alcohol Tea","shop":"wine"}}},{"type":"Feature","id":"node/12811610259","geometry":{"type":"Point","coordinates":[121.59314,31.27939]},"properties":{"osm_type":"node","osm_id":12811610259,"category":"wine_shop","name":"仁来丰","tags":{"name":"仁来丰","shop":"wine"}}},{"type":"Feature","id":"node/13039867826","geometry":{"type":"Point","coordinates":[112.45934,23.05353]},"properties":{"osm_type":"node","osm_id":13039867826,"category":"wine_shop","name":"盛宝烟酒商行","tags":{"name":"盛宝烟酒商行","shop":"wine"}}},{"type":"Feature","id":"node/13052299530","geometry":{"type":"Point","coordinates":[114.16236,22.32463]},"properties":{"osm_type":"node","osm_id":13052299530,"category":"wine_shop","name":"點酒網 Click Your Wine","tags":{"addr:city":"Tai Kok Tsui","addr:country":"HK","addr:housenumber":"123","addr:street":"通州街 Tung Chau Street","name":"點酒網 Click Your Wine","name:en":"Click Your Wine","name:zh":"點酒網","opening_hours":"Mo-Fr 09:30-18:30","shop":"wine","wheelchair":"yes"}}},{"type":"Feature","id":"node/13062856012","geometry":{"type":"Point","coordinates":[112.49098,23.08575]},"properties":{"osm_type":"node","osm_id":13062856012,"category":"wine_shop","name":"五粮液专卖店","tags":{"name":"五粮液专卖店","shop":"wine"}}},{"type":"Feature","id":"node/13071012421","geometry":{"type":"Point","coordinates":[121.51239,31.28228]},"properties":{"osm_type":"node","osm_id":13071012421,"category":"wine_shop","name":"嘉宏烟酒","tags":{"name":"嘉宏烟酒","shop":"wine"}}},{"type":"Feature","id":"node/13071012422","geometry":{"type":"Point","coordinates":[121.51241,31.28223]},"properties":{"osm_type":"node","osm_id":13071012422,"category":"wine_shop","name":"国酿1959","tags":{"name":"国酿1959","shop":"wine"}}},{"type":"Feature","id":"node/13075916015","geometry":{"type":"Point","coordinates":[121.31562,31.29776]},"properties":{"osm_type":"node","osm_id":13075916015,"category":"wine_shop","name":"洪锋烟酒商行","tags":{"name":"洪锋烟酒商行","shop":"wine"}}},{"type":"Feature","id":"node/13081566175","geometry":{"type":"Point","coordinates":[112.49914,23.05936]},"properties":{"osm_type":"node","osm_id":13081566175,"category":"wine_shop","name":"通源烟酒商行","tags":{"name":"通源烟酒商行","shop":"wine"}}},{"type":"Feature","id":"node/13081591611","geometry":{"type":"Point","coordinates":[112.45609,23.04854]},"properties":{"osm_type":"node","osm_id":13081591611,"category":"wine_shop","name":"华夏烟酒行","tags":{"name":"华夏烟酒行","shop":"wine"}}},{"type":"Feature","id":"node/13095982993","geometry":{"type":"Point","coordinates":[118.19028,39.62725]},"properties":{"osm_type":"node","osm_id":13095982993,"category":"wine_shop","name":"馨亚酒楼","tags":{"name":"馨亚酒楼","shop":"wine"}}},{"type":"Feature","id":"node/13228044504","geometry":{"type":"Point","coordinates":[113.3642,22.13211]},"properties":{"osm_type":"node","osm_id":13228044504,"category":"wine_shop","tags":{"shop":"wine"}}},{"type":"Feature","id":"node/13275944901","geometry":{"type":"Point","coordinates":[127.49492,50.23754]},"properties":{"osm_type":"node","osm_id":13275944901,"category":"wine_shop","name":"小酒喔酒类直供(黑河龙源店)","tags":{"addr:housenumber":"123","addr:street":"龙源路","name":"小酒喔酒类直供(黑河龙源店)","shop":"wine"}}},{"type":"Feature","id":"node/13337738372","geometry":{"type":"Point","coordinates":[117.82113,24.17516]},"properties":{"osm_type":"node","osm_id":13337738372,"category":"wine_shop","name":"秦皇岛大洋酒业","tags":{"name":"秦皇岛大洋酒业","name:en":"Qinhuangdao Dayang Wine Business","name:zh-Hant":"秦皇島大洋酒業","shop":"wine"}}},{"type":"Feature","id":"node/13339889157","geometry":{"type":"Point","coordinates":[102.7193,25.03385]},"properties":{"osm_type":"node","osm_id":13339889157,"category":"wine_shop","name":"睿麒进口红酒体验店","tags":{"name":"睿麒进口红酒体验店","shop":"wine"}}},{"type":"Feature","id":"node/13351206558","geometry":{"type":"Point","coordinates":[115.88993,28.66173]},"properties":{"osm_type":"node","osm_id":13351206558,"category":"wine_shop","name":"兴旺烟酒商行","tags":{"name":"兴旺烟酒商行","shop":"wine"}}},{"type":"Feature","id":"node/13387881548","geometry":{"type":"Point","coordinates":[114.15116,22.28034]},"properties":{"osm_type":"node","osm_id":13387881548,"category":"wine_shop","name":"紅酒公會 The Wine Guild","tags":{"addr:housenumber":"31-37","addr:street":"摩羅廟街 Mosque Street","name":"紅酒公會 The Wine Guild","name:en":"The Wine Guild","name:zh":"紅酒公會","shop":"wine","wheelchair":"yes"}}},{"type":"Feature","id":"node/13410172292","geometry":{"type":"Point","coordinates":[125.40009,41.97498]},"properties":{"osm_type":"node","osm_id":13410172292,"category":"wine_shop","name":"甘杯满溢酒坊","tags":{"name":"甘杯满溢酒坊","shop":"wine"}}},{"type":"Feature","id":"node/13444709106","geometry":{"type":"Point","coordinates":[120.3599,36.12543]},"properties":{"osm_type":"node","osm_id":13444709106,"category":"winery","name":"青岛葡萄酒厂","tags":{"craft":"winery","name":"青岛葡萄酒厂"}}},{"type":"Feature","id":"node/13447574835","geometry":{"type":"Point","coordinates":[114.17404,22.27376]},"properties":{"osm_type":"node","osm_id":13447574835,"category":"wine_shop","name":"紅酒公會 The Wine Guild","tags":{"addr:housenumber":"31-37","addr:street":"摩羅廟街 Mosque Street","name":"紅酒公會 The Wine Guild","name:en":"The Wine Guild","name:zh":"紅酒公會","shop":"wine","wheelchair":"no"}}},{"type":"Feature","id":"node/13503150528","geometry":{"type":"Point","coordinates":[104.96288,37.51066]},"properties":{"osm_type":"node","osm_id":13503150528,"category":"wine_shop","name":"沙坡头沙漠钻石酒店","tags":{"name":"沙坡头沙漠钻石酒店","shop":"wine"}}},{"type":"Feature","id":"node/13503150564","geometry":{"type":"Point","coordinates":[105.02018,37.52064]},"properties":{"osm_type":"node","osm_id":13503150564,"category":"wine_shop","name":"中卫腾格里星旅沙漠酒店","tags":{"name":"中卫腾格里星旅沙漠酒店","shop":"wine"}}},{"type":"Feature","id":"node/13503150594","geometry":{"type":"Point","coordinates":[104.9943,37.52507]},"properties":{"osm_type":"node","osm_id":13503150594,"category":"wine_shop","name":"朔漠·隐舍亲子酒店","tags":{"name":"朔漠·隐舍亲子酒店","shop":"wine"}}},{"type":"Feature","id":"node/13503160221","geometry":{"type":"Point","coordinates":[104.98977,37.54388]},"properties":{"osm_type":"node","osm_id":13503160221,"category":"wine_shop","name":"夜宿·驿旅星辰沙漠酒店","tags":{"name":"夜宿·驿旅星辰沙漠酒店","shop":"wine"}}},{"type":"Feature","id":"node/13543645628","geometry":{"type":"Point","coordinates":[113.59126,24.78998]},"properties":{"osm_type":"node","osm_id":13543645628,"category":"wine_shop","name":"水井坊·第一坊","tags":{"name":"水井坊·第一坊","shop":"wine"}}},{"type":"Feature","id":"node/13577491802","geometry":{"type":"Point","coordinates":[107.19099,30.31457]},"properties":{"osm_type":"node","osm_id":13577491802,"category":"wine_shop","name":"包氏纯粮白酒","tags":{"addr:housenumber":"463","addr:street":"长兴街","name":"包氏纯粮白酒","shop":"wine"}}},{"type":"Feature","id":"node/13580717380","geometry":{"type":"Point","coordinates":[120.38286,36.17225]},"properties":{"osm_type":"node","osm_id":13580717380,"category":"wine_shop","name":"酒号公社","tags":{"name":"酒号公社","shop":"wine"}}},{"type":"Feature","id":"node/13611101287","geometry":{"type":"Point","coordinates":[102.7325,25.02436]},"properties":{"osm_type":"node","osm_id":13611101287,"category":"wine_shop","name":"金鼎红酒坊","tags":{"addr:city":"昆明市","addr:housenumber":"366","addr:street":"吴井路","name":"金鼎红酒坊","shop":"wine"}}},{"type":"Feature","id":"node/13645572593","geometry":{"type":"Point","coordinates":[117.74984,39.35221]},"properties":{"osm_type":"node","osm_id":13645572593,"category":"wine_shop","name":"宁河源酒业","tags":{"name":"宁河源酒业","shop":"wine"}}},{"type":"Feature","id":"node/13646965202","geometry":{"type":"Point","coordinates":[126.31086,45.38383]},"properties":{"osm_type":"node","osm_id":13646965202,"category":"wine_shop","name":"乾昊烟酒行","tags":{"name":"乾昊烟酒行","shop":"wine"}}},{"type":"Feature","id":"node/13660340217","geometry":{"type":"Point","coordinates":[114.03852,22.28344]},"properties":{"osm_type":"node","osm_id":13660340217,"category":"wine_shop","name":"Lou Natural Wine","tags":{"addr:city":"坪洲 Peng Chau","addr:housenumber":"38C","addr:street":"永興街 Wing Hing Street","name":"Lou Natural Wine","shop":"wine"}}},{"type":"Feature","id":"node/13672838118","geometry":{"type":"Point","coordinates":[114.36334,30.51948]},"properties":{"osm_type":"node","osm_id":13672838118,"category":"wine_shop","name":"聚义烟酒超市","tags":{"name":"聚义烟酒超市","shop":"wine"}}},{"type":"Feature","id":"node/13685384902","geometry":{"type":"Point","coordinates":[114.3668,30.53136]},"properties":{"osm_type":"node","osm_id":13685384902,"category":"wine_shop","name":"嘉业酒仓","tags":{"name":"嘉业酒仓","shop":"wine"}}},{"type":"Feature","id":"node/13719171886","geometry":{"type":"Point","coordinates":[117.2626,39.10444]},"properties":{"osm_type":"node","osm_id":13719171886,"category":"wine_shop","name":"歪马送酒","tags":{"name":"歪马送酒","shop":"wine"}}},{"type":"Feature","id":"node/13726985775","geometry":{"type":"Point","coordinates":[116.72563,39.91016]},"properties":{"osm_type":"node","osm_id":13726985775,"category":"wine_shop","name":"亿丰烟酒茶行","tags":{"name":"亿丰烟酒茶行","shop":"wine"}}},{"type":"Feature","id":"node/13739877121","geometry":{"type":"Point","coordinates":[111.67724,29.06511]},"properties":{"osm_type":"node","osm_id":13739877121,"category":"wine_shop","name":"五粮液专卖店","tags":{"addr:city":"常德市","addr:housenumber":"1252","addr:postcode":"415001","addr:street":"皂果路","name":"五粮液专卖店","shop":"wine"}}},{"type":"Feature","id":"node/13798201047","geometry":{"type":"Point","coordinates":[110.38784,18.79308]},"properties":{"osm_type":"node","osm_id":13798201047,"category":"wine_shop","name":"威隆菸酒商行","tags":{"name":"威隆菸酒商行","name:en":"Weilong Tobacco and Liquor Store","shop":"wine","wheelchair":"no"}}},{"type":"Feature","id":"node/13824039714","geometry":{"type":"Point","coordinates":[119.91938,31.3137]},"properties":{"osm_type":"node","osm_id":13824039714,"category":"wine_shop","name":"古承老曲","tags":{"name":"古承老曲","shop":"wine"}}},{"type":"Feature","id":"node/13830261490","geometry":{"type":"Point","coordinates":[102.70743,25.04205]},"properties":{"osm_type":"node","osm_id":13830261490,"category":"wine_shop","tags":{"shop":"wine"}}},{"type":"Feature","id":"way/183602778","geometry":{"type":"Polygon","coordinates":[[[120.53202,29.96381],[120.53264,29.96431],[120.53296,29.96398],[120.53234,29.96351],[120.53202,29.96381]]]},"properties":{"osm_type":"way","osm_id":183602778,"category":"vineyard","name":"联合葡萄园","tags":{"landuse":"vineyard","name":"联合葡萄园"}}},{"type":"Feature","id":"way/183602779","geometry":{"type":"Polygon","coordinates":[[[120.53172,29.96414],[120.53191,29.96395],[120.53209,29.96409],[120.53217,29.96402],[120.53259,29.96435],[120.53254,29.9644],[120.53247,29.96446],[120.53229,29.96461],[120.53172,29.96414]]]},"properties":{"osm_type":"way","osm_id":183602779,"category":"vineyard","name":"联合葡萄园","tags":{"landuse":"vineyard","name":"联合葡萄园"}}},{"type":"Feature","id":"way/240677146","geometry":{"type":"Polygon","coordinates":[[[117.42616,35.08986],[117.42593,35.08992],[117.42611,35.09036],[117.42598,35.09065],[117.42539,35.09081],[117.42547,35.091],[117.42617,35.0908],[117.42639,35.0904],[117.42616,35.08986]]]},"properties":{"osm_type":"way","osm_id":240677146,"category":"wine_shop","tags":{"building":"yes","shop":"wine"}}},{"type":"Feature","id":"way/267929730","geometry":{"type":"Polygon","coordinates":[[[114.33837,30.5128],[114.33859,30.51277],[114.33863,30.51279],[114.33872,30.51278],[114.33874,30.51274],[114.33894,30.51271],[114.33882,30.5121],[114.33874,30.51211],[114.33873,30.51204],[114.33824,30.51212],[114.33829,30.51234],[114.33826,30.5124],[114.33828,30.51247],[114.3383,30.51246],[114.33837,30.5128]]]},"properties":{"osm_type":"way","osm_id":267929730,"category":"wine_shop","name":"九龙大酒店","tags":{"building":"yes","name":"九龙大酒店","shop":"wine"}}},{"type":"Feature","id":"way/297136346","geometry":{"type":"Polygon","coordinates":[[[121.46249,31.04914],[121.46327,31.04932],[121.46337,31.049],[121.46257,31.04884],[121.46249,31.04914]]]},"properties":{"osm_type":"way","osm_id":297136346,"category":"wine_shop","tags":{"building":"yes","shop":"wine"}}},{"type":"Feature","id":"way/297136922","geometry":{"type":"Polygon","coordinates":[[[121.45981,31.05224],[121.46031,31.05232],[121.4611,31.05245],[121.46121,31.05193],[121.45993,31.05172],[121.45991,31.05181],[121.45981,31.05224]]]},"properties":{"osm_type":"way","osm_id":297136922,"category":"wine_shop","tags":{"building":"yes","shop":"wine"}}},{"type":"Feature","id":"way/299841121","geometry":{"type":"Polygon","coordinates":[[[125.31938,43.85515],[125.31994,43.85516],[125.32028,43.85516],[125.32027,43.85544],[125.32027,43.8556],[125.31971,43.85559],[125.31938,43.85559],[125.31938,43.85532],[125.31938,43.85515]]]},"properties":{"osm_type":"way","osm_id":299841121,"category":"wine_shop","name":"海航紫荆花大酒店","tags":{"building":"yes","name":"海航紫荆花大酒店","shop":"wine"}}},{"type":"Feature","id":"way/303000279","geometry":{"type":"Polygon","coordinates":[[[86.04469,44.25255],[86.04852,44.25357],[86.05518,44.25544],[86.05523,44.24755],[86.05459,44.24734],[86.0448,44.2472],[86.04469,44.25255]]]},"properties":{"osm_type":"way","osm_id":303000279,"category":"vineyard","name":"新疆张裕巴保男爵酒庄","tags":{"craft":"brewery","landuse":"vineyard","name":"新疆张裕巴保男爵酒庄"}}},{"type":"Feature","id":"way/304168875","geometry":{"type":"Polygon","coordinates":[[[125.30659,43.88882],[125.30674,43.88906],[125.3063,43.88921],[125.30615,43.88898],[125.30615,43.88896],[125.30616,43.88895],[125.30619,43.88893],[125.30622,43.88893],[125.30623,43.88895],[125.3065,43.88886],[125.3065,43.88884],[125.3065,43.88883],[125.30652,43.88882],[125.30654,43.88881],[125.30657,43.88881],[125.30659,43.88882]]]},"properties":{"osm_type":"way","osm_id":304168875,"category":"wine_shop","name":"金都饭店","tags":{"building":"yes","name":"金都饭店","name:en":"Jindu Hotel","shop":"wine"}}},{"type":"Feature","id":"way/318198197","geometry":{"type":"Polygon","coordinates":[[[118.79545,32.04013],[118.79573,32.04007],[118.79566,32.03977],[118.79538,32.03982],[118.79545,32.04013]]]},"properties":{"osm_type":"way","osm_id":318198197,"category":"wine_shop","name":"七天连锁酒店","tags":{"building":"yes","name":"七天连锁酒店","shop":"wine"}}},{"type":"Feature","id":"way/322238626","geometry":{"type":"Polygon","coordinates":[[[117.33381,34.8043],[117.33381,34.80361],[117.33355,34.80361],[117.33356,34.8043],[117.33361,34.8043],[117.33381,34.8043]]]},"properties":{"osm_type":"way","osm_id":322238626,"category":"wine_shop","name":"恒隆假日酒店","tags":{"building":"yes","name":"恒隆假日酒店","shop":"wine"}}},{"type":"Feature","id":"way/323226172","geometry":{"type":"Polygon","coordinates":[[[117.30999,34.80686],[117.30996,34.80699],[117.30997,34.80728],[117.30973,34.80727],[117.30972,34.80703],[117.30972,34.80686],[117.30981,34.80686],[117.30991,34.80686],[117.30999,34.80686]]]},"properties":{"osm_type":"way","osm_id":323226172,"category":"wine_shop","name":"锦丽华随缘阁酒店","tags":{"building":"yes","name":"锦丽华随缘阁酒店","phone":"+86 632 888 8899","shop":"wine"}}},{"type":"Feature","id":"way/324948756","geometry":{"type":"Polygon","coordinates":[[[121.26058,28.63987],[121.26059,28.63981],[121.26057,28.63977],[121.26053,28.63973],[121.26053,28.63968],[121.26034,28.63967],[121.26032,28.63943],[121.25999,28.63942],[121.25998,28.63984],[121.26,28.63986],[121.26003,28.63988],[121.26058,28.63987]]]},"properties":{"osm_type":"way","osm_id":324948756,"category":"wine_shop","name":"罗曼国际大酒店","tags":{"building":"yes","name":"罗曼国际大酒店","shop":"wine"}}},{"type":"Feature","id":"way/324955630","geometry":{"type":"Polygon","coordinates":[[[121.27429,28.64487],[121.27325,28.64453],[121.27362,28.64392],[121.27463,28.64427],[121.27429,28.64487]]]},"properties":{"osm_type":"way","osm_id":324955630,"category":"wine_shop","name":"黄岩国际大酒店","tags":{"building":"yes","name":"黄岩国际大酒店","shop":"wine"}}},{"type":"Feature","id":"way/325209626","geometry":{"type":"Polygon","coordinates":[[[117.29188,31.84541],[117.29188,31.84528],[117.29227,31.84528],[117.29227,31.84524],[117.29253,31.84524],[117.29262,31.84524],[117.29262,31.84541],[117.29188,31.84541]]]},"properties":{"osm_type":"way","osm_id":325209626,"category":"wine_shop","name":"锦怡园宾馆","tags":{"building":"yes","name":"锦怡园宾馆","shop":"wine"}}},{"type":"Feature","id":"way/326493800","geometry":{"type":"Polygon","coordinates":[[[115.44613,35.23481],[115.44612,35.23441],[115.44688,35.23441],[115.44689,35.23481],[115.44613,35.23481]]]},"properties":{"osm_type":"way","osm_id":326493800,"category":"wine_shop","name":"水邑柏青","tags":{"building":"yes","name":"水邑柏青","shop":"wine"}}},{"type":"Feature","id":"way/327730111","geometry":{"type":"Polygon","coordinates":[[[119.13514,36.70298],[119.13512,36.70242],[119.13535,36.70241],[119.13537,36.70298],[119.13514,36.70298]]]},"properties":{"osm_type":"way","osm_id":327730111,"category":"wine_shop","name":"丽华好日子酒店","tags":{"building":"yes","name":"丽华好日子酒店","shop":"wine"}}},{"type":"Feature","id":"way/331537627","geometry":{"type":"Polygon","coordinates":[[[120.15759,30.27092],[120.15844,30.27094],[120.15842,30.27124],[120.15839,30.27133],[120.15757,30.27132],[120.15759,30.27092]]]},"properties":{"osm_type":"way","osm_id":331537627,"category":"wine_shop","name":"浙江大酒店","tags":{"building":"yes","name":"浙江大酒店","shop":"wine"}}},{"type":"Feature","id":"way/341196910","geometry":{"type":"Polygon","coordinates":[[[117.4267,35.08963],[117.42686,35.09003],[117.42669,35.09008],[117.42689,35.09057],[117.42673,35.09088],[117.42635,35.091],[117.42637,35.09104],[117.42531,35.09135],[117.42525,35.0912],[117.4248,35.09019],[117.4267,35.08963]]]},"properties":{"osm_type":"way","osm_id":341196910,"category":"wine_shop","name":"银都大酒店","tags":{"name":"银都大酒店","shop":"wine"}}},{"type":"Feature","id":"way/342740562","geometry":{"type":"Polygon","coordinates":[[[117.04276,36.21425],[117.04326,36.21407],[117.04303,36.21368],[117.04295,36.2137],[117.04296,36.21375],[117.04291,36.21375],[117.04288,36.2137],[117.04278,36.21374],[117.04281,36.21379],[117.04277,36.21382],[117.04276,36.21379],[117.04262,36.21385],[117.04271,36.21403],[117.04259,36.21409],[117.04267,36.2142],[117.04272,36.21418],[117.04276,36.21425]]]},"properties":{"osm_type":"way","osm_id":342740562,"category":"wine_shop","tags":{"building":"yes","shop":"wine"}}},{"type":"Feature","id":"way/355516837","geometry":{"type":"Polygon","coordinates":[[[117.0893,36.20135],[117.08925,36.20101],[117.08954,36.20099],[117.0895,36.20079],[117.09071,36.20072],[117.09075,36.20122],[117.0893,36.20135]]]},"properties":{"osm_type":"way","osm_id":355516837,"category":"wine_shop","name":"丽景新天地","tags":{"building":"yes","name":"丽景新天地","name:en":"Panaroma Hotel","shop":"wine"}}},{"type":"Feature","id":"way/369024401","geometry":{"type":"Polygon","coordinates":[[[117.81931,31.57878],[117.81856,31.5786],[117.81748,31.57846],[117.81652,31.5785],[117.81544,31.57872],[117.81678,31.58028],[117.81791,31.5805],[117.81841,31.58084],[117.81861,31.5807],[117.8188,31.58035],[117.81931,31.57878]]]},"properties":{"osm_type":"way","osm_id":369024401,"category":"wine_shop","name":"巢湖碧桂园凤凰酒店","tags":{"name":"巢湖碧桂园凤凰酒店","shop":"wine"}}},{"type":"Feature","id":"way/373171758","geometry":{"type":"Polygon","coordinates":[[[118.24414,24.61973],[118.2441,24.61973],[118.24409,24.61978],[118.24402,24.61977],[118.24402,24.61979],[118.24391,24.61979],[118.24391,24.61977],[118.24386,24.61977],[118.24386,24.61979],[118.24373,24.61979],[118.24373,24.61977],[118.24366,24.61977],[118.24366,24.61938],[118.24374,24.61938],[118.24374,24.61935],[118.24385,24.61935],[118.24385,24.61936],[118.24391,24.61936],[118.24391,24.61935],[118.24403,24.61935],[118.24403,24.61937],[118.2441,24.61937],[118.2441,24.6194],[118.24414,24.6194],[118.24414,24.61951],[118.24416,24.61951],[118.24416,24.61957],[118.24416,24.61963],[118.24414,24.61963],[118.24414,24.61973]]]},"properties":{"osm_type":"way","osm_id":373171758,"category":"wine_shop","name":"葛翔大酒店","tags":{"building":"yes","name":"葛翔大酒店","shop":"wine"}}},{"type":"Feature","id":"way/374976603","geometry":{"type":"Polygon","coordinates":[[[119.41924,31.30168],[119.41953,31.30152],[119.41978,31.30153],[119.41974,31.30127],[119.4196,31.30097],[119.41943,31.30074],[119.41922,31.30057],[119.41904,31.30072],[119.41871,31.30086],[119.41924,31.30168]]]},"properties":{"osm_type":"way","osm_id":374976603,"category":"wine_shop","name":"涵田度假村酒店","tags":{"addr:city":"溧阳市","addr:housenumber":"88号","addr:postcode":"213333","addr:street":"东园路","building":"yes","name":"涵田度假村酒店","operator":"溧阳亚东实业","shop":"wine","website":"http://www.hentique.com/"}}},{"type":"Feature","id":"way/374976604","geometry":{"type":"Polygon","coordinates":[[[119.41982,31.30154],[119.42006,31.30154],[119.42021,31.30155],[119.42037,31.30159],[119.42034,31.30164],[119.42048,31.3017],[119.42063,31.3018],[119.42084,31.30162],[119.42055,31.30146],[119.42059,31.3014],[119.42038,31.30133],[119.42017,31.3013],[119.41997,31.30127],[119.41978,31.30128],[119.41982,31.30154]]]},"properties":{"osm_type":"way","osm_id":374976604,"category":"wine_shop","tags":{"building":"yes","shop":"wine"}}},{"type":"Feature","id":"way/374976605","geometry":{"type":"Polygon","coordinates":[[[119.41921,31.30055],[119.41945,31.30074],[119.41955,31.30059],[119.41964,31.30043],[119.41968,31.30032],[119.41974,31.30013],[119.41965,31.30011],[119.41968,31.29997],[119.41969,31.29986],[119.41967,31.29974],[119.41941,31.29978],[119.41942,31.29992],[119.4194,31.30009],[119.41935,31.30022],[119.4194,31.30026],[119.41929,31.30043],[119.41921,31.30055]]]},"properties":{"osm_type":"way","osm_id":374976605,"category":"wine_shop","tags":{"building":"yes","shop":"wine"}}},{"type":"Feature","id":"way/375970484","geometry":{"type":"Polygon","coordinates":[[[119.42684,31.31675],[119.42691,31.31621],[119.42696,31.316],[119.42729,31.31584],[119.42764,31.31587],[119.42775,31.31622],[119.42786,31.31635],[119.42881,31.31685],[119.42882,31.31709],[119.42832,31.31716],[119.42785,31.31741],[119.42729,31.3175],[119.42715,31.31752],[119.42684,31.31675]]]},"properties":{"osm_type":"way","osm_id":375970484,"category":"wine_shop","name":"静泊山庄","tags":{"name":"静泊山庄","phone":"+86 519 8716 9999","shop":"wine","website":"http://www.tmhjphotel.com.cn/"}}},{"type":"Feature","id":"way/375970492","geometry":{"type":"Polygon","coordinates":[[[119.42963,31.31895],[119.42964,31.31818],[119.42921,31.31736],[119.42882,31.31713],[119.42834,31.31721],[119.42786,31.31749],[119.42705,31.31762],[119.42678,31.3168],[119.42593,31.31704],[119.42566,31.31814],[119.42517,31.31824],[119.42536,31.31858],[119.4268,31.31832],[119.4273,31.31877],[119.42963,31.31895]]]},"properties":{"osm_type":"way","osm_id":375970492,"category":"wine_shop","name":"水悦山庄","tags":{"name":"水悦山庄","shop":"wine"}}},{"type":"Feature","id":"way/375970503","geometry":{"type":"Polygon","coordinates":[[[119.43007,31.31985],[119.43053,31.3196],[119.4306,31.31948],[119.4307,31.31938],[119.43079,31.31934],[119.4308,31.3194],[119.43135,31.3194],[119.43137,31.31908],[119.43082,31.31907],[119.43054,31.31909],[119.43043,31.31907],[119.43004,31.31919],[119.42996,31.3193],[119.42987,31.31963],[119.43007,31.31985]]]},"properties":{"osm_type":"way","osm_id":375970503,"category":"wine_shop","name":"天目湖金峰度假饭店","tags":{"building":"yes","name":"天目湖金峰度假饭店","name:en":"Tianmugu Jinfeng Holiday Hotel","shop":"wine"}}},{"type":"Feature","id":"way/375970510","geometry":{"type":"Polygon","coordinates":[[[119.42988,31.31812],[119.43074,31.31802],[119.43071,31.31784],[119.42986,31.31794],[119.42988,31.31812]]]},"properties":{"osm_type":"way","osm_id":375970510,"category":"wine_shop","name":"假日花园酒店","tags":{"building":"yes","name":"假日花园酒店","shop":"wine"}}},{"type":"Feature","id":"way/375970511","geometry":{"type":"Polygon","coordinates":[[[119.43057,31.31782],[119.43073,31.3178],[119.4307,31.31752],[119.43054,31.31754],[119.43057,31.31782]]]},"properties":{"osm_type":"way","osm_id":375970511,"category":"wine_shop","tags":{"building":"yes","shop":"wine"}}},{"type":"Feature","id":"way/375970512","geometry":{"type":"Polygon","coordinates":[[[119.42999,31.3179],[119.43045,31.31785],[119.4304,31.31754],[119.43022,31.31756],[119.43024,31.31775],[119.43014,31.31776],[119.43011,31.31758],[119.42983,31.31761],[119.42984,31.31768],[119.42995,31.31766],[119.42999,31.3179]]]},"properties":{"osm_type":"way","osm_id":375970512,"category":"wine_shop","tags":{"building":"yes","shop":"wine"}}},{"type":"Feature","id":"way/376388300","geometry":{"type":"Polygon","coordinates":[[[118.49887,31.68025],[118.50002,31.68025],[118.49997,31.67884],[118.49871,31.679],[118.49872,31.68025],[118.49887,31.68025]]]},"properties":{"osm_type":"way","osm_id":376388300,"category":"wine_shop","name":"海外海大酒店","tags":{"building":"yes","name":"海外海大酒店","shop":"wine"}}},{"type":"Feature","id":"way/384156758","geometry":{"type":"Polygon","coordinates":[[[117.30781,35.80849],[117.30779,35.80841],[117.30804,35.80835],[117.30808,35.80829],[117.30816,35.80827],[117.30828,35.80822],[117.30855,35.80814],[117.3086,35.80824],[117.30825,35.80835],[117.30825,35.80838],[117.30807,35.80844],[117.30796,35.80847],[117.30781,35.80849]]]},"properties":{"osm_type":"way","osm_id":384156758,"category":"wine_shop","name":"岚鑫湖度假村酒店","tags":{"building":"commercial","name":"岚鑫湖度假村酒店","shop":"wine"}}},{"type":"Feature","id":"way/385226590","geometry":{"type":"Polygon","coordinates":[[[113.46978,22.51577],[113.46942,22.51501],[113.4709,22.515],[113.47093,22.5157],[113.46978,22.51577]]]},"properties":{"osm_type":"way","osm_id":385226590,"category":"wine_shop","name":"保利王子酒店","tags":{"building":"yes","name":"保利王子酒店","name:zh":"保利王子酒店","shop":"wine"}}},{"type":"Feature","id":"way/386112246","geometry":{"type":"Polygon","coordinates":[[[113.40652,22.48448],[113.40656,22.48324],[113.40806,22.48327],[113.40809,22.48419],[113.40782,22.48419],[113.40776,22.48472],[113.4074,22.48477],[113.40703,22.48472],[113.40652,22.48448]]]},"properties":{"osm_type":"way","osm_id":386112246,"category":"wine_shop","name":"中山长命水海逸酒店","tags":{"addr:housenumber":"9","addr:street":"长命水大街","landuse":"commercial","name":"中山长命水海逸酒店","name:zh":"中山长命水海逸酒店","shop":"wine"}}},{"type":"Feature","id":"way/386430003","geometry":{"type":"Polygon","coordinates":[[[113.5227,22.50676],[113.52434,22.50747],[113.52399,22.50813],[113.52365,22.50857],[113.5235,22.50867],[113.52208,22.50803],[113.5227,22.50676]]]},"properties":{"osm_type":"way","osm_id":386430003,"category":"wine_shop","name":"南朗雅居乐酒店","tags":{"name":"南朗雅居乐酒店","name:zh":"南朗雅居乐酒店","shop":"wine"}}},{"type":"Feature","id":"way/391364940","geometry":{"type":"Polygon","coordinates":[[[119.5607,26.66678],[119.56292,26.6668],[119.56296,26.66393],[119.56072,26.66552],[119.5607,26.66678]]]},"properties":{"osm_type":"way","osm_id":391364940,"category":"wine_shop","name":"华尔道夫世鸿大酒店","tags":{"building":"yes","name":"华尔道夫世鸿大酒店","shop":"wine"}}},{"type":"Feature","id":"way/427776096","geometry":{"type":"Polygon","coordinates":[[[119.58002,32.41045],[119.58015,32.4099],[119.57915,32.40973],[119.579,32.41026],[119.58002,32.41045]]]},"properties":{"osm_type":"way","osm_id":427776096,"category":"wine_shop","name":"方正国际酒店","tags":{"building":"yes","name":"方正国际酒店","shop":"wine"}}},{"type":"Feature","id":"way/427776097","geometry":{"type":"Polygon","coordinates":[[[119.58669,32.41284],[119.58677,32.41237],[119.58699,32.41228],[119.58804,32.41241],[119.58791,32.41299],[119.58669,32.41284]]]},"properties":{"osm_type":"way","osm_id":427776097,"category":"wine_shop","name":"双汇国际大酒店","tags":{"building":"yes","name":"双汇国际大酒店","shop":"wine"}}},{"type":"Feature","id":"way/473044077","geometry":{"type":"Polygon","coordinates":[[[105.72711,29.69515],[105.72728,29.69516],[105.7273,29.69507],[105.72745,29.69505],[105.7275,29.69512],[105.72762,29.69504],[105.72761,29.69487],[105.72752,29.69469],[105.72759,29.69468],[105.72752,29.69442],[105.72746,29.69444],[105.72745,29.69438],[105.72741,29.69439],[105.72741,29.69414],[105.72735,29.69406],[105.72728,29.69406],[105.72728,29.69402],[105.72721,29.69401],[105.72719,29.69407],[105.72707,29.69404],[105.72694,29.69409],[105.72697,29.69414],[105.72687,29.69418],[105.72699,29.69449],[105.72692,29.69456],[105.72676,29.69455],[105.72673,29.69464],[105.72675,29.6948],[105.72679,29.6949],[105.72695,29.69484],[105.72705,29.69488],[105.72711,29.69515]]]},"properties":{"osm_type":"way","osm_id":473044077,"category":"wine_shop","name":"华帝王朝","tags":{"building":"yes","name":"华帝王朝","shop":"wine"}}},{"type":"Feature","id":"way/517110988","geometry":{"type":"Polygon","coordinates":[[[118.18417,39.67571],[118.18439,39.67572],[118.18439,39.67548],[118.18417,39.67548],[118.18417,39.67571]]]},"properties":{"osm_type":"way","osm_id":517110988,"category":"wine_shop","name":"同伟酒业","tags":{"building":"yes","name":"同伟酒业","name:zh":"同伟酒业","shop":"wine"}}},{"type":"Feature","id":"way/527904701","geometry":{"type":"Polygon","coordinates":[[[113.1211,23.1432],[113.12113,23.14314],[113.12131,23.14318],[113.12131,23.14316],[113.12144,23.14319],[113.12145,23.14323],[113.12147,23.14324],[113.12139,23.14332],[113.1211,23.1432]]]},"properties":{"osm_type":"way","osm_id":527904701,"category":"wine_shop","name":"杏禾苑","tags":{"building":"yes","name":"杏禾苑","name:zh":"杏禾苑","shop":"wine"}}},{"type":"Feature","id":"way/543877984","geometry":{"type":"Polygon","coordinates":[[[117.14903,39.10683],[117.14931,39.10684],[117.14927,39.10647],[117.14903,39.10647],[117.14903,39.10683]]]},"properties":{"osm_type":"way","osm_id":543877984,"category":"wine_shop","name":"汇高花园酒店","tags":{"building":"yes","name":"汇高花园酒店","shop":"wine"}}},{"type":"Feature","id":"way/555346554","geometry":{"type":"Polygon","coordinates":[[[113.96312,22.53942],[113.96314,22.53942],[113.96314,22.53941],[113.96318,22.53941],[113.96318,22.5394],[113.96324,22.5394],[113.96324,22.5394],[113.96324,22.5394],[113.96324,22.5394],[113.96325,22.5394],[113.96325,22.5394],[113.96325,22.5394],[113.96325,22.5394],[113.96325,22.5394],[113.96326,22.5394],[113.96326,22.5394],[113.96326,22.53936],[113.96326,22.53936],[113.96326,22.53936],[113.96317,22.53935],[113.96312,22.53935],[113.96312,22.53936],[113.96312,22.53942]]]},"properties":{"osm_type":"way","osm_id":555346554,"category":"wine_shop","tags":{"building":"yes","shop":"wine"}}},{"type":"Feature","id":"way/632003758","geometry":{"type":"Polygon","coordinates":[[[105.035,27.84701],[105.03488,27.84691],[105.03497,27.8467],[105.03521,27.84683],[105.03523,27.84704],[105.035,27.84701]]]},"properties":{"osm_type":"way","osm_id":632003758,"category":"wine_shop","name":"瑞丰大酒店","tags":{"building":"yes","name":"瑞丰大酒店","shop":"wine"}}},{"type":"Feature","id":"way/632003761","geometry":{"type":"Polygon","coordinates":[[[105.04362,27.84277],[105.04389,27.84281],[105.04414,27.84279],[105.04416,27.84261],[105.04394,27.84261],[105.04365,27.84256],[105.04362,27.84277]]]},"properties":{"osm_type":"way","osm_id":632003761,"category":"wine_shop","name":"喜来登酒店","tags":{"building":"yes","name":"喜来登酒店","shop":"wine"}}},{"type":"Feature","id":"way/643035389","geometry":{"type":"Polygon","coordinates":[[[116.32646,39.91226],[116.32656,39.91226],[116.32656,39.9122],[116.32718,39.9122],[116.32718,39.91229],[116.32728,39.91229],[116.32728,39.91219],[116.32768,39.91219],[116.32768,39.91253],[116.32728,39.91253],[116.32728,39.91272],[116.32695,39.91272],[116.32695,39.91245],[116.32657,39.91245],[116.32657,39.9124],[116.32646,39.9124],[116.32646,39.91226]]]},"properties":{"osm_type":"way","osm_id":643035389,"category":"wine_shop","name":"钓鱼台大酒店","tags":{"building":"yes","name":"钓鱼台大酒店","shop":"wine"}}},{"type":"Feature","id":"way/646859569","geometry":{"type":"Polygon","coordinates":[[[112.9754,28.17881],[112.97562,28.17887],[112.97592,28.17875],[112.97601,28.17849],[112.9758,28.17814],[112.97554,28.17808],[112.97529,28.17821],[112.97516,28.17839],[112.9754,28.17881]]]},"properties":{"osm_type":"way","osm_id":646859569,"category":"wine_shop","name":"美丽传说温泉度假酒店","tags":{"building":"yes","name":"美丽传说温泉度假酒店","shop":"wine"}}},{"type":"Feature","id":"way/651524276","geometry":{"type":"Polygon","coordinates":[[[112.86201,27.88954],[112.86233,27.88955],[112.86234,27.88944],[112.86202,27.88943],[112.86201,27.88954]]]},"properties":{"osm_type":"way","osm_id":651524276,"category":"wine_shop","name":"松涛山庄","tags":{"building":"yes","name":"松涛山庄","shop":"wine"}}},{"type":"Feature","id":"way/651524280","geometry":{"type":"Polygon","coordinates":[[[112.86236,27.88962],[112.86257,27.88962],[112.86257,27.88965],[112.86267,27.88966],[112.86268,27.88954],[112.86264,27.88947],[112.86258,27.88947],[112.86259,27.88938],[112.86237,27.88937],[112.86236,27.88962]]]},"properties":{"osm_type":"way","osm_id":651524280,"category":"wine_shop","name":"松涛山庄","tags":{"building":"yes","name":"松涛山庄","shop":"wine"}}},{"type":"Feature","id":"way/657599736","geometry":{"type":"Polygon","coordinates":[[[111.12288,35.21143],[111.12222,35.21195],[111.12296,35.21253],[111.1236,35.21201],[111.12288,35.21143]]]},