{"type":"FeatureCollection","features":[{"type":"Feature","id":"node/296482466","geometry":{"type":"Point","coordinates":[14.4310234,50.0860246]},"properties":{"osm_type":"node","osm_id":296482466,"category":"wine_shop","name":"Vinoshop","tags":{"addr:city":"Praha 1","addr:housenumber":"1464/6","addr:postcode":"11000","addr:street":"Senovážné náměstí","name":"Vinoshop","shop":"wine"}}},{"type":"Feature","id":"node/321975638","geometry":{"type":"Point","coordinates":[16.818727,48.9005406]},"properties":{"osm_type":"node","osm_id":321975638,"category":"wine_shop","tags":{"shop":"wine"}}},{"type":"Feature","id":"node/403654641","geometry":{"type":"Point","coordinates":[16.6443474,49.3644188]},"properties":{"osm_type":"node","osm_id":403654641,"category":"wine_shop","name":"Prodejna vín a sýrů „z jihu!“","tags":{"addr:city":"Blansko","addr:country":"CZ","addr:housenumber":"13/9","addr:postcode":"67801","addr:street":"nám. Svobody","name":"Prodejna vín a sýrů „z jihu!“","opening_hours":"Mo-Su 08:00-20:00","operator":"Michal Brázda","phone":"602 516 928","shop":"wine","website":"https://www.ubrazdu.cz/","wheelchair":"yes"}}},{"type":"Feature","id":"node/756723336","geometry":{"type":"Point","coordinates":[14.3165817,48.8118068]},"properties":{"osm_type":"node","osm_id":756723336,"category":"winery","name":"Klika","tags":{"addr:city":"Český Krumlov","addr:country":"CZ","addr:housenumber":"13","addr:postcode":"38101","addr:street":"Latrán","craft":"winery","name":"Klika"}}},{"type":"Feature","id":"node/1008232213","geometry":{"type":"Point","coordinates":[14.3076558,50.0650825]},"properties":{"osm_type":"node","osm_id":1008232213,"category":"wine_shop","name":"Wine Bar Fénix","tags":{"name":"Wine Bar Fénix","opening_hours":"Mo-Su 11:00-21:00","shop":"wine"}}},{"type":"Feature","id":"node/1014336509","geometry":{"type":"Point","coordinates":[16.050507,48.8566148]},"properties":{"osm_type":"node","osm_id":1014336509,"category":"wine_shop","name":"Znovín Znojmo","tags":{"name":"Znovín Znojmo","shop":"wine"}}},{"type":"Feature","id":"node/1057868145","geometry":{"type":"Point","coordinates":[16.3988009,49.973926]},"properties":{"osm_type":"node","osm_id":1057868145,"category":"wine_shop","tags":{"shop":"wine"}}},{"type":"Feature","id":"node/1132146760","geometry":{"type":"Point","coordinates":[17.2550694,49.5919686]},"properties":{"osm_type":"node","osm_id":1132146760,"category":"wine_shop","name":"Vinotéka U Tří bratří","tags":{"name":"Vinotéka U Tří bratří","opening_hours":"Mo-Fr 11:00-22:00; Sa 11:00-21:00","shop":"wine"}}},{"type":"Feature","id":"node/1172394325","geometry":{"type":"Point","coordinates":[14.4503536,49.7808809]},"properties":{"osm_type":"node","osm_id":1172394325,"category":"winery","name":"Andrago Winery","tags":{"addr:country":"CZ","addr:housenumber":"26","addr:postcode":"25744","craft":"winery","name":"Andrago Winery","website":"http://www.andrago.cz"}}},{"type":"Feature","id":"node/1192913681","geometry":{"type":"Point","coordinates":[16.8206713,48.8975388]},"properties":{"osm_type":"node","osm_id":1192913681,"category":"winery","name":"Vinium a.s. - výroba vína","tags":{"addr:country":"CZ","addr:housenumber":"666/2","addr:postcode":"69106","addr:street":"Hlavní","craft":"winery","name":"Vinium a.s. - výroba vína"}}},{"type":"Feature","id":"node/1192913692","geometry":{"type":"Point","coordinates":[16.817935,48.9029901]},"properties":{"osm_type":"node","osm_id":1192913692,"category":"winery","name":"Rodinné vinařství Krejčiřík","tags":{"addr:country":"CZ","addr:housenumber":"36/67","addr:postcode":"69106","addr:street":"Hlavní","craft":"winery","name":"Rodinné vinařství Krejčiřík","website":"https://www.vinarstvikrejcirik.cz/?v=928568b84963"}}},{"type":"Feature","id":"node/1216266552","geometry":{"type":"Point","coordinates":[16.7888113,48.80165]},"properties":{"osm_type":"node","osm_id":1216266552,"category":"winery","name":"Annovino Vinařství Lednice","tags":{"addr:country":"CZ","addr:housenumber":"714","addr:postcode":"69144","addr:street":"Nejdecká","craft":"winery","name":"Annovino Vinařství Lednice"}}},{"type":"Feature","id":"node/1218537407","geometry":{"type":"Point","coordinates":[16.907989,48.8562906]},"properties":{"osm_type":"node","osm_id":1218537407,"category":"wine_shop","name":"Vinařství Stanislav Mádl","tags":{"addr:city":"Velké Bílovice","addr:country":"CZ","addr:housenumber":"ev.646;656","addr:postcode":"69102","addr:street":"Sadová","email":"madl@vasvinar.cz","name":"Vinařství Stanislav Mádl","opening_hours":"Mo-Sa 08:00-18:00; Su 08:00-12:00","operator":"Stanislav Mádl","phone":"+420 725 950 970","shop":"wine","website":"https://vasvinar.cz/vinarstvi","wheelchair":"yes"}}},{"type":"Feature","id":"node/1219767746","geometry":{"type":"Point","coordinates":[16.6189745,49.2108174]},"properties":{"osm_type":"node","osm_id":1219767746,"category":"winery","name":"Dodna","tags":{"addr:city":"Brno","addr:housenumber":"5","addr:postcode":"61300","addr:street":"Zemědělská","amenity":"pub","craft":"winery","name":"Dodna","opening_hours":"Mo 11:00-19:00; Tu-Th 11:00-18:00; Fr 11:00-17:00"}}},{"type":"Feature","id":"node/1261026209","geometry":{"type":"Point","coordinates":[14.4741323,50.1034906]},"properties":{"osm_type":"node","osm_id":1261026209,"category":"wine_shop","name":"Kavino","tags":{"name":"Kavino","opening_hours":"Mo-Fr 09:00-21:00; Sa,Su 12:00-21:00","shop":"wine"}}},{"type":"Feature","id":"node/1278483776","geometry":{"type":"Point","coordinates":[14.450979,50.12727]},"properties":{"osm_type":"node","osm_id":1278483776,"category":"wine_shop","name":"Pohoda","tags":{"name":"Pohoda","opening_hours":"15:00-22:00","shop":"wine"}}},{"type":"Feature","id":"node/1359816919","geometry":{"type":"Point","coordinates":[14.3362451,50.3432159]},"properties":{"osm_type":"node","osm_id":1359816919,"category":"winery","name":"Jeviněvské vinařství","tags":{"addr:city":"Jeviněves","addr:country":"CZ","addr:housenumber":"37","addr:postcode":"27705","craft":"winery","name":"Jeviněvské vinařství","opening_hours":"Mo-Su 17:00-18:00","operator":"Štěpán Sedlák","website":"http://www.jevinevske-vinarstvi.cz"}}},{"type":"Feature","id":"node/1420244901","geometry":{"type":"Point","coordinates":[16.6108359,49.2045351]},"properties":{"osm_type":"node","osm_id":1420244901,"category":"wine_shop","name":"Vinná galerie","tags":{"addr:city":"Brno","addr:housenumber":"16","addr:postcode":"60200","addr:street":"Lužánecká","amenity":"bar","email":"info@vinnagalerie.cz","name":"Vinná galerie","opening_hours":"Mo-Fr 14:00-21:00; Sa 15:00-21:00","phone":"+420 545 210 133","shop":"wine","website":"https://www.vinnagalerie.cz/","wheelchair":"no"}}},{"type":"Feature","id":"node/1446626046","geometry":{"type":"Point","coordinates":[14.4293221,50.0758482]},"properties":{"osm_type":"node","osm_id":1446626046,"category":"wine_shop","name":"Silver Tap","tags":{"addr:housenumber":"1787/1","addr:street":"náměstí I. P. Pavlova","name":"Silver Tap","opening_hours":"Mo-Th 11:00-23:00; Fr-Sa 11:00-24:00","shop":"wine","wheelchair":"limited"}}},{"type":"Feature","id":"node/1478197761","geometry":{"type":"Point","coordinates":[14.6720578,49.4113333]},"properties":{"osm_type":"node","osm_id":1478197761,"category":"wine_shop","name":"Moravěnka","tags":{"name":"Moravěnka","shop":"wine"}}},{"type":"Feature","id":"node/1494661552","geometry":{"type":"Point","coordinates":[14.4002974,50.0994585]},"properties":{"osm_type":"node","osm_id":1494661552,"category":"wine_shop","name":"Špek a víno","tags":{"addr:housenumber":"502/14","addr:postcode":"160 00","addr:street":"V. P. Čkalova","email":"info@spekavino.cz","name":"Špek a víno","opening_hours":"Mo-Su 15:00-23:00","phone":"+420777 050 214","shop":"wine","website":"https://www.spekavino.cz/"}}},{"type":"Feature","id":"node/1597529430","geometry":{"type":"Point","coordinates":[16.5903715,49.2271622]},"properties":{"osm_type":"node","osm_id":1597529430,"category":"wine_shop","name":"Moravská Vinotéka","tags":{"name":"Moravská Vinotéka","opening_hours":"Mo-Fr 14:00-20:00, Th,Sa 10:00-12:00","phone":"+420  549 212 680","shop":"wine","website":"http://www.moravska-vinoteka.cz","wheelchair":"no"}}},{"type":"Feature","id":"node/1641882184","geometry":{"type":"Point","coordinates":[17.0804647,49.4731023]},"properties":{"osm_type":"node","osm_id":1641882184,"category":"wine_shop","tags":{"shop":"wine"}}},{"type":"Feature","id":"node/1756492780","geometry":{"type":"Point","coordinates":[18.7638625,49.5760494]},"properties":{"osm_type":"node","osm_id":1756492780,"category":"wine_shop","name":"Vinogalerie","tags":{"name":"Vinogalerie","shop":"wine"}}},{"type":"Feature","id":"node/1759376295","geometry":{"type":"Point","coordinates":[18.3501575,49.6789663]},"properties":{"osm_type":"node","osm_id":1759376295,"category":"wine_shop","name":"Vínostyl","tags":{"addr:country":"CZ","addr:housenumber":"2110","addr:postcode":"73801","addr:street":"Na Poříčí","name":"Vínostyl","opening_hours":"Mo-Fr 08:30-12:00,12:30-17:30; Sa 08:30-12:00","shop":"wine"}}},{"type":"Feature","id":"node/1792845839","geometry":{"type":"Point","coordinates":[18.6806426,49.6640351]},"properties":{"osm_type":"node","osm_id":1792845839,"category":"wine_shop","name":"Takže Jakže","tags":{"addr:country":"CZ","addr:housenumber":"796","addr:postcode":"73961","addr:street":"Dukelská","cuisine":"european;spanish;czech","email":"takzejakze@email.cz","name":"Takže Jakže","opening_hours":"Mo-Th 08:00-13:00,16:00-20:00; Fr 08:00-13:00,16:00-22:30; Sa 09:00-13:00; Su off","phone":"+420771141791","shop":"wine","website":"https://www.takzejakze.cz/"}}},{"type":"Feature","id":"node/1802249313","geometry":{"type":"Point","coordinates":[16.161677,50.291511]},"properties":{"osm_type":"node","osm_id":1802249313,"category":"wine_shop","tags":{"shop":"wine"}}},{"type":"Feature","id":"node/1822620942","geometry":{"type":"Point","coordinates":[16.6313736,49.40797]},"properties":{"osm_type":"node","osm_id":1822620942,"category":"wine_shop","name":"U Beldy","tags":{"name":"U Beldy","shop":"wine"}}},{"type":"Feature","id":"node/2021509300","geometry":{"type":"Point","coordinates":[14.5592781,50.9515039]},"properties":{"osm_type":"node","osm_id":2021509300,"category":"wine_bar","name":"VinotekaRumburk.cz","tags":{"addr:city":"Rumburk","addr:country":"CZ","addr:housenumber":"104/9","addr:postcode":"40801","addr:street":"Náměstí Lužické","amenity":"bar","cuisine":"wine","name":"VinotekaRumburk.cz","opening_hours":"Mo-Fr 08:00-17:00"}}},{"type":"Feature","id":"node/2165349270","geometry":{"type":"Point","coordinates":[17.3145418,48.9011307]},"properties":{"osm_type":"node","osm_id":2165349270,"category":"wine_shop","tags":{"shop":"wine"}}},{"type":"Feature","id":"node/2165842769","geometry":{"type":"Point","coordinates":[15.9419907,49.5694329]},"properties":{"osm_type":"node","osm_id":2165842769,"category":"wine_shop","name":"Vinotéka U Hada","tags":{"name":"Vinotéka U Hada","opening_hours":"13:00-22:00; Fr,Sa 13:00-23:00","shop":"wine"}}},{"type":"Feature","id":"node/2229062930","geometry":{"type":"Point","coordinates":[17.1288875,49.0060471]},"properties":{"osm_type":"node","osm_id":2229062930,"category":"wine_shop","name":"Vinotéka","tags":{"addr:housenumber":"912","addr:postcode":"69701","addr:street":"Vrchlického","name":"Vinotéka","shop":"wine"}}},{"type":"Feature","id":"node/2277133336","geometry":{"type":"Point","coordinates":[16.8822206,49.2032705]},"properties":{"osm_type":"node","osm_id":2277133336,"category":"wine_shop","name":"Vinoteka na namesti","tags":{"addr:housenumber":"40","addr:postcode":"683 01","addr:street":"Sušilovo náměstí","name":"Vinoteka na namesti","opening_hours":"Mo-Fr 09:00-12:00,13:00-17:00; Sa 08:00-11:00","shop":"wine"}}},{"type":"Feature","id":"node/2278260106","geometry":{"type":"Point","coordinates":[16.6430779,49.1876434]},"properties":{"osm_type":"node","osm_id":2278260106,"category":"wine_shop","name":"Vinotéka","tags":{"name":"Vinotéka","opening_hours":"Mo-Sa 10:00-20:00; Su 14:00-19:00","shop":"wine","wheelchair":"yes"}}},{"type":"Feature","id":"node/2286002968","geometry":{"type":"Point","coordinates":[16.6587993,49.2058633]},"properties":{"osm_type":"node","osm_id":2286002968,"category":"wine_shop","name":"SimVin","tags":{"name":"SimVin","opening_hours":"Mo-Fr 11:00-20:00; Sa 11:00-20:00; Su 14:00-19:00","shop":"wine"}}},{"type":"Feature","id":"node/2351476510","geometry":{"type":"Point","coordinates":[16.9456963,48.9034201]},"properties":{"osm_type":"node","osm_id":2351476510,"category":"wine_shop","name":"Templářské sklepy","tags":{"addr:city":"Čejkovice","addr:country":"CZ","addr:housenumber":"945","addr:postcode":"69615","addr:street":"Na Bařině","name":"Templářské sklepy","shop":"wine","website":"https://www.templarske-sklepy.cz/"}}},{"type":"Feature","id":"node/2360567089","geometry":{"type":"Point","coordinates":[17.1395663,48.9563538]},"properties":{"osm_type":"node","osm_id":2360567089,"category":"winery","name":"Vinařství Krist","tags":{"addr:country":"CZ","addr:housenumber":"123","addr:postcode":"69605","addr:street":"Zámecká","craft":"winery","name":"Vinařství Krist"}}},{"type":"Feature","id":"node/2363230000","geometry":{"type":"Point","coordinates":[17.2055952,49.036624]},"properties":{"osm_type":"node","osm_id":2363230000,"category":"winery","name":"Sklepní ulička Drahy","tags":{"craft":"winery","name":"Sklepní ulička Drahy"}}},{"type":"Feature","id":"node/2379491247","geometry":{"type":"Point","coordinates":[14.0650806,50.5391196]},"properties":{"osm_type":"node","osm_id":2379491247,"category":"winery","name":"Žernosecké vinařství s.r.o.","tags":{"craft":"winery","name":"Žernosecké vinařství s.r.o.","tourism":"wine_cellar"}}},{"type":"Feature","id":"node/2409856155","geometry":{"type":"Point","coordinates":[14.4480364,50.0780098]},"properties":{"osm_type":"node","osm_id":2409856155,"category":"wine_shop","name":"Pavillon du vin","tags":{"name":"Pavillon du vin","opening_hours":"Mo-Fr 14:00-22:00","shop":"wine"}}},{"type":"Feature","id":"node/2421928932","geometry":{"type":"Point","coordinates":[15.0029736,49.1462735]},"properties":{"osm_type":"node","osm_id":2421928932,"category":"wine_shop","name":"Vinotéka Vinofol","tags":{"name":"Vinotéka Vinofol","opening_hours":"Tu-Fr 09:00-17:30; Sa 09:00-15:00","shop":"wine"}}},{"type":"Feature","id":"node/2444893715","geometry":{"type":"Point","coordinates":[16.0582916,48.8407456]},"properties":{"osm_type":"node","osm_id":2444893715,"category":"wine_shop","name":"Znovín Znojmo a.s.","tags":{"addr:city":"Znojmo","addr:housenumber":"3054/23","addr:postcode":"67181","addr:street":"Loucká","name":"Znovín Znojmo a.s.","opening_hours":"Mo-Fr 9:00-18:00; Sa-Su 9:00-12:30, 13:00-18:00","shop":"wine","website":"https://www.znovin.cz/"}}},{"type":"Feature","id":"node/2752792392","geometry":{"type":"Point","coordinates":[16.537703,49.4524063]},"properties":{"osm_type":"node","osm_id":2752792392,"category":"wine_shop","name":"Vinotéka Lysice","tags":{"name":"Vinotéka Lysice","opening_hours":"Mo-Th 13:00-19:00; Fr,Sa 10:00-19:00","shop":"wine"}}},{"type":"Feature","id":"node/2785072391","geometry":{"type":"Point","coordinates":[17.1002199,48.9871393]},"properties":{"osm_type":"node","osm_id":2785072391,"category":"winery","name":"Vinařství Dufek","tags":{"addr:housenumber":"1275/19","addr:postcode":"69604","addr:street":"Pod Sokolovnou","craft":"winery","name":"Vinařství Dufek"}}},{"type":"Feature","id":"node/2785086582","geometry":{"type":"Point","coordinates":[17.152858,49.0351049]},"properties":{"osm_type":"node","osm_id":2785086582,"category":"winery","name":"Vinný sklep Krýsa","tags":{"addr:housenumber":"343","addr:postcode":"69651","craft":"winery","name":"Vinný sklep Krýsa","operator":"PARO Trade s. r. o.","phone":"731 178 483","website":"https://www.vesklepe.cz/"}}},{"type":"Feature","id":"node/2805580179","geometry":{"type":"Point","coordinates":[16.6135813,49.2048516]},"properties":{"osm_type":"node","osm_id":2805580179,"category":"wine_shop","name":"Vinotéka Staré Hory","tags":{"addr:city":"Brno","addr:housenumber":"10","addr:postcode":"60200","addr:street":"Drobného","amenity":"bar","email":"info@starehory.cz","name":"Vinotéka Staré Hory","opening_hours":"Mo-Sa 16:00-21:00","shop":"wine","wheelchair":"no"}}},{"type":"Feature","id":"node/2815527002","geometry":{"type":"Point","coordinates":[16.6066965,49.1999255]},"properties":{"osm_type":"node","osm_id":2815527002,"category":"wine_shop","name":"Vinotéka Na Moraváku","tags":{"addr:city":"Brno","addr:housenumber":"14b","addr:postcode":"60200","addr:street":"Moravské náměstí","name":"Vinotéka Na Moraváku","opening_hours":"Mo-Su 13:00-21:00","shop":"wine"}}},{"type":"Feature","id":"node/2816604193","geometry":{"type":"Point","coordinates":[16.6275109,49.2163585]},"properties":{"osm_type":"node","osm_id":2816604193,"category":"wine_shop","name":"Zorba's","tags":{"addr:city":"Brno","addr:housenumber":"216","addr:postcode":"61300","addr:street":"Merhautova","name":"Zorba's","opening_hours":"Mo-Sa 09:00-20:00; Su 16:00-20:00","shop":"wine","wheelchair":"no"}}},{"type":"Feature","id":"node/2822509898","geometry":{"type":"Point","coordinates":[14.4386039,50.0723973]},"properties":{"osm_type":"node","osm_id":2822509898,"category":"winery","tags":{"craft":"winery"}}},{"type":"Feature","id":"node/2858066493","geometry":{"type":"Point","coordinates":[14.6597889,50.0761328]},"properties":{"osm_type":"node","osm_id":2858066493,"category":"wine_shop","tags":{"shop":"wine"}}},{"type":"Feature","id":"node/2866070242","geometry":{"type":"Point","coordinates":[16.5994038,49.1972853]},"properties":{"osm_type":"node","osm_id":2866070242,"category":"wine_shop","tags":{"shop":"wine"}}},{"type":"Feature","id":"node/2913309972","geometry":{"type":"Point","coordinates":[15.9888594,50.0687247]},"properties":{"osm_type":"node","osm_id":2913309972,"category":"wine_shop","name":"U Pajdy","tags":{"addr:housenumber":"1214","addr:postcode":"53401","addr:street":"Nádražní","name":"U Pajdy","shop":"wine"}}},{"type":"Feature","id":"node/2996895811","geometry":{"type":"Point","coordinates":[16.8996343,48.8575984]},"properties":{"osm_type":"node","osm_id":2996895811,"category":"winery","name":"Vinarstvi Zapletal","tags":{"addr:city":"Velké Bílovice","addr:housenumber":"ev.602","addr:postcode":"69102","addr:street":"Vinařská","craft":"winery","email":"vinarstvizapletal@email.cz","name":"Vinarstvi Zapletal","opening_hours":"Mo-Sa 08:00-18:00","operator":"Lenka Vítkovičová","phone":"+420 721 426 143","website":"https://www.vinarstvizapletal.cz/"}}},{"type":"Feature","id":"node/2996927582","geometry":{"type":"Point","coordinates":[16.8139712,48.905863]},"properties":{"osm_type":"node","osm_id":2996927582,"category":"wine_shop","name":"Vinařství Buchtovi","tags":{"addr:housenumber":"1140/23b","addr:postcode":"69106","addr:street":"Ořechová","name":"Vinařství Buchtovi","shop":"wine","website":"https://www.vinobuchtovi.cz/"}}},{"type":"Feature","id":"node/3088926439","geometry":{"type":"Point","coordinates":[14.499001,50.0931789]},"properties":{"osm_type":"node","osm_id":3088926439,"category":"wine_shop","name":"Vinofol","tags":{"name":"Vinofol","shop":"wine","website":"https://www.vinofol.cz/"}}},{"type":"Feature","id":"node/3141831129","geometry":{"type":"Point","coordinates":[14.4183846,50.1160267]},"properties":{"osm_type":"node","osm_id":3141831129,"category":"wine_shop","name":"Vinotéka Trojský sklep","tags":{"name":"Vinotéka Trojský sklep","shop":"wine"}}},{"type":"Feature","id":"node/3155495248","geometry":{"type":"Point","coordinates":[14.410535,50.0399541]},"properties":{"osm_type":"node","osm_id":3155495248,"category":"wine_shop","name":"Vína srdcem","tags":{"name":"Vína srdcem","opening_hours":"Mo-Sa 14:00-21:00","shop":"wine","wheelchair":"no"}}},{"type":"Feature","id":"node/3156109229","geometry":{"type":"Point","coordinates":[16.6058256,49.20363]},"properties":{"osm_type":"node","osm_id":3156109229,"category":"winery","name":"U Špuntu","tags":{"addr:city":"Brno","addr:housenumber":"51","addr:postcode":"60200","addr:street":"Smetanova","craft":"winery","name":"U Špuntu"}}},{"type":"Feature","id":"node/3237771810","geometry":{"type":"Point","coordinates":[17.1626079,49.0035382]},"properties":{"osm_type":"node","osm_id":3237771810,"category":"winery","tags":{"craft":"winery"}}},{"type":"Feature","id":"node/3376644439","geometry":{"type":"Point","coordinates":[14.4326,50.0971101]},"properties":{"osm_type":"node","osm_id":3376644439,"category":"wine_shop","name":"Depo Vín Praha","tags":{"addr:city":"Praha 7","addr:housenumber":"15","addr:postcode":"17000","addr:street":"Dukelských hrdinů","name":"Depo Vín Praha","operator":"Bettina Lobkowicz Vinařství","phone":"+420 721 961 511","shop":"wine","website":"https://www.lobkowicz-vinarstvi.cz/"}}},{"type":"Feature","id":"node/3386165309","geometry":{"type":"Point","coordinates":[14.0600225,49.9565447]},"properties":{"osm_type":"node","osm_id":3386165309,"category":"wine_shop","name":"Vinotéka Vinofol","tags":{"addr:city":"Beroun","addr:housenumber":"250","addr:postcode":"26601","addr:street":"Obchodní","name":"Vinotéka Vinofol","shop":"wine"}}},{"type":"Feature","id":"node/3393589171","geometry":{"type":"Point","coordinates":[17.1681072,49.5346266]},"properties":{"osm_type":"node","osm_id":3393589171,"category":"wine_shop","name":"Vinotéka","tags":{"name":"Vinotéka","shop":"wine"}}},{"type":"Feature","id":"node/3427042700","geometry":{"type":"Point","coordinates":[15.6777936,49.3040243]},"properties":{"osm_type":"node","osm_id":3427042700,"category":"wine_shop","tags":{"shop":"wine"}}},{"type":"Feature","id":"node/3463129242","geometry":{"type":"Point","coordinates":[15.5787666,49.6069648]},"properties":{"osm_type":"node","osm_id":3463129242,"category":"wine_shop","name":"Dobrý ročník 33","tags":{"addr:city":"Havlíčkův Brod","addr:housenumber":"52","addr:postcode":"58001","addr:street":"Havlíčkovo náměstí","name":"Dobrý ročník 33","shop":"wine"}}},{"type":"Feature","id":"node/3464728738","geometry":{"type":"Point","coordinates":[14.4466252,50.0422706]},"properties":{"osm_type":"node","osm_id":3464728738,"category":"wine_shop","name":"Vinotéka Soudek","tags":{"addr:city":"Praha","addr:housenumber":"1357/78","addr:postcode":"14000","addr:street":"Antala Staška","email":"vinosoudek@gmail.com","name":"Vinotéka Soudek","opening_hours":"Mo-Fr 15:00-22:00; Sa-Su off","operator":"Tomáš Linhart","phone":"+420 602277144","shop":"wine","website":"https://www.vinotekasoudek.cz/"}}},{"type":"Feature","id":"node/3467326706","geometry":{"type":"Point","coordinates":[16.6129456,49.1941508]},"properties":{"osm_type":"node","osm_id":3467326706,"category":"wine_shop","name":"Vinařství a vinotéka","tags":{"addr:city":"Brno","addr:housenumber":"8","addr:postcode":"60200","addr:street":"Novobranská","email":"vydra.vcelarstvi@centrum.cz","name":"Vinařství a vinotéka","opening_hours":"Mo-Fr 08:00-17:00","phone":"+420 734 538 273","shop":"wine","website":"http://www.vydra-vcelarstvi.cz/vydra/Agalerie/dtest.php","wheelchair":"limited"}}},{"type":"Feature","id":"node/3473251723","geometry":{"type":"Point","coordinates":[15.061004,50.7702479]},"properties":{"osm_type":"node","osm_id":3473251723,"category":"wine_shop","name":"Dům Vína na Šalďáku","tags":{"name":"Dům Vína na Šalďáku","shop":"wine"}}},{"type":"Feature","id":"node/3498313130","geometry":{"type":"Point","coordinates":[16.6096929,49.196064]},"properties":{"osm_type":"node","osm_id":3498313130,"category":"wine_shop","name":"Perly vín","tags":{"addr:city":"Brno","addr:housenumber":"8","addr:postcode":"60200","addr:street":"Běhounská","name":"Perly vín","opening_hours":"Mo,Tu,Th 14:00-22:00, We 14:00-24:00; Fr 14:00-24:00, Sa 00:00-01:00,18:00-22:00","shop":"wine","wheelchair":"yes"}}},{"type":"Feature","id":"node/3504639399","geometry":{"type":"Point","coordinates":[15.6666967,49.9456745]},"properties":{"osm_type":"node","osm_id":3504639399,"category":"wine_shop","name":"Vinotéka Na Cestě","tags":{"name":"Vinotéka Na Cestě","opening_hours":"Mo-Fr 10:00-17:00; Sa 08:30-11:00","operator":"Viktor Juliš","phone":"602263886","shop":"wine"}}},{"type":"Feature","id":"node/3575233097","geometry":{"type":"Point","coordinates":[16.9633665,49.9706596]},"properties":{"osm_type":"node","osm_id":3575233097,"category":"wine_shop","name":"Archivní vína","tags":{"name":"Archivní vína","shop":"wine"}}},{"type":"Feature","id":"node/3590315332","geometry":{"type":"Point","coordinates":[16.5701629,49.2147538]},"properties":{"osm_type":"node","osm_id":3590315332,"category":"wine_shop","name":"Sudové víno Réva","tags":{"addr:city":"Brno","addr:housenumber":"70a","addr:postcode":"61600","addr:street":"Horova","name":"Sudové víno Réva","opening_hours":"Tu-Fr 12:00-19:00; Sa-Su 09:00-13:00","operator":"ing. Novák","shop":"wine","wheelchair":"no"}}},{"type":"Feature","id":"node/3592293076","geometry":{"type":"Point","coordinates":[16.6713651,48.8746345]},"properties":{"osm_type":"node","osm_id":3592293076,"category":"wine_shop","name":"Obecní vinotéka","tags":{"name":"Obecní vinotéka","shop":"wine"}}},{"type":"Feature","id":"node/3592293077","geometry":{"type":"Point","coordinates":[16.6688563,48.8755976]},"properties":{"osm_type":"node","osm_id":3592293077,"category":"wine_cellar","name":"Venuše - Pálavská Galerie Vín","tags":{"addr:city":"Pavlov","addr:housenumber":"252","addr:postcode":"69201","addr:street":"Česká","name":"Venuše - Pálavská Galerie Vín","operator":"Proqin Pavlov s.r.o.","phone":"+420 602 160 996","shop":"wine","tourism":"wine_cellar","website":"http://www.palavskagalerievin.cz/"}}},{"type":"Feature","id":"node/3592293079","geometry":{"type":"Point","coordinates":[16.6677378,48.8729787]},"properties":{"osm_type":"node","osm_id":3592293079,"category":"wine_cellar","name":"Vinařství Topolanský","tags":{"addr:city":"Pavlov","addr:housenumber":"79","addr:postcode":"69201","addr:street":"Česká","email":"topolanskyvilda@tiscali.cz","name":"Vinařství Topolanský","phone":"+420 724 263 561","shop":"wine","tourism":"wine_cellar","website":"https://www.vinarstvitopolansky.cz/"}}},{"type":"Feature","id":"node/3594111991","geometry":{"type":"Point","coordinates":[15.1181244,50.1427469]},"properties":{"osm_type":"node","osm_id":3594111991,"category":"wine_shop","name":"Vinotéka U Bílého Lva","tags":{"addr:city":"Poděbrady","addr:country":"CZ","addr:housenumber":"38/16","addr:postcode":"29001","addr:street":"Jiřího náměstí","name":"Vinotéka U Bílého Lva","phone":"+420 602 202 746","shop":"wine"}}},{"type":"Feature","id":"node/3637660055","geometry":{"type":"Point","coordinates":[18.3796888,49.7929797]},"properties":{"osm_type":"node","osm_id":3637660055,"category":"wine_shop","name":"Vinotéka Marek","tags":{"name":"Vinotéka Marek","opening_hours":"Mo-Fr 10:00-18:00; Sa 08:00-12:00","shop":"wine"}}},{"type":"Feature","id":"node/3646281864","geometry":{"type":"Point","coordinates":[18.1876549,49.8976522]},"properties":{"osm_type":"node","osm_id":3646281864,"category":"wine_shop","name":"Značkové lihoviny - Moravská vína","tags":{"name":"Značkové lihoviny - Moravská vína","shop":"wine"}}},{"type":"Feature","id":"node/3648646793","geometry":{"type":"Point","coordinates":[18.1880953,49.8954613]},"properties":{"osm_type":"node","osm_id":3648646793,"category":"wine_shop","name":"Vinotéka Bílská","tags":{"name":"Vinotéka Bílská","shop":"wine"}}},{"type":"Feature","id":"node/3648646811","geometry":{"type":"Point","coordinates":[18.1889066,49.8965679]},"properties":{"osm_type":"node","osm_id":3648646811,"category":"wine_shop","name":"V&D","tags":{"name":"V&D","opening_hours":"Mo-Fr 08:30-12:00,12:30-17:00; Sa 8:30-11:30","operator":"VD Vinotéky s.r.o.","shop":"wine","website":"https://www.vinoadestilaty.cz/"}}},{"type":"Feature","id":"node/3659451600","geometry":{"type":"Point","coordinates":[15.3908791,49.9100865]},"properties":{"osm_type":"node","osm_id":3659451600,"category":"wine_shop","tags":{"shop":"wine"}}},{"type":"Feature","id":"node/3667914628","geometry":{"type":"Point","coordinates":[16.6383696,48.8078681]},"properties":{"osm_type":"node","osm_id":3667914628,"category":"wine_shop","name":"Vinotéka Volařík","tags":{"name":"Vinotéka Volařík","shop":"wine"}}},{"type":"Feature","id":"node/3708296662","geometry":{"type":"Point","coordinates":[16.8160298,48.903422]},"properties":{"osm_type":"node","osm_id":3708296662,"category":"wine_shop","name":"Vinařství Zborovský","tags":{"name":"Vinařství Zborovský","opening_hours":"Mo-Fr 08:00-17:00; Sa 09:00-17:00","shop":"wine"}}},{"type":"Feature","id":"node/3719886346","geometry":{"type":"Point","coordinates":[16.5941626,49.1889445]},"properties":{"osm_type":"node","osm_id":3719886346,"category":"wine_shop","name":"Víno","tags":{"name":"Víno","opening_hours":"Mo-Fr 10:00-18:00; Sa,Su off","shop":"wine"}}},{"type":"Feature","id":"node/3719940014","geometry":{"type":"Point","coordinates":[16.5931598,49.199417]},"properties":{"osm_type":"node","osm_id":3719940014,"category":"wine_shop","name":"Vino Art","tags":{"addr:city":"Brno","addr:housenumber":"43","addr:postcode":"60200","addr:street":"Úvoz","name":"Vino Art","shop":"wine"}}},{"type":"Feature","id":"node/3719940017","geometry":{"type":"Point","coordinates":[16.5942997,49.1970149]},"properties":{"osm_type":"node","osm_id":3719940017,"category":"wine_shop","name":"vinotéka","tags":{"name":"vinotéka","opening_hours":"Mo-Fr 16:00-21:00","shop":"wine"}}},{"type":"Feature","id":"node/3722714297","geometry":{"type":"Point","coordinates":[14.4022324,50.0699359]},"properties":{"osm_type":"node","osm_id":3722714297,"category":"wine_shop","name":"Global Wines & Spirits","tags":{"addr:city":"Praha","addr:housenumber":"3","addr:postcode":"15000","addr:street":"Karla Engliše","name":"Global Wines & Spirits","opening_hours":"Mo-Sa 10:00-20:00; Su 09:00-13:00","shop":"wine"}}},{"type":"Feature","id":"node/3763561969","geometry":{"type":"Point","coordinates":[17.2627722,48.975178]},"properties":{"osm_type":"node","osm_id":3763561969,"category":"winery","name":"Zámecké vinařství Bzenec","tags":{"craft":"winery","name":"Zámecké vinařství Bzenec","opening_hours":"Mo-Fr 15:00-21:30; Sa,Su 11:00-21:30","shop":"wine","tourism":"wine_cellar","website":"https://www.zameckevinarstvi.cz/"}}},{"type":"Feature","id":"node/3770258426","geometry":{"type":"Point","coordinates":[18.3297089,49.6714751]},"properties":{"osm_type":"node","osm_id":3770258426,"category":"wine_shop","name":"Víno & Destiláty","tags":{"name":"Víno & Destiláty","opening_hours":"Mo-Su 09:00-21:00","shop":"wine","wheelchair":"yes"}}},{"type":"Feature","id":"node/3792480544","geometry":{"type":"Point","coordinates":[16.5958657,49.1918987]},"properties":{"osm_type":"node","osm_id":3792480544,"category":"wine_shop","name":"Vinotéka Vinařství Bukovský","tags":{"name":"Vinotéka Vinařství Bukovský","opening_hours":"Mo-Fr 16:00-22:00+; Sa,Su off","phone":"+420728402018","shop":"wine","website":"https://www.vinarstvibukovsky.cz","wheelchair":"no"}}},{"type":"Feature","id":"node/3861082693","geometry":{"type":"Point","coordinates":[16.6117412,49.1958635]},"properties":{"osm_type":"node","osm_id":3861082693,"category":"winery","name":"Terapie","tags":{"addr:city":"Brno","addr:housenumber":"8","addr:postcode":"60200","addr:street":"Vachova","craft":"winery","name":"Terapie"}}},{"type":"Feature","id":"node/3902881361","geometry":{"type":"Point","coordinates":[13.9029831,49.8353757]},"properties":{"osm_type":"node","osm_id":3902881361,"category":"winery","name":"Vinné sklepy Lechovice","tags":{"craft":"winery","name":"Vinné sklepy Lechovice","website":"https://www.vslechovice.cz/"}}},{"type":"Feature","id":"node/3908840799","geometry":{"type":"Point","coordinates":[13.9022702,49.834345]},"properties":{"osm_type":"node","osm_id":3908840799,"category":"winery","name":"Vinotéka Petra Chvátalová","tags":{"craft":"winery","name":"Vinotéka Petra Chvátalová"}}},{"type":"Feature","id":"node/3962565185","geometry":{"type":"Point","coordinates":[13.7742991,49.05359]},"properties":{"osm_type":"node","osm_id":3962565185,"category":"wine_shop","name":"Vinotéka","tags":{"addr:city":"Vimperk","addr:country":"CZ","addr:housenumber":"115","addr:postcode":"385 01","addr:street":"Pivovarská","name":"Vinotéka","opening_hours":"Mo-Fr 10:00-16:30","shop":"wine"}}},{"type":"Feature","id":"node/3971889897","geometry":{"type":"Point","coordinates":[16.7545503,49.1019143]},"properties":{"osm_type":"node","osm_id":3971889897,"category":"wine_shop","tags":{"shop":"wine"}}},{"type":"Feature","id":"node/3979653270","geometry":{"type":"Point","coordinates":[16.6784775,48.9882863]},"properties":{"osm_type":"node","osm_id":3979653270,"category":"winery","name":"Vinice Hustopeče","tags":{"craft":"winery","name":"Vinice Hustopeče"}}},{"type":"Feature","id":"node/3979705440","geometry":{"type":"Point","coordinates":[16.6526275,49.0142273]},"properties":{"osm_type":"node","osm_id":3979705440,"category":"winery","name":"Vinařství Karel Válka","tags":{"craft":"winery","name":"Vinařství Karel Válka"}}},{"type":"Feature","id":"node/3979858067","geometry":{"type":"Point","coordinates":[16.8457681,48.8273153]},"properties":{"osm_type":"node","osm_id":3979858067,"category":"winery","name":"Víno Podivín a.s.","tags":{"craft":"winery","name":"Víno Podivín a.s.","opening_hours":"Mo-Fr 08:00-12:00","website":"http://www.vino-podivin.cz/"}}},{"type":"Feature","id":"node/3979858068","geometry":{"type":"Point","coordinates":[16.846669,48.827458]},"properties":{"osm_type":"node","osm_id":3979858068,"category":"winery","name":"Vinařství Radim Mildner","tags":{"craft":"winery","name":"Vinařství Radim Mildner","website":"https://www.vinomildner.cz/"}}},{"type":"Feature","id":"node/3983773219","geometry":{"type":"Point","coordinates":[17.4675205,48.9462866]},"properties":{"osm_type":"node","osm_id":3983773219,"category":"winery","name":"Bílé Karpaty vinařství","tags":{"addr:city":"Blatnice pod Svatým Antonínkem","addr:housenumber":"138","addr:postcode":"69671","craft":"winery","name":"Bílé Karpaty vinařství","operator":"Bílé Karpaty vinařství s.r.o."}}},{"type":"Feature","id":"node/3988644650","geometry":{"type":"Point","coordinates":[16.5956088,49.2049657]},"properties":{"osm_type":"node","osm_id":3988644650,"category":"wine_shop","name":"U Slunce","tags":{"name":"U Slunce","opening_hours":"Mo-Fr 10:00-19:00","shop":"wine","wheelchair":"no"}}},{"type":"Feature","id":"node/4000847938","geometry":{"type":"Point","coordinates":[16.9112516,48.8641953]},"properties":{"osm_type":"node","osm_id":4000847938,"category":"winery","name":"Habánské sklepy","tags":{"addr:housenumber":"1324","addr:street":"Čejkovská","craft":"winery","name":"Habánské sklepy","operator":"Habánské sklepy s.r.o.","website":"https://www.habanskesklepy.cz/"}}},{"type":"Feature","id":"node/4006074846","geometry":{"type":"Point","coordinates":[15.7905287,49.9478037]},"properties":{"osm_type":"node","osm_id":4006074846,"category":"wine_shop","tags":{"shop":"wine"}}},{"type":"Feature","id":"node/4009538150","geometry":{"type":"Point","coordinates":[17.65127,49.0238307]},"properties":{"osm_type":"node","osm_id":4009538150,"category":"wine_shop","name":"Vinotéka U Václava","tags":{"addr:city":"Uherský Brod","addr:housenumber":"2577","addr:postcode":"68801","addr:street":"Dolní Valy","name":"Vinotéka U Václava","operator":"Václav Durďák ml.","shop":"wine"}}},{"type":"Feature","id":"node/4026663540","geometry":{"type":"Point","coordinates":[16.9083764,48.8558121]},"properties":{"osm_type":"node","osm_id":4026663540,"category":"wine_shop","name":"Vinařství s ubytováním U Osičků","tags":{"addr:city":"Velké Bílovice","addr:housenumber":"605","addr:postcode":"69102","addr:street":"Sadová","email":"josicka@seznam.cz","name":"Vinařství s ubytováním U Osičků","operator":"Ing. Jan Osička","phone":"+420 608 770 712","shop":"wine","tourism":"guest_house","website":"https://www.sklepuosicku.cz/","wheelchair":"yes"}}},{"type":"Feature","id":"node/4044845556","geometry":{"type":"Point","coordinates":[16.6623089,48.966242]},"properties":{"osm_type":"node","osm_id":4044845556,"category":"wine_shop","name":"Vinařství Pardál","tags":{"name":"Vinařství Pardál","shop":"wine"}}},{"type":"Feature","id":"node/4045413377","geometry":{"type":"Point","coordinates":[16.6383337,48.8062557]},"properties":{"osm_type":"node","osm_id":4045413377,"category":"wine_shop","name":"Vinařské centrum Mikulov","tags":{"name":"Vinařské centrum Mikulov","shop":"wine"}}},{"type":"Feature","id":"node/4045413378","geometry":{"type":"Point","coordinates":[16.6378503,48.8052696]},"properties":{"osm_type":"node","osm_id":4045413378,"category":"wine_shop","name":"Wine shop","tags":{"name":"Wine shop","shop":"wine"}}},{"type":"Feature","id":"node/4052433037","geometry":{"type":"Point","coordinates":[17.076124,49.7068035]},"properties":{"osm_type":"node","osm_id":4052433037,"category":"wine_shop","tags":{"shop":"wine"}}},{"type":"Feature","id":"node/4107148919","geometry":{"type":"Point","coordinates":[16.1153355,50.2682263]},"properties":{"osm_type":"node","osm_id":4107148919,"category":"wine_shop","tags":{"shop":"wine"}}},{"type":"Feature","id":"node/4163036857","geometry":{"type":"Point","coordinates":[14.4877687,50.0221826]},"properties":{"osm_type":"node","osm_id":4163036857,"category":"winery","name":"U dvou přátel","tags":{"amenity":"bar","craft":"winery","name":"U dvou přátel"}}},{"type":"Feature","id":"node/4168070873","geometry":{"type":"Point","coordinates":[16.1155505,49.804738]},"properties":{"osm_type":"node","osm_id":4168070873,"category":"winery","tags":{"craft":"winery"}}},{"type":"Feature","id":"node/4171481527","geometry":{"type":"Point","coordinates":[18.3803924,49.9042834]},"properties":{"osm_type":"node","osm_id":4171481527,"category":"wine_shop","name":"Vinotéka","tags":{"name":"Vinotéka","shop":"wine"}}},{"type":"Feature","id":"node/4202085587","geometry":{"type":"Point","coordinates":[14.3987647,50.0671723]},"properties":{"osm_type":"node","osm_id":4202085587,"category":"wine_cellar","name":"Vinný sklep U Stárků","tags":{"addr:city":"Praha 5","addr:housenumber":"12","addr:postcode":"15000","addr:street":"U Nikolajky","email":"vinny.sklep@ustarku.cz","name":"Vinný sklep U Stárků","opening_hours":"Tu-Th 14:00-21:30; Fr 13:30-19:00","phone":"+420 251 565 174","shop":"alcohol","tourism":"wine_cellar","website":"https://www.ustarku.cz/"}}},{"type":"Feature","id":"node/4206956320","geometry":{"type":"Point","coordinates":[16.6017023,49.2015167]},"properties":{"osm_type":"node","osm_id":4206956320,"category":"wine_shop","name":"Degustárna vína z Velkých Bílovic","tags":{"addr:city":"Brno","addr:housenumber":"13","addr:postcode":"60200","addr:street":"Smetanova","name":"Degustárna vína z Velkých Bílovic","opening_hours":"Mo-Th 17:00-22:00; Fr,Sa 18:30-23:00","shop":"wine"}}},{"type":"Feature","id":"node/4211150898","geometry":{"type":"Point","coordinates":[18.3508409,49.669549]},"properties":{"osm_type":"node","osm_id":4211150898,"category":"wine_shop","tags":{"shop":"wine"}}},{"type":"Feature","id":"node/4215268591","geometry":{"type":"Point","coordinates":[17.4026199,49.2907721]},"properties":{"osm_type":"node","osm_id":4215268591,"category":"wine_shop","tags":{"shop":"wine"}}},{"type":"Feature","id":"node/4227779989","geometry":{"type":"Point","coordinates":[14.874468,50.2288656]},"properties":{"osm_type":"node","osm_id":4227779989,"category":"wine_shop","name":"Vinotéka U Pavla","tags":{"addr:housenumber":"519","addr:postcode":"28924","addr:street":"V Konírnách","name":"Vinotéka U Pavla","opening_hours":"Su-Th 14:00-21:00; Fr-Sa 14:00-22:00","shop":"wine","website":"https://www.upavla.cz/"}}},{"type":"Feature","id":"node/4235144497","geometry":{"type":"Point","coordinates":[17.2069539,50.2269614]},"properties":{"osm_type":"node","osm_id":4235144497,"category":"wine_shop","tags":{"shop":"wine"}}},{"type":"Feature","id":"node/4240252948","geometry":{"type":"Point","coordinates":[16.6753229,48.8747533]},"properties":{"osm_type":"node","osm_id":4240252948,"category":"winery","name":"Vinařství Ilias","tags":{"addr:city":"Pavlov","addr:housenumber":"92","addr:postcode":"69201","addr:street":"Přehradní","craft":"winery","email":"g.ilias@ilias.cz","name":"Vinařství Ilias","operator":"Georgios Ilias","phone":"+420 602 510 952","website":"www.ilias.cz"}}},{"type":"Feature","id":"node/4243470871","geometry":{"type":"Point","coordinates":[16.756097,48.7408572]},"properties":{"osm_type":"node","osm_id":4243470871,"category":"wine_shop","name":"Vinotéka v Zámecké bráně","tags":{"email":"milanhradil@seznam.cz","name":"Vinotéka v Zámecké bráně","opening_hours":"Mo-Th 15:00-20:00; Fr 15:00-22:00; Sa 10:00-22:00; Su 10:00-17:00","phone":"+420 606 712 128","shop":"wine"}}},{"type":"Feature","id":"node/4256172552","geometry":{"type":"Point","coordinates":[18.1429729,49.458562]},"properties":{"osm_type":"node","osm_id":4256172552,"category":"wine_shop","tags":{"shop":"wine"}}},{"type":"Feature","id":"node/4256172553","geometry":{"type":"Point","coordinates":[18.1435097,49.4587798]},"properties":{"osm_type":"node","osm_id":4256172553,"category":"wine_shop","tags":{"shop":"wine"}}},{"type":"Feature","id":"node/4257587863","geometry":{"type":"Point","coordinates":[18.1332777,49.4626747]},"properties":{"osm_type":"node","osm_id":4257587863,"category":"wine_shop","tags":{"shop":"wine"}}},{"type":"Feature","id":"node/4257587865","geometry":{"type":"Point","coordinates":[18.1368799,49.4650839]},"properties":{"osm_type":"node","osm_id":4257587865,"category":"wine_shop","name":"Enotria","tags":{"name":"Enotria","shop":"wine"}}},{"type":"Feature","id":"node/4257587866","geometry":{"type":"Point","coordinates":[18.1263301,49.4593469]},"properties":{"osm_type":"node","osm_id":4257587866,"category":"wine_shop","name":"Enotria","tags":{"email":"Info@storicaenotria.cz","name":"Enotria","opening_hours":"Mo-Th 09:00-19:00; Fr 09:00-20:00; Sa 09:00-18:00","shop":"wine","website":"https://storicaenotria.cz/"}}},{"type":"Feature","id":"node/4278549107","geometry":{"type":"Point","coordinates":[14.4303072,50.0910825]},"properties":{"osm_type":"node","osm_id":4278549107,"category":"winery","tags":{"addr:city":"Praha 1","addr:housenumber":"26","addr:postcode":"11000","addr:street":"Soukenická","craft":"winery"}}},{"type":"Feature","id":"node/4307758143","geometry":{"type":"Point","coordinates":[16.011675,49.3554913]},"properties":{"osm_type":"node","osm_id":4307758143,"category":"wine_shop","tags":{"shop":"wine"}}},{"type":"Feature","id":"node/4328387100","geometry":{"type":"Point","coordinates":[16.7833973,49.2013161]},"properties":{"osm_type":"node","osm_id":4328387100,"category":"wine_shop","name":"Jana Źelezná","tags":{"addr:housenumber":"350","addr:postcode":"66407","name":"Jana Źelezná","opening_hours":"Tu-Fr 15:00-20:00; Sa 14:00-18:00; PH off","shop":"wine"}}},{"type":"Feature","id":"node/4331952891","geometry":{"type":"Point","coordinates":[17.2555615,49.577096]},"properties":{"osm_type":"node","osm_id":4331952891,"category":"wine_shop","name":"V&D","tags":{"name":"V&D","shop":"wine"}}},{"type":"Feature","id":"node/4358649291","geometry":{"type":"Point","coordinates":[16.3898179,49.1840148]},"properties":{"osm_type":"node","osm_id":4358649291,"category":"wine_shop","name":"Vinotéka Rosice","tags":{"name":"Vinotéka Rosice","name:cs":"Vinotéka Rosice","opening_hours":"Mo-Su 09:00-21:00","shop":"wine"}}},{"type":"Feature","id":"node/4366549494","geometry":{"type":"Point","coordinates":[15.9397027,49.5602965]},"properties":{"osm_type":"node","osm_id":4366549494,"category":"wine_shop","name":"Vinotéka U Divadla","tags":{"name":"Vinotéka U Divadla","shop":"wine"}}},{"type":"Feature","id":"node/4373592485","geometry":{"type":"Point","coordinates":[14.3169635,50.1585889]},"properties":{"osm_type":"node","osm_id":4373592485,"category":"wine_bar","tags":{"amenity":"restaurant","cuisine":"wine","opening_hours":"Tu-Fr 15:30-20:00; Sa 10:00-12:00; Su,Mo off"}}},{"type":"Feature","id":"node/4379721245","geometry":{"type":"Point","coordinates":[16.6582407,49.2063057]},"properties":{"osm_type":"node","osm_id":4379721245,"category":"wine_shop","name":"Moravská vína","tags":{"addr:city":"Brno","addr:housenumber":"2d","addr:street":"Pálavské náměstí","name":"Moravská vína","opening_hours":"Mo-Sa 10:00-20:00; Su 14:00-19:00","shop":"wine"}}},{"type":"Feature","id":"node/4384347277","geometry":{"type":"Point","coordinates":[16.6366621,48.9094336]},"properties":{"osm_type":"node","osm_id":4384347277,"category":"winery","name":"sKřivánek","tags":{"addr:city":"Strachotín","addr:housenumber":"ev.52","addr:postcode":"69301","addr:street":"Sklepní","craft":"winery","name":"sKřivánek","opening_hours":"\"by appointment\"","website":"https://www.ubytovani-pod-palavou.cz/"}}},{"type":"Feature","id":"node/4386855798","geometry":{"type":"Point","coordinates":[16.0732889,49.5605854]},"properties":{"osm_type":"node","osm_id":4386855798,"category":"wine_shop","name":"Vinotéka u Charlieho","tags":{"name":"Vinotéka u Charlieho","name:cs":"Vinotéka u Charlieho","opening_hours":"Mo-Sa 08:00-18:00; Su 09:00-18:00","shop":"wine","website":"https://www.vinotekaucharlieho.cz/"}}},{"type":"Feature","id":"node/4399087290","geometry":{"type":"Point","coordinates":[17.1000851,48.9868229]},"properties":{"osm_type":"node","osm_id":4399087290,"category":"wine_shop","name":"Svatoborský sklípek","tags":{"addr:housenumber":"1185/14","addr:postcode":"69604","addr:street":"Pod Sokolovnou","name":"Svatoborský sklípek","shop":"wine"}}},{"type":"Feature","id":"node/4420254053","geometry":{"type":"Point","coordinates":[17.2878828,49.4290423]},"properties":{"osm_type":"node","osm_id":4420254053,"category":"wine_shop","tags":{"shop":"wine"}}},{"type":"Feature","id":"node/4426722198","geometry":{"type":"Point","coordinates":[16.0469024,48.8540836]},"properties":{"osm_type":"node","osm_id":4426722198,"category":"winery","name":"U Kaplana","tags":{"amenity":"bar","craft":"winery","name":"U Kaplana","phone":"+420 721853348"}}},{"type":"Feature","id":"node/4446268354","geometry":{"type":"Point","coordinates":[16.586402,49.2429308]},"properties":{"osm_type":"node","osm_id":4446268354,"category":"wine_shop","name":"Víno Kačka","tags":{"addr:postcode":"60200","name":"Víno Kačka","opening_hours":"Tu-Fr 15:00-19:00; We off","shop":"wine"}}},{"type":"Feature","id":"node/4460577191","geometry":{"type":"Point","coordinates":[16.667033,48.8728486]},"properties":{"osm_type":"node","osm_id":4460577191,"category":"wine_cellar","name":"Vinařství Garčic","tags":{"addr:city":"Pavlov","addr:housenumber":"237","addr:postcode":"69201","addr:street":"Vinařská","email":"info@garcicovi.cz","name":"Vinařství Garčic","name:cs":"Vinařství Garčic","name:en":"Vinery Garcic","name:sk":"Vinárstvo Garčic","phone":"+420 728 746 500","shop":"wine","tourism":"wine_cellar"}}},{"type":"Feature","id":"node/4477738789","geometry":{"type":"Point","coordinates":[16.1520779,50.3441863]},"properties":{"osm_type":"node","osm_id":4477738789,"category":"wine_shop","name":"SELADON kava a vino a delikatesy","tags":{"addr:housenumber":"1220","addr:postcode":"54901","addr:street":"Husovo náměstí","email":"kava@seladon.cz","name":"SELADON kava a vino a delikatesy","name:cs":"SELADON kava a vino a delikatesy","name:en":"SELADON kava a vino a delikatesy","opening_hours":"Mo-Sa 09:00-18:00; Su 13:00-18:00","phone":"+420 491473085","shop":"wine","website":"http://www.seladon.cz"}}},{"type":"Feature","id":"node/4480093449","geometry":{"type":"Point","coordinates":[18.5306861,49.8572444]},"properties":{"osm_type":"node","osm_id":4480093449,"category":"wine_shop","name":"Vinofol","tags":{"name":"Vinofol","opening_hours":"Mo-Su 09:00-20:00","shop":"wine"}}},{"type":"Feature","id":"node/4485588803","geometry":{"type":"Point","coordinates":[17.4483242,49.4541926]},"properties":{"osm_type":"node","osm_id":4485588803,"category":"wine_shop","name":"Vinotéka Vítěz","tags":{"addr:city":"Přerov","addr:housenumber":"113/5","addr:postcode":"75002","addr:street":"Bratrská","email":"prokop.ivan@quick.cz","name":"Vinotéka Vítěz","opening_hours":"Mo-Fr 09:30-19:00; Sa 08:30-11:30","phone":"+420 581 202 875","shop":"wine"}}},{"type":"Feature","id":"node/4491130294","geometry":{"type":"Point","coordinates":[15.7982296,49.9428341]},"properties":{"osm_type":"node","osm_id":4491130294,"category":"wine_shop","tags":{"opening_hours":"24/7","shop":"wine"}}},{"type":"Feature","id":"node/4530727225","geometry":{"type":"Point","coordinates":[14.499958,50.1221324]},"properties":{"osm_type":"node","osm_id":4530727225,"category":"wine_shop","name":"Pampinus","tags":{"name":"Pampinus","opening_hours":"Mo-Fr 16:30-21:30","phone":"+420 775 994 041","shop":"wine","website":"https://vinotekaprosek.cz/"}}},{"type":"Feature","id":"node/4549439537","geometry":{"type":"Point","coordinates":[18.6828821,49.6695525]},"properties":{"osm_type":"node","osm_id":4549439537,"category":"wine_shop","name":"Staroveské centrum vína","tags":{"addr:city":"Třinec","addr:country":"CZ","addr:housenumber":"1357","addr:postcode":"73961","addr:street":"Za Tratí","name":"Staroveské centrum vína","opening_hours":"Mo-Su 08:00-20:00","shop":"wine"}}},{"type":"Feature","id":"node/4563509071","geometry":{"type":"Point","coordinates":[14.7108258,49.9347368]},"properties":{"osm_type":"node","osm_id":4563509071,"category":"wine_shop","name":"Sudová vína, nápoje","tags":{"name":"Sudová vína, nápoje","shop":"wine"}}},{"type":"Feature","id":"node/4563509203","geometry":{"type":"Point","coordinates":[14.7104949,49.9365692]},"properties":{"osm_type":"node","osm_id":4563509203,"category":"wine_shop","name":"Víno","tags":{"name":"Víno","shop":"wine"}}},{"type":"Feature","id":"node/4579762870","geometry":{"type":"Point","coordinates":[18.2712695,49.5426053]},"properties":{"osm_type":"node","osm_id":4579762870,"category":"wine_shop","name":"Vinotéka Sýkora","tags":{"name":"Vinotéka Sýkora","shop":"wine"}}},{"type":"Feature","id":"node/4580030006","geometry":{"type":"Point","coordinates":[18.4113921,49.6752604]},"properties":{"osm_type":"node","osm_id":4580030006,"category":"wine_shop","tags":{"shop":"wine"}}},{"type":"Feature","id":"node/4590359395","geometry":{"type":"Point","coordinates":[16.6003501,49.1824924]},"properties":{"osm_type":"node","osm_id":4590359395,"category":"wine_shop","name":"Vinotéka U Soudu","tags":{"addr:city":"Brno","addr:housenumber":"16","addr:postcode":"63900","addr:street":"Renneská třída","name":"Vinotéka U Soudu","opening_hours":"Mo-Fr 10:00-19:00; Sa 09:00-12:00","shop":"wine","website":"https://www.vinotekausoudu.cz/"}}},{"type":"Feature","id":"node/4592202830","geometry":{"type":"Point","coordinates":[16.5587655,49.1688023]},"properties":{"osm_type":"node","osm_id":4592202830,"category":"wine_shop","name":"Vinotéka pod Peřinou","tags":{"addr:city":"Brno","addr:housenumber":"21","addr:postcode":"62500","addr:street":"U hřiště","name":"Vinotéka pod Peřinou","opening_hours":"Mo-Su 14:00-21:00","phone":"+420 723 906 622","shop":"wine","website":"https://vinoteka-pod-perinou.webnode.cz/"}}},{"type":"Feature","id":"node/4592731097","geometry":{"type":"Point","coordinates":[16.6815691,49.1795969]},"properties":{"osm_type":"node","osm_id":4592731097,"category":"wine_shop","name":"Vinotéka","tags":{"name":"Vinotéka","name:cs":"Vinotéka","opening_hours":"Mo-Fr 10:00-20:00; Sa 09:00-20:00; Su 15:00-19:00","shop":"wine"}}},{"type":"Feature","id":"node/4592754489","geometry":{"type":"Point","coordinates":[16.6844739,49.1790105]},"properties":{"osm_type":"node","osm_id":4592754489,"category":"wine_shop","tags":{"shop":"wine"}}},{"type":"Feature","id":"node/4602067486","geometry":{"type":"Point","coordinates":[16.554574,49.2190249]},"properties":{"osm_type":"node","osm_id":4602067486,"category":"wine_shop","name":"Vinotéka u zastávky","tags":{"name":"Vinotéka u zastávky","opening_hours":"Mo-Fr 10:00-19:00; Sa 10:00-18:00","shop":"wine"}}},{"type":"Feature","id":"node/4610155954","geometry":{"type":"Point","coordinates":[18.1430557,49.6395831]},"properties":{"osm_type":"node","osm_id":4610155954,"category":"wine_shop","name":"Vinotéka U radnice & První Příborská sýrárna","tags":{"email":"vinotekauradncie@gmail.com","name":"Vinotéka U radnice & První Příborská sýrárna","opening_hours":"Mo-Fr 10:00-18:00; Sa 08:00-13:00","phone":"+420734108180","shop":"wine"}}},{"type":"Feature","id":"node/4613481000","geometry":{"type":"Point","coordinates":[18.284214,49.8390467]},"properties":{"osm_type":"node","osm_id":4613481000,"category":"wine_shop","name":"Vinotéka Modré hory","tags":{"name":"Vinotéka Modré hory","opening_hours":"Mo-Fr 15:00-23:00; Sa 17:00-23:00","shop":"wine"}}},{"type":"Feature","id":"node/4730428087","geometry":{"type":"Point","coordinates":[18.6790947,49.6689036]},"properties":{"osm_type":"node","osm_id":4730428087,"category":"wine_shop","name":"Vinotéka Merlot","tags":{"name":"Vinotéka Merlot","opening_hours":"Mo-Sa 08:00-20:00; Su 09:00-20:00","shop":"wine"}}},{"type":"Feature","id":"node/4734809619","geometry":{"type":"Point","coordinates":[18.6193301,49.7391534]},"properties":{"osm_type":"node","osm_id":4734809619,"category":"wine_shop","name":"Vinofol","tags":{"name":"Vinofol","opening_hours":"Mo-Su 08:00-20:00","shop":"wine"}}},{"type":"Feature","id":"node/4742851329","geometry":{"type":"Point","coordinates":[18.6757899,49.6698773]},"properties":{"osm_type":"node","osm_id":4742851329,"category":"wine_shop","name":"Vinotéka P&V","tags":{"name":"Vinotéka P&V","opening_hours":"Mo-Su 08:00-20:00","phone":"+420603227689","shop":"wine","website":"https://www.vinotekapv.cz"}}},{"type":"Feature","id":"node/4744465964","geometry":{"type":"Point","coordinates":[14.4043629,50.0901685]},"properties":{"osm_type":"node","osm_id":4744465964,"category":"wine_shop","name":"U Fify","tags":{"addr:city":"Praha","addr:housenumber":"163/2","addr:street":"Valdštejnské náměstí","name":"U Fify","opening_hours":"Mo-Sa 15:00-22:00","shop":"wine","wheelchair":"no"}}},{"type":"Feature","id":"node/4755089036","geometry":{"type":"Point","coordinates":[18.1472354,49.8480166]},"properties":{"osm_type":"node","osm_id":4755089036,"category":"wine_shop","name":"Víno&Destiláty","tags":{"name":"Víno&Destiláty","opening_hours":"Mo-Su 09:00-20:00; Fr 09:00-21:00","shop":"wine"}}},{"type":"Feature","id":"node/4771755514","geometry":{"type":"Point","coordinates":[16.6545558,49.1916408]},"properties":{"osm_type":"node","osm_id":4771755514,"category":"wine_shop","name":"Vinotéka","tags":{"addr:city":"Brno","addr:housenumber":"3878/2","addr:postcode":"63600","addr:street":"Juliánovské náměstí","name":"Vinotéka","opening_hours":"Mo-Sa 12:00-21:00","shop":"wine","website":"https://www.skoupimto.cz/","wheelchair":"no"}}},{"type":"Feature","id":"node/4810064077","geometry":{"type":"Point","coordinates":[17.4606899,49.4524872]},"properties":{"osm_type":"node","osm_id":4810064077,"category":"wine_shop","name":"Kyjovjanka","tags":{"addr:city":"Přerov","addr:housenumber":"1117/30","addr:postcode":"75002","addr:street":"Trávník","email":"kyjovjanka@email.cz","name":"Kyjovjanka","opening_hours":"Mo-Fr 14:30-21:00; Sa 10:00-14:00","phone":"+420 605 418 374","shop":"wine","website":"http://www.kyjovjanka.tk/"}}},{"type":"Feature","id":"node/4813353257","geometry":{"type":"Point","coordinates":[14.4224161,50.1012593]},"properties":{"osm_type":"node","osm_id":4813353257,"category":"winery","name":"U vzducholodě","tags":{"addr:city":"Praha 7","addr:housenumber":"16","addr:postcode":"17000","addr:street":"Šmeralova","craft":"winery","name":"U vzducholodě"}}},{"type":"Feature","id":"node/4818652033","geometry":{"type":"Point","coordinates":[16.8458963,48.8292937]},"properties":{"osm_type":"node","osm_id":4818652033,"category":"winery","name":"Vinotéka U Soudku","tags":{"craft":"winery","name":"Vinotéka U Soudku","website":"https://www.vinotekapodivin.cz/"}}},{"type":"Feature","id":"node/4822265053","geometry":{"type":"Point","coordinates":[14.434147,50.0713529]},"properties":{"osm_type":"node","osm_id":4822265053,"category":"wine_shop","name":"Chateau Šafaříkova","tags":{"name":"Chateau Šafaříkova","opening_hours":"Mo,Tu 12:00-21:00; We-Sa 12:00-23:00","shop":"wine","wheelchair":"no"}}},{"type":"Feature","id":"node/4854079589","geometry":{"type":"Point","coordinates":[16.2628911,49.7146671]},"properties":{"osm_type":"node","osm_id":4854079589,"category":"wine_shop","name":"U hradeb","tags":{"name":"U hradeb","opening_hours":"Mo-Th 10:00-12:00,14:00-19:00; Fr 10:00-19:00; Sa 09:00-11:00,14:00-19:00","shop":"wine"}}},{"type":"Feature","id":"node/4864723823","geometry":{"type":"Point","coordinates":[18.3453098,49.6714863]},"properties":{"osm_type":"node","osm_id":4864723823,"category":"wine_shop","name":"sudovkarna.cz","tags":{"brand":"Znovín Znojmo;Žufánek","email":"mistek@sudovkarna.cz","name":"sudovkarna.cz","opening_hours":"Mo-Fr 10:00-20:00; Sa 09:00-13:00","shop":"wine","website":"https://www.sudovkarna.cz/"}}},{"type":"Feature","id":"node/4866635795","geometry":{"type":"Point","coordinates":[17.4527894,49.4543345]},"properties":{"osm_type":"node","osm_id":4866635795,"category":"wine_shop","name":"Vinárna Čelechovský","tags":{"name":"Vinárna Čelechovský","phone":"+420 581 738 802","shop":"wine"}}},{"type":"Feature","id":"node/4882172008","geometry":{"type":"Point","coordinates":[15.7855119,50.0382511]},"properties":{"osm_type":"node","osm_id":4882172008,"category":"wine_shop","name":"Vinný šenk","tags":{"name":"Vinný šenk","opening_hours":"Mo-Fr 15:00-21:00","shop":"wine","wheelchair":"no"}}},{"type":"Feature","id":"node/4928156503","geometry":{"type":"Point","coordinates":[16.5975223,49.2103099]},"properties":{"osm_type":"node","osm_id":4928156503,"category":"wine_shop","name":"Moravská vinotéka","tags":{"name":"Moravská vinotéka","opening_hours":"Mo 15:00-19:30; Tu,We 14:00-20:30; Th 14:00-19:30; Fr 14:00-18:30","shop":"wine","wheelchair":"yes"}}},{"type":"Feature","id":"node/4930988223","geometry":{"type":"Point","coordinates":[16.6232487,48.8354092]},"properties":{"osm_type":"node","osm_id":4930988223,"category":"wine_shop","name":"Vinařství Drmola","tags":{"addr:city":"Bavory","addr:housenumber":"46","addr:postcode":"692 01","email":"info@vinarstvidrmola.cz","name":"Vinařství Drmola","name:de":"Weingut Drmola","name:en":"Winary Drmola","opening_hours":"Mo-Fr 09:00-15:00","phone":"+420 736 487 749","shop":"wine","website":"https://www.vinarstvidrmola.cz/"}}},{"type":"Feature","id":"node/4974771221","geometry":{"type":"Point","coordinates":[16.7668252,48.7744285]},"properties":{"osm_type":"node","osm_id":4974771221,"category":"wine_shop","name":"Vinařství Pod Mezů","tags":{"email":"zbynek.radkovic@email.cz","name":"Vinařství Pod Mezů","opening_hours":"24/7","phone":"+420777001628","shop":"wine","website":"https://podmezu.cz/"}}},{"type":"Feature","id":"node/4996188699","geometry":{"type":"Point","coordinates":[14.4716207,50.0900429]},"properties":{"osm_type":"node","osm_id":4996188699,"category":"wine_shop","name":"Laska Trva","tags":{"addr:city":"Praha","addr:housenumber":"1654","addr:postcode":"13000","addr:street":"Biskupcova","name":"Laska Trva","opening_hours":"Mo-Su 14:00-23:00","shop":"wine"}}},{"type":"Feature","id":"node/4999295856","geometry":{"type":"Point","coordinates":[14.4525364,50.0944363]},"properties":{"osm_type":"node","osm_id":4999295856,"category":"winery","name":"správná adresa","tags":{"craft":"winery","name":"správná adresa","opening_hours":"Mo-Fr 11:00-23:00; Sa 16:00-22:00; Su Off"}}},{"type":"Feature","id":"node/5079002373","geometry":{"type":"Point","coordinates":[14.4604057,50.0703211]},"properties":{"osm_type":"node","osm_id":5079002373,"category":"wine_shop","name":"Wine Institute","tags":{"addr:city":"Praha 10","addr:housenumber":"797","addr:postcode":"10100","addr:street":"Kodaňská","email":"info@wineinstitute.cz","name":"Wine Institute","opening_hours":"Mo-Fr 16:00-20:00","phone":"+420603258199","shop":"wine","website":"https://www.wineinstitute.cz/"}}},{"type":"Feature","id":"node/5080645618","geometry":{"type":"Point","coordinates":[16.1591929,50.4132562]},"properties":{"osm_type":"node","osm_id":5080645618,"category":"wine_shop","tags":{"shop":"wine"}}},{"type":"Feature","id":"node/5086457369","geometry":{"type":"Point","coordinates":[18.7625204,49.5758561]},"properties":{"osm_type":"node","osm_id":5086457369,"category":"wine_shop","tags":{"shop":"wine"}}},{"type":"Feature","id":"node/5099034761","geometry":{"type":"Point","coordinates":[16.6040438,49.1892937]},"properties":{"osm_type":"node","osm_id":5099034761,"category":"wine_shop","name":"Vinotéka Na Hybešce","tags":{"addr:housenumber":"24","addr:street":"Hybešova","name":"Vinotéka Na Hybešce","shop":"wine"}}},{"type":"Feature","id":"node/5099034766","geometry":{"type":"Point","coordinates":[16.7510209,48.830761]},"properties":{"osm_type":"node","osm_id":5099034766,"category":"winery","name":"Vinarsky dvur Fuzgrunty","tags":{"craft":"winery","name":"Vinarsky dvur Fuzgrunty"}}},{"type":"Feature","id":"node/5105844877","geometry":{"type":"Point","coordinates":[17.1275458,49.4737868]},"properties":{"osm_type":"node","osm_id":5105844877,"category":"winery","name":"Víno & destiláty","tags":{"craft":"winery","name":"Víno & destiláty"}}},{"type":"Feature","id":"node/5110597757","geometry":{"type":"Point","coordinates":[16.6942792,49.2059779]},"properties":{"osm_type":"node","osm_id":5110597757,"category":"wine_shop","name":"Vinotéka u Urbana","tags":{"name":"Vinotéka u Urbana","opening_hours":"Mo-Fr 10:00-17:00; Sa 09:00-12:00","shop":"wine"}}},{"type":"Feature","id":"node/5112587230","geometry":{"type":"Point","coordinates":[17.4581059,49.0693302]},"properties":{"osm_type":"node","osm_id":5112587230,"category":"wine_shop","name":"Víno Hruška","tags":{"addr:city":"Uherské Hradiště","addr:housenumber":"61","addr:postcode":"686 01","addr:street":"Mariánské náměstí","email":"uh@vinohruska.cz","name":"Víno Hruška","opening_hours":"Mo 10:00-20:00; Tu-Th 10:00-21:00; Fr-Sa 10:00-22:00","phone":"+420 775 785 061","shop":"wine"}}},{"type":"Feature","id":"node/5113554607","geometry":{"type":"Point","coordinates":[16.5178225,49.2212699]},"properties":{"osm_type":"node","osm_id":5113554607,"category":"wine_shop","name":"Vinotéka","tags":{"name":"Vinotéka","shop":"wine"}}},{"type":"Feature","id":"node/5118253581","geometry":{"type":"Point","coordinates":[16.8276252,48.8989932]},"properties":{"osm_type":"node","osm_id":5118253581,"category":"wine_shop","name":"Baraque wine gallery","tags":{"name":"Baraque wine gallery","shop":"wine","website":"https://www.vinarstvibaraque.cz/"}}},{"type":"Feature","id":"node/5133565375","geometry":{"type":"Point","coordinates":[14.5521716,50.0462115]},"properties":{"osm_type":"node","osm_id":5133565375,"category":"wine_shop","name":"Nejmenší vinárnička u středně velké vrtule","tags":{"amenity":"pub","name":"Nejmenší vinárnička u středně velké vrtule","opening_hours":"Tu-Sa 18:00-22:00","shop":"wine","website":"https://vrtule.majestat.cz/"}}},{"type":"Feature","id":"node/5136876614","geometry":{"type":"Point","coordinates":[17.3950756,49.1061663]},"properties":{"osm_type":"node","osm_id":5136876614,"category":"wine_shop","name":"Klášterní sklepy Velehrad","tags":{"name":"Klášterní sklepy Velehrad","shop":"wine"}}},{"type":"Feature","id":"node/5153396524","geometry":{"type":"Point","coordinates":[17.273738,48.971079]},"properties":{"osm_type":"node","osm_id":5153396524,"category":"wine_shop","name":"Bunža","tags":{"name":"Bunža","opening_hours":"Mo-Su 07:00-20:00","phone":"518384833","shop":"wine","website":"https://www.bunza.cz/"}}},{"type":"Feature","id":"node/5153435125","geometry":{"type":"Point","coordinates":[17.2780154,48.9703124]},"properties":{"osm_type":"node","osm_id":5153435125,"category":"wine_shop","name":"Ostrezi","tags":{"name":"Ostrezi","phone":"604929570","shop":"wine","website":"https://www.vinarstviostrezi.cz/"}}},{"type":"Feature","id":"node/5179472947","geometry":{"type":"Point","coordinates":[18.4428439,49.7874346]},"properties":{"osm_type":"node","osm_id":5179472947,"category":"wine_shop","name":"Staroveské centrum vína","tags":{"name":"Staroveské centrum vína","opening_hours":"Mo-Su 08:00-20:00","shop":"wine"}}},{"type":"Feature","id":"node/5188010991","geometry":{"type":"Point","coordinates":[14.569208,50.0442967]},"properties":{"osm_type":"node","osm_id":5188010991,"category":"wine_shop","name":"Vinotéka","tags":{"name":"Vinotéka","opening_hours":"Mo-Su 09:00-20:00","shop":"wine","wheelchair":"yes"}}},{"type":"Feature","id":"node/5224482146","geometry":{"type":"Point","coordinates":[17.0222524,48.856424]},"properties":{"osm_type":"node","osm_id":5224482146,"category":"winery","name":"Bojanovský sklep Uherek","tags":{"addr:city":"Dolní Bojanovice","addr:housenumber":"311","addr:postcode":"69617","addr:street":"Úvoz","craft":"winery","email":"uherek@sklepuherek.cz","name":"Bojanovský sklep Uherek","operator":"Ing. Jiří Uherek","phone":"+420 736 514 206","website":"https://www.vinaruherek.cz/"}}},{"type":"Feature","id":"node/5224489707","geometry":{"type":"Point","coordinates":[17.0290091,48.853491]},"properties":{"osm_type":"node","osm_id":5224489707,"category":"winery","name":"Regnum Vini","tags":{"craft":"winery","email":"sklensky@regnumvini.cz","name":"Regnum Vini","operator":"Zdeněk Sklenský","phone":"+420 777 569 621","website":"https://www.regnumvini.cz/"}}},{"type":"Feature","id":"node/5226832924","geometry":{"type":"Point","coordinates":[15.1675061,50.7235206]},"properties":{"osm_type":"node","osm_id":5226832924,"category":"wine_shop","name":"Dům vína","tags":{"addr:city":"Jablonec nad Nisou","addr:postcode":"466 01","addr:street":"Komenského","name":"Dům vína","shop":"wine"}}},{"type":"Feature","id":"node/5245287521","geometry":{"type":"Point","coordinates":[16.1919814,50.4240875]},"properties":{"osm_type":"node","osm_id":5245287521,"category":"wine_shop","name":"Vinofol","tags":{"name":"Vinofol","shop":"wine"}}},{"type":"Feature","id":"node/5273869946","geometry":{"type":"Point","coordinates":[14.3769429,50.0849166]},"properties":{"osm_type":"node","osm_id":5273869946,"category":"wine_shop","name":"La Vineria","tags":{"addr:city":"Praha 6","addr:housenumber":"1394/42","addr:postcode":"16900","addr:street":"Bělohorská","name":"La Vineria","shop":"wine"}}},{"type":"Feature","id":"node/5283468292","geometry":{"type":"Point","coordinates":[14.4332979,50.1022316]},"properties":{"osm_type":"node","osm_id":5283468292,"category":"wine_shop","name":"Vínečko","tags":{"name":"Vínečko","shop":"wine"}}},{"type":"Feature","id":"node/5300690223","geometry":{"type":"Point","coordinates":[17.2323126,49.5695539]},"properties":{"osm_type":"node","osm_id":5300690223,"category":"wine_shop","name":"Vinotéka","tags":{"name":"Vinotéka","shop":"wine"}}},{"type":"Feature","id":"node/5308595221","geometry":{"type":"Point","coordinates":[17.4558362,49.0676081]},"properties":{"osm_type":"node","osm_id":5308595221,"category":"winery","name":"Vinotéka Vaďura","tags":{"craft":"winery","name":"Vinotéka Vaďura"}}},{"type":"Feature","id":"node/5312470754","geometry":{"type":"Point","coordinates":[15.1816238,50.7336024]},"properties":{"osm_type":"node","osm_id":5312470754,"category":"wine_shop","tags":{"shop":"wine"}}},{"type":"Feature","id":"node/5313520050","geometry":{"type":"Point","coordinates":[17.4590368,49.0698196]},"properties":{"osm_type":"node","osm_id":5313520050,"category":"winery","name":"Slovácká vinotéka","tags":{"craft":"winery","name":"Slovácká vinotéka"}}},{"type":"Feature","id":"node/5325769404","geometry":{"type":"Point","coordinates":[17.4739296,49.4489948]},"properties":{"osm_type":"node","osm_id":5325769404,"category":"wine_shop","name":"Vinotéka & Kavárna","tags":{"addr:city":"Přerov","addr:housenumber":"3564/42","addr:postcode":"75002","addr:street":"Želatovská","email":"obchod@vinoteka-prerov.cz","name":"Vinotéka & Kavárna","opening_hours":"Mo-Su 07:00-20:00","phone":"+420 587 408 080","shop":"wine","website":"https://www.vinoteka-prerov.cz/"}}},{"type":"Feature","id":"node/5384055666","geometry":{"type":"Point","coordinates":[16.6177018,49.2124531]},"properties":{"osm_type":"node","osm_id":5384055666,"category":"wine_shop","name":"Ve Sklepě","tags":{"addr:housenumber":"852/64","addr:street":"Lesnická","name":"Ve Sklepě","opening_hours":"Mo-Fr 11:00-19:00","phone":"+420608548683","shop":"wine","website":"https://vesklepe-vinny-bar.webnode.cz","wheelchair":"no"}}},{"type":"Feature","id":"node/5398566421","geometry":{"type":"Point","coordinates":[17.3384062,49.0699018]},"properties":{"osm_type":"node","osm_id":5398566421,"category":"wine_shop","tags":{"shop":"wine"}}},{"type":"Feature","id":"node/5503392244","geometry":{"type":"Point","coordinates":[17.2679832,48.8777317]},"properties":{"osm_type":"node","osm_id":5503392244,"category":"wine_shop","name":"Vinařství Svoboda","tags":{"name":"Vinařství Svoboda","shop":"wine","website":"www.vinarstvisvoboda.cz"}}},{"type":"Feature","id":"node/5503392280","geometry":{"type":"Point","coordinates":[17.2724189,48.8775381]},"properties":{"osm_type":"node","osm_id":5503392280,"category":"wine_shop","name":"60 - Vinařství Svoboda","tags":{"name":"60 - Vinařství Svoboda","shop":"wine","website":"www.vinarstvisvoboda.cz"}}},{"type":"Feature","id":"node/5503392296","geometry":{"type":"Point","coordinates":[17.2713688,48.8769278]},"properties":{"osm_type":"node","osm_id":5503392296,"category":"wine_shop","name":"30 - Vinařství Klásek","tags":{"name":"30 - Vinařství Klásek","shop":"wine","website":"https://www.vinarstviklasek.cz/"}}},{"type":"Feature","id":"node/5503392315","geometry":{"type":"Point","coordinates":[17.2715324,48.8776986]},"properties":{"osm_type":"node","osm_id":5503392315,"category":"wine_shop","name":"19 - Vinařství Dobčákovi","tags":{"name":"19 - Vinařství Dobčákovi","shop":"wine","website":"https://www.vinarstvidobcakovi.cz/"}}},{"type":"Feature","id":"node/5503392323","geometry":{"type":"Point","coordinates":[17.271798,48.8778997]},"properties":{"osm_type":"node","osm_id":5503392323,"category":"winery","name":"11 - Vinařství Tomanovský","tags":{"craft":"winery","name":"11 - Vinařství Tomanovský","operator":"Vinařství Tomanovský","shop":"wine","website":"https://www.tomanovsky.cz/"}}},{"type":"Feature","id":"node/5503392330","geometry":{"type":"Point","coordinates":[17.2712521,48.8782728]},"properties":{"osm_type":"node","osm_id":5503392330,"category":"wine_shop","name":"4 - Vinařství Hartman","tags":{"name":"4 - Vinařství Hartman","shop":"wine","website":"https://sklepypetrov.webnode.cz/"}}},{"type":"Feature","id":"node/5544792472","geometry":{"type":"Point","coordinates":[14.4621422,50.0870008]},"properties":{"osm_type":"node","osm_id":5544792472,"category":"wine_shop","name":"La Fattoria","tags":{"name":"La Fattoria","opening_hours":"Mo-Fr 08:00-16:00","shop":"wine"}}},{"type":"Feature","id":"node/5611992642","geometry":{"type":"Point","coordinates":[14.4901511,50.1043407]},"properties":{"osm_type":"node","osm_id":5611992642,"category":"wine_shop","name":"Bohemia Wine","tags":{"name":"Bohemia Wine","shop":"wine"}}},{"type":"Feature","id":"node/5732528100","geometry":{"type":"Point","coordinates":[16.6086579,49.9111225]},"properties":{"osm_type":"node","osm_id":5732528100,"category":"wine_shop","name":"Vinotéka Poklady z Moravy","tags":{"name":"Vinotéka Poklady z Moravy","shop":"wine"}}},{"type":"Feature","id":"node/5756830224","geometry":{"type":"Point","coordinates":[17.2527854,49.5941516]},"properties":{"osm_type":"node","osm_id":5756830224,"category":"winery","name":"Na brehu Rhony","tags":{"addr:housenumber":"2","addr:street":"Dolni namesti","craft":"winery","name":"Na brehu Rhony"}}},{"type":"Feature","id":"node/5774052553","geometry":{"type":"Point","coordinates":[18.0072344,49.1412592]},"properties":{"osm_type":"node","osm_id":5774052553,"category":"wine_shop","name":"Vinotéka - Pivotéka U Aničky","tags":{"name":"Vinotéka - Pivotéka U Aničky","opening_hours":"Mo-Fr 08:30-17:00; Sa 08:00-12:00","shop":"wine"}}},{"type":"Feature","id":"node/5776691193","geometry":{"type":"Point","coordinates":[17.0211376,48.8623232]},"properties":{"osm_type":"node","osm_id":5776691193,"category":"winery","name":"Vinacz","tags":{"craft":"winery","email":"vinacz@vinacz.cz","name":"Vinacz","phone":"+420 518 372 467","website":"https://vinacz.cz/"}}},{"type":"Feature","id":"node/5863161609","geometry":{"type":"Point","coordinates":[14.5179813,50.0532103]},"properties":{"osm_type":"node","osm_id":5863161609,"category":"wine_shop","name":"Cavum Carolinum","tags":{"name":"Cavum Carolinum","opening_hours":"Mo-Fr 09:00-21:00; Sa,Su 10:00-21:00","shop":"wine","website":"https://www.to-nej-vino.cz/"}}},{"type":"Feature","id":"node/5867387285","geometry":{"type":"Point","coordinates":[16.7183349,49.1008059]},"properties":{"osm_type":"node","osm_id":5867387285,"category":"wine_shop","name":"Vinotéka U Hrdličky","tags":{"name":"Vinotéka U Hrdličky","opening_hours":"Mo-Fr 08:30-11:30,13:30-17:30; Sa 08:00-11:00","shop":"wine","wheelchair":"yes"}}},{"type":"Feature","id":"node/5873388687","geometry":{"type":"Point","coordinates":[14.5004943,50.0753964]},"properties":{"osm_type":"node","osm_id":5873388687,"category":"wine_shop","name":"Vinný Bar Ken&Oliver","tags":{"addr:city":"Praha 10","addr:street":"Turnovského","name":"Vinný Bar Ken&Oliver","opening_hours":"12:00-21:00","phone":"+420 608 541 463","shop":"wine"}}},{"type":"Feature","id":"node/5881495086","geometry":{"type":"Point","coordinates":[14.4953301,50.0771024]},"properties":{"osm_type":"node","osm_id":5881495086,"category":"wine_shop","name":"Víno Hruška","tags":{"addr:street":"Černokostelecká","name":"Víno Hruška","name:en":"Wine Bar","opening_hours":"Mo 16:00-21:00; Tu-We 14:00-21:00; Th-Fr 14:00-22:00","phone":"+420 607 603 110","shop":"wine"}}},{"type":"Feature","id":"node/5962086800","geometry":{"type":"Point","coordinates":[16.5339031,49.1972439]},"properties":{"osm_type":"node","osm_id":5962086800,"category":"wine_shop","name":"Vinotéka Swapna","tags":{"email":"info@vinoteka-swapna.cz","name":"Vinotéka Swapna","opening_hours":"Mo-Fr 09:00-12:00,14:00-19:00; Sa 09:00-13:00; Su 16:00-20:00","phone":"+420 724 279 420","shop":"wine","website":"http://www.vinoteka-swapna.cz/"}}},{"type":"Feature","id":"node/5981194392","geometry":{"type":"Point","coordinates":[16.6023823,49.2018851]},"properties":{"osm_type":"node","osm_id":5981194392,"category":"winery","name":"Vindom Degustační Enoteca","tags":{"craft":"winery","email":"rezervace@vindom.cz","name":"Vindom Degustační Enoteca","opening_hours":"Tu-Sa 16:00-22:00","shop":"wine","website":"http://www.degustacnienoteca.cz/"}}},{"type":"Feature","id":"node/5983066250","geometry":{"type":"Point","coordinates":[17.4910799,49.066458]},"properties":{"osm_type":"node","osm_id":5983066250,"category":"wine_shop","name":"Vinný sklep U Kieryků","tags":{"name":"Vinný sklep U Kieryků","shop":"wine"}}},{"type":"Feature","id":"node/5983066255","geometry":{"type":"Point","coordinates":[17.4825767,49.0705748]},"properties":{"osm_type":"node","osm_id":5983066255,"category":"wine_shop","name":"Vinny sklep u Marholtů","tags":{"name":"Vinny sklep u Marholtů","shop":"wine"}}},{"type":"Feature","id":"node/5983066256","geometry":{"type":"Point","coordinates":[17.4835342,49.0716783]},"properties":{"osm_type":"node","osm_id":5983066256,"category":"wine_shop","name":"Vinařství Rochůz s.r.o.","tags":{"name":"Vinařství Rochůz s.r.o.","shop":"wine"}}},{"type":"Feature","id":"node/5983102983","geometry":{"type":"Point","coordinates":[17.4746279,49.0385792]},"properties":{"osm_type":"node","osm_id":5983102983,"category":"wine_shop","name":"Vinný sklep Veronika Omastová","tags":{"name":"Vinný sklep Veronika Omastová","shop":"wine"}}},{"type":"Feature","id":"node/6016374059","geometry":{"type":"Point","coordinates":[16.6254201,49.2218267]},"properties":{"osm_type":"node","osm_id":6016374059,"category":"wine_shop","name":"Vinotéka a wine bar Pavlovín","tags":{"addr:city":"Brno","addr:housenumber":"732/5","addr:postcode":"63800","addr:street":"Okružní","amenity":"bar","name":"Vinotéka a wine bar Pavlovín","opening_hours":"Mo-Su 10:00-21:00","shop":"wine","website":"https://www.pavlovin.cz/","wheelchair":"no"}}},{"type":"Feature","id":"node/6053068658","geometry":{"type":"Point","coordinates":[16.8485505,48.9206236]},"properties":{"osm_type":"node","osm_id":6053068658,"category":"winery","name":"AB vinný sklípek","tags":{"craft":"winery","name":"AB vinný sklípek"}}},{"type":"Feature","id":"node/6168266274","geometry":{"type":"Point","coordinates":[14.1017556,50.1460298]},"properties":{"osm_type":"node","osm_id":6168266274,"category":"wine_shop","name":"Zdeňka Provazníková","tags":{"name":"Zdeňka Provazníková","shop":"wine"}}},{"type":"Feature","id":"node/6183605722","geometry":{"type":"Point","coordinates":[12.1867798,50.2261704]},"properties":{"osm_type":"node","osm_id":6183605722,"category":"wine_shop","name":"Vinárna LaRitma","tags":{"name":"Vinárna LaRitma","shop":"wine"}}},{"type":"Feature","id":"node/6197767616","geometry":{"type":"Point","coordinates":[16.8991325,48.917485]},"properties":{"osm_type":"node","osm_id":6197767616,"category":"winery","name":"Areál vinných sklepů","tags":{"craft":"winery","name":"Areál vinných sklepů"}}},{"type":"Feature","id":"node/6197809813","geometry":{"type":"Point","coordinates":[16.8896311,48.9345335]},"properties":{"osm_type":"node","osm_id":6197809813,"category":"winery","name":"Kobylská sklepní ulička","tags":{"craft":"winery","name":"Kobylská sklepní ulička"}}},{"type":"Feature","id":"node/6198782386","geometry":{"type":"Point","coordinates":[17.076372,48.8408253]},"properties":{"osm_type":"node","osm_id":6198782386,"category":"winery","name":"Vinné sklepy","tags":{"craft":"winery","name":"Vinné sklepy"}}},{"type":"Feature","id":"node/6198782387","geometry":{"type":"Point","coordinates":[17.0185437,48.7999909]},"properties":{"osm_type":"node","osm_id":6198782387,"category":"winery","name":"Sklepní uličky U trati, Výmol a Zátiší","tags":{"craft":"winery","name":"Sklepní uličky U trati, Výmol a Zátiší"}}},{"type":"Feature","id":"node/6198782389","geometry":{"type":"Point","coordinates":[17.0274445,48.7994943]},"properties":{"osm_type":"node","osm_id":6198782389,"category":"winery","name":"Neoveská vinařská stezka","tags":{"craft":"winery","name":"Neoveská vinařská stezka"}}},{"type":"Feature","id":"node/6200460588","geometry":{"type":"Point","coordinates":[17.1887367,49.0234651]},"properties":{"osm_type":"node","osm_id":6200460588,"category":"winery","name":"Sklepní kolonie Pod hýselskú horú","tags":{"craft":"winery","name":"Sklepní kolonie Pod hýselskú horú"}}},{"type":"Feature","id":"node/6200517202","geometry":{"type":"Point","coordinates":[17.3411292,49.0349968]},"properties":{"osm_type":"node","osm_id":6200517202,"category":"winery","name":"areál U Sklepů","tags":{"craft":"winery","name":"areál U Sklepů"}}},{"type":"Feature","id":"node/6200658675","geometry":{"type":"Point","coordinates":[17.2583257,48.8639099]},"properties":{"osm_type":"node","osm_id":6200658675,"category":"winery","name":"Sklepni ulička Starý potok","tags":{"craft":"winery","name":"Sklepni ulička Starý potok"}}},{"type":"Feature","id":"node/6207053697","geometry":{"type":"Point","coordinates":[16.5529525,49.3365252]},"properties":{"osm_type":"node","osm_id":6207053697,"category":"wine_shop","name":"Vinotéka Lipůvka","tags":{"name":"Vinotéka Lipůvka","opening_hours":"Mo-Su 09:00-21:00","shop":"wine"}}},{"type":"Feature","id":"node/6258651449","geometry":{"type":"Point","coordinates":[14.6331616,50.9099373]},"properties":{"osm_type":"node","osm_id":6258651449,"category":"wine_shop","name":"Vinotheka","tags":{"name":"Vinotheka","shop":"wine"}}},{"type":"Feature","id":"node/6374342470","geometry":{"type":"Point","coordinates":[16.5395133,49.1952157]},"properties":{"osm_type":"node","osm_id":6374342470,"category":"wine_shop","name":"Blended Wine","tags":{"name":"Blended Wine","opening_hours":"Mo-Su 11:00-20:00","shop":"wine"}}},{"type":"Feature","id":"node/6414389157","geometry":{"type":"Point","coordinates":[17.173812,48.9457183]},"properties":{"osm_type":"node","osm_id":6414389157,"category":"wine_cellar","name":"Habánský sklep","tags":{"name":"Habánský sklep","tourism":"wine_cellar"}}},{"type":"Feature","id":"node/6467517596","geometry":{"type":"Point","coordinates":[17.1567482,48.9542509]},"properties":{"osm_type":"node","osm_id":6467517596,"category":"winery","name":"Vinařství Krist","tags":{"craft":"winery","name":"Vinařství Krist"}}},{"type":"Feature","id":"node/6470526286","geometry":{"type":"Point","coordinates":[14.4457591,50.1008702]},"properties":{"osm_type":"node","osm_id":6470526286,"category":"winery","name":"Vinotéka","tags":{"craft":"winery","name":"Vinotéka"}}},{"type":"Feature","id":"node/6604710316","geometry":{"type":"Point","coordinates":[15.8889091,50.3978713]},"properties":{"osm_type":"node","osm_id":6604710316,"category":"wine_shop","tags":{"shop":"wine"}}},{"type":"Feature","id":"node/6613003960","geometry":{"type":"Point","coordinates":[18.4325668,49.8803325]},"properties":{"osm_type":"node","osm_id":6613003960,"category":"wine_shop","name":"Staroveské centrum vína","tags":{"name":"Staroveské centrum vína","opening_hours":"Mo-Su 08:00-20:00","shop":"wine","website":"https://www.scvina.cz/rubriky/pobocky/-orlova-oc-kaufland-okruzni-1430-autobusove-nadrazi/"}}},{"type":"Feature","id":"node/6657466586","geometry":{"type":"Point","coordinates":[16.8184688,48.897366]},"properties":{"osm_type":"node","osm_id":6657466586,"category":"wine_shop","name":"Vinařství Baloun","tags":{"name":"Vinařství Baloun","opening_hours":"Mo-Fr 07:00-15:30","shop":"wine"}}},{"type":"Feature","id":"node/6657704185","geometry":{"type":"Point","coordinates":[16.8187274,48.895725]},"properties":{"osm_type":"node","osm_id":6657704185,"category":"wine_shop","name":"Vinařství Zborovský","tags":{"name":"Vinařství Zborovský","shop":"wine"}}},{"type":"Feature","id":"node/6677155486","geometry":{"type":"Point","coordinates":[16.6390733,49.3600096]},"properties":{"osm_type":"node","osm_id":6677155486,"category":"wine_shop","name":"VinárnaStarák","tags":{"name":"VinárnaStarák","shop":"wine"}}},{"type":"Feature","id":"node/6682101153","geometry":{"type":"Point","coordinates":[16.6386227,48.8098631]},"properties":{"osm_type":"node","osm_id":6682101153,"category":"wine_shop","tags":{"shop":"wine"}}},{"type":"Feature","id":"node/6682101154","geometry":{"type":"Point","coordinates":[16.6386412,48.8102216]},"properties":{"osm_type":"node","osm_id":6682101154,"category":"wine_shop","tags":{"shop":"wine"}}},{"type":"Feature","id":"node/6682174223","geometry":{"type":"Point","coordinates":[16.6505032,48.8123754]},"properties":{"osm_type":"node","osm_id":6682174223,"category":"wine_shop","tags":{"shop":"wine"}}},{"type":"Feature","id":"node/6697032120","geometry":{"type":"Point","coordinates":[16.5818622,49.169788]},"properties":{"osm_type":"node","osm_id":6697032120,"category":"wine_shop","name":"Vinotéka Transvín","tags":{"name":"Vinotéka Transvín","opening_hours":"Mo-Fr 10:00-12:00,13:00-20:00; Sa 09:00-12:00","shop":"wine"}}},{"type":"Feature","id":"node/6702971421","geometry":{"type":"Point","coordinates":[14.4421492,50.0775419]},"properties":{"osm_type":"node","osm_id":6702971421,"category":"wine_shop","name":"Assaggio","tags":{"addr:city":"Praha 2","addr:housenumber":"40","addr:postcode":"12000","addr:street":"Budečská","name":"Assaggio","opening_hours":"Mo-Su 16:00-24:00","shop":"wine"}}},{"type":"Feature","id":"node/6723012812","geometry":{"type":"Point","coordinates":[14.4696299,50.3527206]},"properties":{"osm_type":"node","osm_id":6723012812,"category":"wine_shop","tags":{"shop":"wine"}}},{"type":"Feature","id":"node/6726096441","geometry":{"type":"Point","coordinates":[17.0205095,48.8621156]},"properties":{"osm_type":"node","osm_id":6726096441,"category":"winery","name":"Bojanovské búdy, s.r.o.","tags":{"addr:city":"Dolní Bojanovice","addr:housenumber":"995","addr:postcode":"69617","addr:street":"Vinařská","craft":"winery","email":"info@bojanovskebudy.cz","name":"Bojanovské búdy, s.r.o.","operator":"Bojanovské búdy, s.r.o.","phone":"+420 721 662 976","website":"https://www.bojanovskebudy.cz/"}}},{"type":"Feature","id":"node/6726096443","geometry":{"type":"Point","coordinates":[17.0192051,48.8616966]},"properties":{"osm_type":"node","osm_id":6726096443,"category":"winery","name":"Vinařství Blažek","tags":{"craft":"winery","email":"vinarstvi.blazek@seznam.cz","name":"Vinařství Blažek","operator":"Antonín Blažek","phone":"+420 775 955 255","website":"https://www.vinarstvi-blazek.cz/"}}},{"type":"Feature","id":"node/6726096444","geometry":{"type":"Point","coordinates":[17.0204164,48.8619687]},"properties":{"osm_type":"node","osm_id":6726096444,"category":"winery","name":"Vinařství Šebesta","tags":{"craft":"winery","email":"eliskasebestova@seznam.cz","name":"Vinařství Šebesta","opening_hours":"Mo-Fr 08:00-17:00","operator":"Pavel Šebesta","phone":"+420 733 566 867","website":"https://www.vinosebesta.cz/"}}},{"type":"Feature","id":"node/6726143753","geometry":{"type":"Point","coordinates":[17.0182567,48.8611345]},"properties":{"osm_type":"node","osm_id":6726143753,"category":"winery","name":"Bojanovský sklep U Kaňů","tags":{"craft":"winery","email":"martin@bojanovskysklep.cz","name":"Bojanovský sklep U Kaňů","operator":"Martin Kaňa","phone":"+420 777 654 001"}}},{"type":"Feature","id":"node/6726143754","geometry":{"type":"Point","coordinates":[17.0201277,48.8621296]},"properties":{"osm_type":"node","osm_id":6726143754,"category":"winery","name":"Vinný sklep Černý","tags":{"craft":"winery","email":"sklep.cerny@seznam.cz","name":"Vinný sklep Černý","phone":"+420 723 023 353"}}},{"type":"Feature","id":"node/6815775453","geometry":{"type":"Point","coordinates":[14.0146145,50.429969]},"properties":{"osm_type":"node","osm_id":6815775453,"category":"wine_shop","name":"Johann W","tags":{"name":"Johann W","shop":"wine"}}},{"type":"Feature","id":"node/6821873185","geometry":{"type":"Point","coordinates":[16.5421983,49.1631506]},"properties":{"osm_type":"node","osm_id":6821873185,"category":"wine_shop","name":"Vinotéka","tags":{"name":"Vinotéka","shop":"wine"}}},{"type":"Feature","id":"node/6834749624","geometry":{"type":"Point","coordinates":[16.6753166,48.8737118]},"properties":{"osm_type":"node","osm_id":6834749624,"category":"wine_cellar","name":"Vinárna U Bednářů","tags":{"addr:city":"Pavlov","addr:housenumber":"218","addr:postcode":"69201","addr:street":"Družstevní","amenity":"restaurant","cuisine":"regional;wine","name":"Vinárna U Bednářů","opening_hours":"Jul,Aug: Mo-Sa 17:00-23:00; Apr-Jun,Sep-Nov: We-Sa 17:00-22:00; Feb,Mar: Sa,Su 17:00-22:00","phone":"+420519515110","tourism":"wine_cellar","website":"https://www.penzionubednaru.cz/","wheelchair":"limited"}}},{"type":"Feature","id":"node/6901065830","geometry":{"type":"Point","coordinates":[14.468134,50.3545912]},"properties":{"osm_type":"node","osm_id":6901065830,"category":"winery","name":"Bettina Lobkowicz Vinařství","tags":{"craft":"winery","name":"Bettina Lobkowicz Vinařství","operator":"Bettina Lobkowicz s.r.o","phone":"+420 315 622 108","website":"https://www.lobkowicz-vinarstvi.cz/"}}},{"type":"Feature","id":"node/6929445730","geometry":{"type":"Point","coordinates":[16.7569682,48.7397733]},"properties":{"osm_type":"node","osm_id":6929445730,"category":"wine_cellar","name":"Zámecký sklep A.D. 1430","tags":{"addr:city":"Valtice","addr:housenumber":"1","addr:postcode":"69142","addr:street":"Zámek","email":"sekretariat@vsvaltice.cz","name":"Zámecký sklep A.D. 1430","opening_hours":"May-Jun,Sep: Sa-Su 10:00-18:00; Jul-Aug: 10:00-18:00; Oct: Sa-Su \"call us\"","operator":"CHÂTEAU VALTICE - Vinné sklepy Valtice, a. s.","phone":"+420 606 309 959","shop":"wine","tourism":"wine_cellar","website":"https://www.vsvaltice.cz/vinne-sklepy/zamecky-sklep-a-d-1430/"}}},{"type":"Feature","id":"node/6929534516","geometry":{"type":"Point","coordinates":[16.7556092,48.7395084]},"properties":{"osm_type":"node","osm_id":6929534516,"category":"wine_shop","name":"Salon vín České republiky","tags":{"addr:city":"Valtice","addr:housenumber":"1","addr:postcode":"69142","addr:street":"Zámek","email":"salonvin@vinarskecentrum.cz","name":"Salon vín České republiky","opening_hours":"Oct-May: Tu-Th 09:30-17:00, Fr-Sa 10:30-18:00; Jun-Sep: Tu-Th 09:30-17:00, Fr-Sa 10:30-18:00, Su 10:30-17:00","phone":"+420 606 028 574","shop":"wine","website":"https://www.vinarskecentrum.cz/"}}},{"type":"Feature","id":"node/6964537332","geometry":{"type":"Point","coordinates":[16.897958,48.8596992]},"properties":{"osm_type":"node","osm_id":6964537332,"category":"wine_cellar","name":"Vinotéka u staré hrušky","tags":{"name":"Vinotéka u staré hrušky","tourism":"wine_cellar"}}},{"type":"Feature","id":"node/6966391170","geometry":{"type":"Point","coordinates":[16.6241424,48.8354261]},"properties":{"osm_type":"node","osm_id":6966391170,"category":"wine_shop","name":"Vinařský dům Gala","tags":{"addr:city":"Bavory","addr:housenumber":"158","addr:postcode":"69201","addr:street":"Bavory","email":"alzbeta@galavinarstvi.cz","name":"Vinařský dům Gala","phone":"+420 603 570 013","shop":"wine","tourism":"guest_house","website":"https://www.galavinarstvi.cz/"}}},{"type":"Feature","id":"node/6966391171","geometry":{"type":"Point","coordinates":[16.6252019,48.8380778]},"properties":{"osm_type":"node","osm_id":6966391171,"category":"winery","name":"Gala Vinařství","tags":{"addr:city":"Bavory","addr:housenumber":"172","addr:postcode":"69201","addr:street":"Bavory","craft":"winery","email":"info@galavinarstvi.cz","name":"Gala Vinařství","phone":"+420 603 570 013","shop":"wine","website":"https://www.galavinarstvi.cz/"}}},{"type":"Feature","id":"node/6966452462","geometry":{"type":"Point","coordinates":[16.67659,48.8757528]},"properties":{"osm_type":"node","osm_id":6966452462,"category":"winery","name":"Vinařství Plenér","tags":{"addr:city":"Pavlov","addr:housenumber":"94","addr:postcode":"69201","addr:street":"23. dubna","craft":"winery","email":"dominika@vinarstviplener.cz","name":"Vinařství Plenér","phone":"+420 774 109 486","shop":"wine","tourism":"wine_cellar","website":"https://www.vinarstviplener.cz/cs/"}}},{"type":"Feature","id":"node/6966801805","geometry":{"type":"Point","coordinates":[16.6933769,48.927443]},"properties":{"osm_type":"node","osm_id":6966801805,"category":"winery","name":"Vinařství Sonberk","tags":{"addr:city":"Popice","addr:housenumber":"393","addr:postcode":"69127","addr:street":"Sonberk","craft":"winery","email":"sonberk@sonberk.cz","name":"Vinařství Sonberk","opening_hours":"Mar-Nov Su-Th 10:00-18:00; Mar-Nov Fr,Sa 10:00-20:00","operator":"Sonberk a.s.","phone":"+420 777 630 434","website":"https://www.sonberk.cz/cs/"}}},{"type":"Feature","id":"node/6967027711","geometry":{"type":"Point","coordinates":[16.908574,48.8569189]},"properties":{"osm_type":"node","osm_id":6967027711,"category":"winery","name":"Malý vinař","tags":{"addr:city":"Velké Bílovice","addr:housenumber":"1465","addr:postcode":"69102","addr:street":"Sadová","craft":"winery","email":"malyvinar@slunce.cz","name":"Malý vinař","opening_hours":"Mo-Fr 07:00-15:30","operator":"Hana Mádlová","phone":"+420 774 243 457","shop":"wine","website":"https://malyvinar.com/","wheelchair":"yes"}}},{"type":"Feature","id":"node/6968568698","geometry":{"type":"Point","coordinates":[16.6682473,48.8755]},"properties":{"osm_type":"node","osm_id":6968568698,"category":"winery","name":"Sklep Padesatosm","tags":{"addr:city":"Pavlov","addr:housenumber":"58","addr:postcode":"69201","addr:street":"Na Cimbuří","craft":"winery","email":"info@padesatosm.cz","name":"Sklep Padesatosm","phone":"+420 739 634 311","website":"https://www.padesatosm.cz/"}}},{"type":"Feature","id":"node/6968568699","geometry":{"type":"Point","coordinates":[16.6676161,48.8754171]},"properties":{"osm_type":"node","osm_id":6968568699,"category":"winery","name":"Vinařství Vajay","tags":{"addr:city":"Pavlov","addr:housenumber":"53","addr:postcode":"69201","addr:street":"Na Cimbuří","craft":"winery","email":"valentin.vajay@centrum.cz","name":"Vinařství Vajay","phone":"+420 777 817 618"}}},{"type":"Feature","id":"node/6968568700","geometry":{"type":"Point","coordinates":[16.6672158,48.875427]},"properties":{"osm_type":"node","osm_id":6968568700,"category":"winery","name":"Vinařství Paulus","tags":{"addr:city":"Pavlov","addr:housenumber":"159","addr:postcode":"69201","addr:street":"Na Cimbuří","craft":"winery","email":"obchod@vinarstvipaulus.cz","name":"Vinařství Paulus","operator":"Vinařství Paulus s.r.o.","phone":"+420775262008","shop":"wine","tourism":"wine_cellar","website":"https://www.vinarstvipaulus.cz/","wheelchair":"yes"}}},{"type":"Feature","id":"node/6968568703","geometry":{"type":"Point","coordinates":[16.6768532,48.8765866]},"properties":{"osm_type":"node","osm_id":6968568703,"category":"wine_shop","name":"Sousedi Pavlov","tags":{"addr:city":"Pavlov","addr:housenumber":"30","addr:postcode":"69201","addr:street":"23. dubna","amenity":"cafe","cuisine":"coffee_shop;cake;wine;tapas","email":"info@sousedipavlov.cz","name":"Sousedi Pavlov","phone":"+420 606 288 678","shop":"wine","website":"https://www.sousedipavlov.cz/","wheelchair":"yes"}}},{"type":"Feature","id":"node/6968916338","geometry":{"type":"Point","coordinates":[16.6664941,48.8715431]},"properties":{"osm_type":"node","osm_id":6968916338,"category":"winery","name":"Abrle Biovíno","tags":{"addr:city":"Pavlov","addr:housenumber":"191","addr:postcode":"69201","addr:street":"Rudolfa Gajdoše","craft":"winery","email":"josef.abrle@bio-produkty.cz","name":"Abrle Biovíno","phone":"+420 604 579 736","website":"https://www.bio-produkty.cz/index.php/cs/"}}},{"type":"Feature","id":"node/6968916339","geometry":{"type":"Point","coordinates":[16.6663647,48.871384]},"properties":{"osm_type":"node","osm_id":6968916339,"category":"winery","name":"Vinařství Jiří Šilinek","tags":{"addr:city":"Pavlov","addr:housenumber":"192","addr:postcode":"69201","addr:street":"Rudolfa Gajdoše","craft":"winery","email":"silinek@silinek.eu","name":"Vinařství Jiří Šilinek","phone":"+420 519 515 395","website":"https://www.silinek.eu/"}}},{"type":"Feature","id":"node/6968916340","geometry":{"type":"Point","coordinates":[16.6691907,48.8748723]},"properties":{"osm_type":"node","osm_id":6968916340,"category":"wine_cellar","name":"Jirkův sklep","tags":{"addr:city":"Pavlov","addr:housenumber":"210","addr:postcode":"69201","addr:street":"Česká","email":"lenkasilinkova@seznam.cz","name":"Jirkův sklep","opening_hours":"Jul,Aug: Mo-Su 17:00-22:00","phone":"+420 606 700 786","shop":"wine","tourism":"wine_cellar","website":"http://www.jirkuvsklep.cz/"}}},{"type":"Feature","id":"node/6969091437","geometry":{"type":"Point","coordinates":[16.6708086,48.8744701]},"properties":{"osm_type":"node","osm_id":6969091437,"category":"winery","name":"Vinařství Přátelé Pavlova","tags":{"addr:city":"Pavlov","addr:housenumber":"49","addr:postcode":"69201","addr:street":"Na Návsi","craft":"winery","email":"pavel@pritelpavlova.cz","name":"Vinařství Přátelé Pavlova","operator":"Přátelé Pavlova, s.r.o.","phone":"+420 602 500 266","shop":"wine","website":"https://www.pratelepavlova.cz/"}}},{"type":"Feature","id":"node/6969091438","geometry":{"type":"Point","coordinates":[16.6673719,48.8733772]},"properties":{"osm_type":"node","osm_id":6969091438,"category":"winery","name":"Přátelé Pavlova - vinný sklep","tags":{"addr:city":"Pavlov","addr:housenumber":"37","addr:postcode":"69201","addr:street":"Vinařská","craft":"winery","email":"pavel@pritelpavlova.cz","name":"Přátelé Pavlova - vinný sklep","operator":"Přátelé Pavlova, s.r.o.","phone":"+420 602 500 266","tourism":"wine_cellar","website":"https://www.pratelepavlova.cz/"}}},{"type":"Feature","id":"node/6970828623","geometry":{"type":"Point","coordinates":[16.6688864,48.8743478]},"properties":{"osm_type":"node","osm_id":6970828623,"category":"winery","name":"Vinařství Nepraš & Co.","tags":{"addr:city":"Pavlov","addr:housenumber":"187","addr:postcode":"69201","addr:street":"Česká","craft":"winery","email":"info@vinarstvinepras.cz","name":"Vinařství Nepraš & Co.","phone":"+420 775 605 783","shop":"wine","tourism":"wine_cellar","website":"http://vinarstvinepras.cz/"}}},{"type":"Feature","id":"node/6971011045","geometry":{"type":"Point","coordinates":[16.8821539,48.9331463]},"properties":{"osm_type":"node","osm_id":6971011045,"category":"winery","name":"Vína Herzánovi","tags":{"addr:city":"Kobylí","addr:housenumber":"562","addr:postcode":"69110","addr:street":"Kobylí","craft":"winery","email":"obchod@vinarstviherzanovi.eu","name":"Vína Herzánovi","phone":"+420 728 089 396","shop":"wine","website":"https://www.vinaherzanovi.cz/"}}},{"type":"Feature","id":"node/6971053254","geometry":{"type":"Point","coordinates":[17.1516798,48.9278052]},"properties":{"osm_type":"node","osm_id":6971053254,"category":"wine_shop","name":"Vinařství sv. Barbora","tags":{"addr:city":"Ratíškovice","addr:housenumber":"502","addr:postcode":"69602","addr:street":"Baťovka","email":"info@vinobarbora.cz","name":"Vinařství sv. Barbora","operator":"Vinařství sv. Barbora, s.r.o.","phone":"+420 606 710 166","shop":"wine","website":"https://www.vinobarbora.cz/"}}},{"type":"Feature","id":"node/6971061377","geometry":{"type":"Point","coordinates":[16.0558346,48.8261277]},"properties":{"osm_type":"node","osm_id":6971061377,"category":"winery","name":"Vinařství Špalek","tags":{"addr:city":"Nový Šaldorf-Sedlešovice","addr:housenumber":"104","addr:postcode":"67181","addr:street":"Nový Šaldorf-Sedlešovice","craft":"winery","email":"vino@spalek.bio","name":"Vinařství Špalek","opening_hours":"Mo-Fr 08:00-14:00","phone":"+420 515 243 802","website":"https://www.spalek.bio/spalek/"}}},{"type":"Feature","id":"node/6971095375","geometry":{"type":"Point","coordinates":[16.7255327,48.9337251]},"properties":{"osm_type":"node","osm_id":6971095375,"category":"winery","name":"Vinařství Fabig","tags":{"addr:city":"Hustopeče","addr:housenumber":"1411/37c","addr:postcode":"69301","addr:street":"Nádražní","craft":"winery","email":"info@fabig.cz","name":"Vinařství Fabig","operator":"FABIG s.r.o.","phone":"+420 608 522 480","shop":"wine","website":"https://www.fabig.cz/"}}},{"type":"Feature","id":"node/6971189805","geometry":{"type":"Point","coordinates":[16.8209104,48.9350157]},"properties":{"osm_type":"node","osm_id":6971189805,"category":"winery","name":"Víno J. Stávek","tags":{"addr:city":"Němčičky","addr:housenumber":"176","addr:postcode":"69107","addr:street":"Němčičky","craft":"winery","email":"alena@jstavek.cz","name":"Víno J. Stávek","opening_hours":"Mo-Fr 08:00-16:00","operator":"Ing. Jan Stávek, Ph.D.","phone":"+420 777 906 991","shop":"wine","tourism":"wine_cellar","website":"http://www.jstavek.cz/"}}},{"type":"Feature","id":"node/6971727741","geometry":{"type":"Point","coordinates":[16.6690248,48.8754065]},"properties":{"osm_type":"node","osm_id":6971727741,"category":"wine_cellar","name":"Sekt bar","tags":{"addr:city":"Pavlov","addr:housenumber":"252","addr:postcode":"69201","addr:street":"Česká","amenity":"restaurant","cuisine":"coffee_shop;tapas;cake;sandwich;wine","email":"info@sektbarpavlov.cz","name":"Sekt bar","opening_hours":"Th 16:00-22:00; Fr 16:00-23:00; Sa 15:00-23:00; Su 15:00-22:00","operator":"Pálavská sektárna Pavlov,s.r.o.","phone":"+420 604 406 552","shop":"wine","tourism":"wine_cellar","website":"http://sektbarpavlov.cz/"}}},{"type":"Feature","id":"node/6972711460","geometry":{"type":"Point","coordinates":[16.666087,48.8718214]},