{"type":"FeatureCollection","features":[{"type":"Feature","id":"node/296482466","geometry":{"type":"Point","coordinates":[14.43102,50.08602]},"properties":{"osm_type":"node","osm_id":296482466,"category":"wine_shop","name":"Vinoshop","tags":{"addr:city":"Praha 1","addr:housenumber":"1464/6","addr:postcode":"11000","addr:street":"Senovážné náměstí","name":"Vinoshop","shop":"wine"}}},{"type":"Feature","id":"node/321975638","geometry":{"type":"Point","coordinates":[16.81873,48.90054]},"properties":{"osm_type":"node","osm_id":321975638,"category":"wine_shop","tags":{"shop":"wine"}}},{"type":"Feature","id":"node/403654641","geometry":{"type":"Point","coordinates":[16.64435,49.36442]},"properties":{"osm_type":"node","osm_id":403654641,"category":"wine_shop","name":"Prodejna vín a sýrů „z jihu!“","tags":{"addr:city":"Blansko","addr:country":"CZ","addr:housenumber":"13/9","addr:postcode":"67801","addr:street":"nám. Svobody","name":"Prodejna vín a sýrů „z jihu!“","opening_hours":"Mo-Su 08:00-20:00","operator":"Michal Brázda","phone":"602 516 928","shop":"wine","website":"https://www.ubrazdu.cz/","wheelchair":"yes"}}},{"type":"Feature","id":"node/756723336","geometry":{"type":"Point","coordinates":[14.31658,48.81181]},"properties":{"osm_type":"node","osm_id":756723336,"category":"winery","name":"Klika","tags":{"addr:city":"Český Krumlov","addr:country":"CZ","addr:housenumber":"13","addr:postcode":"38101","addr:street":"Latrán","craft":"winery","name":"Klika"}}},{"type":"Feature","id":"node/1008232213","geometry":{"type":"Point","coordinates":[14.30766,50.06508]},"properties":{"osm_type":"node","osm_id":1008232213,"category":"wine_shop","name":"Wine Bar Fénix","tags":{"name":"Wine Bar Fénix","opening_hours":"Mo-Su 11:00-21:00","shop":"wine"}}},{"type":"Feature","id":"node/1014336509","geometry":{"type":"Point","coordinates":[16.05051,48.85661]},"properties":{"osm_type":"node","osm_id":1014336509,"category":"wine_shop","name":"Znovín Znojmo","tags":{"name":"Znovín Znojmo","shop":"wine"}}},{"type":"Feature","id":"node/1057868145","geometry":{"type":"Point","coordinates":[16.3988,49.97393]},"properties":{"osm_type":"node","osm_id":1057868145,"category":"wine_shop","tags":{"shop":"wine"}}},{"type":"Feature","id":"node/1132146760","geometry":{"type":"Point","coordinates":[17.25507,49.59197]},"properties":{"osm_type":"node","osm_id":1132146760,"category":"wine_shop","name":"Vinotéka U Tří bratří","tags":{"name":"Vinotéka U Tří bratří","opening_hours":"Mo-Fr 11:00-22:00; Sa 11:00-21:00","shop":"wine"}}},{"type":"Feature","id":"node/1172394325","geometry":{"type":"Point","coordinates":[14.45035,49.78088]},"properties":{"osm_type":"node","osm_id":1172394325,"category":"winery","name":"Andrago Winery","tags":{"addr:country":"CZ","addr:housenumber":"26","addr:postcode":"25744","craft":"winery","name":"Andrago Winery","website":"http://www.andrago.cz"}}},{"type":"Feature","id":"node/1192913681","geometry":{"type":"Point","coordinates":[16.82067,48.89754]},"properties":{"osm_type":"node","osm_id":1192913681,"category":"winery","name":"Vinium a.s. - výroba vína","tags":{"addr:country":"CZ","addr:housenumber":"666/2","addr:postcode":"69106","addr:street":"Hlavní","craft":"winery","name":"Vinium a.s. - výroba vína"}}},{"type":"Feature","id":"node/1192913692","geometry":{"type":"Point","coordinates":[16.81793,48.90299]},"properties":{"osm_type":"node","osm_id":1192913692,"category":"winery","name":"Rodinné vinařství Krejčiřík","tags":{"addr:country":"CZ","addr:housenumber":"36/67","addr:postcode":"69106","addr:street":"Hlavní","craft":"winery","name":"Rodinné vinařství Krejčiřík","website":"https://www.vinarstvikrejcirik.cz/?v=928568b84963"}}},{"type":"Feature","id":"node/1216266552","geometry":{"type":"Point","coordinates":[16.78881,48.80165]},"properties":{"osm_type":"node","osm_id":1216266552,"category":"winery","name":"Annovino Vinařství Lednice","tags":{"addr:country":"CZ","addr:housenumber":"714","addr:postcode":"69144","addr:street":"Nejdecká","craft":"winery","name":"Annovino Vinařství Lednice"}}},{"type":"Feature","id":"node/1218537407","geometry":{"type":"Point","coordinates":[16.90799,48.85629]},"properties":{"osm_type":"node","osm_id":1218537407,"category":"wine_shop","name":"Vinařství Stanislav Mádl","tags":{"addr:city":"Velké Bílovice","addr:country":"CZ","addr:housenumber":"ev.646;656","addr:postcode":"69102","addr:street":"Sadová","email":"madl@vasvinar.cz","name":"Vinařství Stanislav Mádl","opening_hours":"Mo-Sa 08:00-18:00; Su 08:00-12:00","operator":"Stanislav Mádl","phone":"+420 725 950 970","shop":"wine","website":"https://vasvinar.cz/vinarstvi","wheelchair":"yes"}}},{"type":"Feature","id":"node/1219767746","geometry":{"type":"Point","coordinates":[16.61897,49.21082]},"properties":{"osm_type":"node","osm_id":1219767746,"category":"winery","name":"Dodna","tags":{"addr:city":"Brno","addr:housenumber":"5","addr:postcode":"61300","addr:street":"Zemědělská","amenity":"pub","craft":"winery","name":"Dodna","opening_hours":"Mo 11:00-19:00; Tu-Th 11:00-18:00; Fr 11:00-17:00"}}},{"type":"Feature","id":"node/1261026209","geometry":{"type":"Point","coordinates":[14.47413,50.10349]},"properties":{"osm_type":"node","osm_id":1261026209,"category":"wine_shop","name":"Kavino","tags":{"name":"Kavino","opening_hours":"Mo-Fr 09:00-21:00; Sa,Su 12:00-21:00","shop":"wine"}}},{"type":"Feature","id":"node/1278483776","geometry":{"type":"Point","coordinates":[14.45098,50.12727]},"properties":{"osm_type":"node","osm_id":1278483776,"category":"wine_shop","name":"Pohoda","tags":{"name":"Pohoda","opening_hours":"15:00-22:00","shop":"wine"}}},{"type":"Feature","id":"node/1359816919","geometry":{"type":"Point","coordinates":[14.33625,50.34322]},"properties":{"osm_type":"node","osm_id":1359816919,"category":"winery","name":"Jeviněvské vinařství","tags":{"addr:city":"Jeviněves","addr:country":"CZ","addr:housenumber":"37","addr:postcode":"27705","craft":"winery","name":"Jeviněvské vinařství","opening_hours":"Mo-Su 17:00-18:00","operator":"Štěpán Sedlák","website":"http://www.jevinevske-vinarstvi.cz"}}},{"type":"Feature","id":"node/1420244901","geometry":{"type":"Point","coordinates":[16.61084,49.20454]},"properties":{"osm_type":"node","osm_id":1420244901,"category":"wine_shop","name":"Vinná galerie","tags":{"addr:city":"Brno","addr:housenumber":"16","addr:postcode":"60200","addr:street":"Lužánecká","amenity":"bar","email":"info@vinnagalerie.cz","name":"Vinná galerie","opening_hours":"Mo-Fr 14:00-21:00; Sa 15:00-21:00","phone":"+420 545 210 133","shop":"wine","website":"https://www.vinnagalerie.cz/","wheelchair":"no"}}},{"type":"Feature","id":"node/1446626046","geometry":{"type":"Point","coordinates":[14.42932,50.07585]},"properties":{"osm_type":"node","osm_id":1446626046,"category":"wine_shop","name":"Silver Tap","tags":{"addr:housenumber":"1787/1","addr:street":"náměstí I. P. Pavlova","name":"Silver Tap","opening_hours":"Mo-Th 11:00-23:00; Fr-Sa 11:00-24:00","shop":"wine","wheelchair":"limited"}}},{"type":"Feature","id":"node/1478197761","geometry":{"type":"Point","coordinates":[14.67206,49.41133]},"properties":{"osm_type":"node","osm_id":1478197761,"category":"wine_shop","name":"Moravěnka","tags":{"name":"Moravěnka","shop":"wine"}}},{"type":"Feature","id":"node/1494661552","geometry":{"type":"Point","coordinates":[14.4003,50.09946]},"properties":{"osm_type":"node","osm_id":1494661552,"category":"wine_shop","name":"Špek a víno","tags":{"addr:housenumber":"502/14","addr:postcode":"160 00","addr:street":"V. P. Čkalova","email":"info@spekavino.cz","name":"Špek a víno","opening_hours":"Mo-Su 15:00-23:00","phone":"+420777 050 214","shop":"wine","website":"https://www.spekavino.cz/"}}},{"type":"Feature","id":"node/1597529430","geometry":{"type":"Point","coordinates":[16.59037,49.22716]},"properties":{"osm_type":"node","osm_id":1597529430,"category":"wine_shop","name":"Moravská Vinotéka","tags":{"name":"Moravská Vinotéka","opening_hours":"Mo-Fr 14:00-20:00, Th,Sa 10:00-12:00","phone":"+420  549 212 680","shop":"wine","website":"http://www.moravska-vinoteka.cz","wheelchair":"no"}}},{"type":"Feature","id":"node/1641882184","geometry":{"type":"Point","coordinates":[17.08046,49.4731]},"properties":{"osm_type":"node","osm_id":1641882184,"category":"wine_shop","tags":{"shop":"wine"}}},{"type":"Feature","id":"node/1756492780","geometry":{"type":"Point","coordinates":[18.76386,49.57605]},"properties":{"osm_type":"node","osm_id":1756492780,"category":"wine_shop","name":"Vinogalerie","tags":{"name":"Vinogalerie","shop":"wine"}}},{"type":"Feature","id":"node/1759376295","geometry":{"type":"Point","coordinates":[18.35016,49.67897]},"properties":{"osm_type":"node","osm_id":1759376295,"category":"wine_shop","name":"Vínostyl","tags":{"addr:country":"CZ","addr:housenumber":"2110","addr:postcode":"73801","addr:street":"Na Poříčí","name":"Vínostyl","opening_hours":"Mo-Fr 08:30-12:00,12:30-17:30; Sa 08:30-12:00","shop":"wine"}}},{"type":"Feature","id":"node/1792845839","geometry":{"type":"Point","coordinates":[18.68064,49.66404]},"properties":{"osm_type":"node","osm_id":1792845839,"category":"wine_shop","name":"Takže Jakže","tags":{"addr:country":"CZ","addr:housenumber":"796","addr:postcode":"73961","addr:street":"Dukelská","cuisine":"european;spanish;czech","email":"takzejakze@email.cz","name":"Takže Jakže","opening_hours":"Mo-Th 08:00-13:00,16:00-20:00; Fr 08:00-13:00,16:00-22:30; Sa 09:00-13:00; Su off","phone":"+420771141791","shop":"wine","website":"https://www.takzejakze.cz/"}}},{"type":"Feature","id":"node/1802249313","geometry":{"type":"Point","coordinates":[16.16168,50.29151]},"properties":{"osm_type":"node","osm_id":1802249313,"category":"wine_shop","tags":{"shop":"wine"}}},{"type":"Feature","id":"node/1822620942","geometry":{"type":"Point","coordinates":[16.63137,49.40797]},"properties":{"osm_type":"node","osm_id":1822620942,"category":"wine_shop","name":"U Beldy","tags":{"name":"U Beldy","shop":"wine"}}},{"type":"Feature","id":"node/2021509300","geometry":{"type":"Point","coordinates":[14.55928,50.9515]},"properties":{"osm_type":"node","osm_id":2021509300,"category":"wine_bar","name":"VinotekaRumburk.cz","tags":{"addr:city":"Rumburk","addr:country":"CZ","addr:housenumber":"104/9","addr:postcode":"40801","addr:street":"Náměstí Lužické","amenity":"bar","cuisine":"wine","name":"VinotekaRumburk.cz","opening_hours":"Mo-Fr 08:00-17:00"}}},{"type":"Feature","id":"node/2165349270","geometry":{"type":"Point","coordinates":[17.31454,48.90113]},"properties":{"osm_type":"node","osm_id":2165349270,"category":"wine_shop","tags":{"shop":"wine"}}},{"type":"Feature","id":"node/2165842769","geometry":{"type":"Point","coordinates":[15.94199,49.56943]},"properties":{"osm_type":"node","osm_id":2165842769,"category":"wine_shop","name":"Vinotéka U Hada","tags":{"name":"Vinotéka U Hada","opening_hours":"13:00-22:00; Fr,Sa 13:00-23:00","shop":"wine"}}},{"type":"Feature","id":"node/2229062930","geometry":{"type":"Point","coordinates":[17.12889,49.00605]},"properties":{"osm_type":"node","osm_id":2229062930,"category":"wine_shop","name":"Vinotéka","tags":{"addr:housenumber":"912","addr:postcode":"69701","addr:street":"Vrchlického","name":"Vinotéka","shop":"wine"}}},{"type":"Feature","id":"node/2277133336","geometry":{"type":"Point","coordinates":[16.88222,49.20327]},"properties":{"osm_type":"node","osm_id":2277133336,"category":"wine_shop","name":"Vinoteka na namesti","tags":{"addr:housenumber":"40","addr:postcode":"683 01","addr:street":"Sušilovo náměstí","name":"Vinoteka na namesti","opening_hours":"Mo-Fr 09:00-12:00,13:00-17:00; Sa 08:00-11:00","shop":"wine"}}},{"type":"Feature","id":"node/2278260106","geometry":{"type":"Point","coordinates":[16.64308,49.18764]},"properties":{"osm_type":"node","osm_id":2278260106,"category":"wine_shop","name":"Vinotéka","tags":{"name":"Vinotéka","opening_hours":"Mo-Sa 10:00-20:00; Su 14:00-19:00","shop":"wine","wheelchair":"yes"}}},{"type":"Feature","id":"node/2286002968","geometry":{"type":"Point","coordinates":[16.6588,49.20586]},"properties":{"osm_type":"node","osm_id":2286002968,"category":"wine_shop","name":"SimVin","tags":{"name":"SimVin","opening_hours":"Mo-Fr 11:00-20:00; Sa 11:00-20:00; Su 14:00-19:00","shop":"wine"}}},{"type":"Feature","id":"node/2351476510","geometry":{"type":"Point","coordinates":[16.9457,48.90342]},"properties":{"osm_type":"node","osm_id":2351476510,"category":"wine_shop","name":"Templářské sklepy","tags":{"addr:city":"Čejkovice","addr:country":"CZ","addr:housenumber":"945","addr:postcode":"69615","addr:street":"Na Bařině","name":"Templářské sklepy","shop":"wine","website":"https://www.templarske-sklepy.cz/"}}},{"type":"Feature","id":"node/2360567089","geometry":{"type":"Point","coordinates":[17.13957,48.95635]},"properties":{"osm_type":"node","osm_id":2360567089,"category":"winery","name":"Vinařství Krist","tags":{"addr:country":"CZ","addr:housenumber":"123","addr:postcode":"69605","addr:street":"Zámecká","craft":"winery","name":"Vinařství Krist"}}},{"type":"Feature","id":"node/2363230000","geometry":{"type":"Point","coordinates":[17.2056,49.03662]},"properties":{"osm_type":"node","osm_id":2363230000,"category":"winery","name":"Sklepní ulička Drahy","tags":{"craft":"winery","name":"Sklepní ulička Drahy"}}},{"type":"Feature","id":"node/2379491247","geometry":{"type":"Point","coordinates":[14.06508,50.53912]},"properties":{"osm_type":"node","osm_id":2379491247,"category":"winery","name":"Žernosecké vinařství s.r.o.","tags":{"craft":"winery","name":"Žernosecké vinařství s.r.o.","tourism":"wine_cellar"}}},{"type":"Feature","id":"node/2409856155","geometry":{"type":"Point","coordinates":[14.44804,50.07801]},"properties":{"osm_type":"node","osm_id":2409856155,"category":"wine_shop","name":"Pavillon du vin","tags":{"name":"Pavillon du vin","opening_hours":"Mo-Fr 14:00-22:00","shop":"wine"}}},{"type":"Feature","id":"node/2421928932","geometry":{"type":"Point","coordinates":[15.00297,49.14627]},"properties":{"osm_type":"node","osm_id":2421928932,"category":"wine_shop","name":"Vinotéka Vinofol","tags":{"name":"Vinotéka Vinofol","opening_hours":"Tu-Fr 09:00-17:30; Sa 09:00-15:00","shop":"wine"}}},{"type":"Feature","id":"node/2444893715","geometry":{"type":"Point","coordinates":[16.05829,48.84075]},"properties":{"osm_type":"node","osm_id":2444893715,"category":"wine_shop","name":"Znovín Znojmo a.s.","tags":{"addr:city":"Znojmo","addr:housenumber":"3054/23","addr:postcode":"67181","addr:street":"Loucká","name":"Znovín Znojmo a.s.","opening_hours":"Mo-Fr 9:00-18:00; Sa-Su 9:00-12:30, 13:00-18:00","shop":"wine","website":"https://www.znovin.cz/"}}},{"type":"Feature","id":"node/2752792392","geometry":{"type":"Point","coordinates":[16.5377,49.45241]},"properties":{"osm_type":"node","osm_id":2752792392,"category":"wine_shop","name":"Vinotéka Lysice","tags":{"name":"Vinotéka Lysice","opening_hours":"Mo-Th 13:00-19:00; Fr,Sa 10:00-19:00","shop":"wine"}}},{"type":"Feature","id":"node/2785072391","geometry":{"type":"Point","coordinates":[17.10022,48.98714]},"properties":{"osm_type":"node","osm_id":2785072391,"category":"winery","name":"Vinařství Dufek","tags":{"addr:housenumber":"1275/19","addr:postcode":"69604","addr:street":"Pod Sokolovnou","craft":"winery","name":"Vinařství Dufek"}}},{"type":"Feature","id":"node/2785086582","geometry":{"type":"Point","coordinates":[17.15286,49.0351]},"properties":{"osm_type":"node","osm_id":2785086582,"category":"winery","name":"Vinný sklep Krýsa","tags":{"addr:housenumber":"343","addr:postcode":"69651","craft":"winery","name":"Vinný sklep Krýsa","operator":"PARO Trade s. r. o.","phone":"731 178 483","website":"https://www.vesklepe.cz/"}}},{"type":"Feature","id":"node/2805580179","geometry":{"type":"Point","coordinates":[16.61358,49.20485]},"properties":{"osm_type":"node","osm_id":2805580179,"category":"wine_shop","name":"Vinotéka Staré Hory","tags":{"addr:city":"Brno","addr:housenumber":"10","addr:postcode":"60200","addr:street":"Drobného","amenity":"bar","email":"info@starehory.cz","name":"Vinotéka Staré Hory","opening_hours":"Mo-Sa 16:00-21:00","shop":"wine","wheelchair":"no"}}},{"type":"Feature","id":"node/2815527002","geometry":{"type":"Point","coordinates":[16.6067,49.19993]},"properties":{"osm_type":"node","osm_id":2815527002,"category":"wine_shop","name":"Vinotéka Na Moraváku","tags":{"addr:city":"Brno","addr:housenumber":"14b","addr:postcode":"60200","addr:street":"Moravské náměstí","name":"Vinotéka Na Moraváku","opening_hours":"Mo-Su 13:00-21:00","shop":"wine"}}},{"type":"Feature","id":"node/2816604193","geometry":{"type":"Point","coordinates":[16.62751,49.21636]},"properties":{"osm_type":"node","osm_id":2816604193,"category":"wine_shop","name":"Zorba's","tags":{"addr:city":"Brno","addr:housenumber":"216","addr:postcode":"61300","addr:street":"Merhautova","name":"Zorba's","opening_hours":"Mo-Sa 09:00-20:00; Su 16:00-20:00","shop":"wine","wheelchair":"no"}}},{"type":"Feature","id":"node/2822509898","geometry":{"type":"Point","coordinates":[14.4386,50.0724]},"properties":{"osm_type":"node","osm_id":2822509898,"category":"winery","tags":{"craft":"winery"}}},{"type":"Feature","id":"node/2858066493","geometry":{"type":"Point","coordinates":[14.65979,50.07613]},"properties":{"osm_type":"node","osm_id":2858066493,"category":"wine_shop","tags":{"shop":"wine"}}},{"type":"Feature","id":"node/2866070242","geometry":{"type":"Point","coordinates":[16.5994,49.19729]},"properties":{"osm_type":"node","osm_id":2866070242,"category":"wine_shop","tags":{"shop":"wine"}}},{"type":"Feature","id":"node/2913309972","geometry":{"type":"Point","coordinates":[15.98886,50.06872]},"properties":{"osm_type":"node","osm_id":2913309972,"category":"wine_shop","name":"U Pajdy","tags":{"addr:housenumber":"1214","addr:postcode":"53401","addr:street":"Nádražní","name":"U Pajdy","shop":"wine"}}},{"type":"Feature","id":"node/2996895811","geometry":{"type":"Point","coordinates":[16.89963,48.8576]},"properties":{"osm_type":"node","osm_id":2996895811,"category":"winery","name":"Vinarstvi Zapletal","tags":{"addr:city":"Velké Bílovice","addr:housenumber":"ev.602","addr:postcode":"69102","addr:street":"Vinařská","craft":"winery","email":"vinarstvizapletal@email.cz","name":"Vinarstvi Zapletal","opening_hours":"Mo-Sa 08:00-18:00","operator":"Lenka Vítkovičová","phone":"+420 721 426 143","website":"https://www.vinarstvizapletal.cz/"}}},{"type":"Feature","id":"node/2996927582","geometry":{"type":"Point","coordinates":[16.81397,48.90586]},"properties":{"osm_type":"node","osm_id":2996927582,"category":"wine_shop","name":"Vinařství Buchtovi","tags":{"addr:housenumber":"1140/23b","addr:postcode":"69106","addr:street":"Ořechová","name":"Vinařství Buchtovi","shop":"wine","website":"https://www.vinobuchtovi.cz/"}}},{"type":"Feature","id":"node/3088926439","geometry":{"type":"Point","coordinates":[14.499,50.09318]},"properties":{"osm_type":"node","osm_id":3088926439,"category":"wine_shop","name":"Vinofol","tags":{"name":"Vinofol","shop":"wine","website":"https://www.vinofol.cz/"}}},{"type":"Feature","id":"node/3141831129","geometry":{"type":"Point","coordinates":[14.41838,50.11603]},"properties":{"osm_type":"node","osm_id":3141831129,"category":"wine_shop","name":"Vinotéka Trojský sklep","tags":{"name":"Vinotéka Trojský sklep","shop":"wine"}}},{"type":"Feature","id":"node/3155495248","geometry":{"type":"Point","coordinates":[14.41053,50.03995]},"properties":{"osm_type":"node","osm_id":3155495248,"category":"wine_shop","name":"Vína srdcem","tags":{"name":"Vína srdcem","opening_hours":"Mo-Sa 14:00-21:00","shop":"wine","wheelchair":"no"}}},{"type":"Feature","id":"node/3156109229","geometry":{"type":"Point","coordinates":[16.60583,49.20363]},"properties":{"osm_type":"node","osm_id":3156109229,"category":"winery","name":"U Špuntu","tags":{"addr:city":"Brno","addr:housenumber":"51","addr:postcode":"60200","addr:street":"Smetanova","craft":"winery","name":"U Špuntu"}}},{"type":"Feature","id":"node/3237771810","geometry":{"type":"Point","coordinates":[17.16261,49.00354]},"properties":{"osm_type":"node","osm_id":3237771810,"category":"winery","tags":{"craft":"winery"}}},{"type":"Feature","id":"node/3376644439","geometry":{"type":"Point","coordinates":[14.4326,50.09711]},"properties":{"osm_type":"node","osm_id":3376644439,"category":"wine_shop","name":"Depo Vín Praha","tags":{"addr:city":"Praha 7","addr:housenumber":"15","addr:postcode":"17000","addr:street":"Dukelských hrdinů","name":"Depo Vín Praha","operator":"Bettina Lobkowicz Vinařství","phone":"+420 721 961 511","shop":"wine","website":"https://www.lobkowicz-vinarstvi.cz/"}}},{"type":"Feature","id":"node/3386165309","geometry":{"type":"Point","coordinates":[14.06002,49.95654]},"properties":{"osm_type":"node","osm_id":3386165309,"category":"wine_shop","name":"Vinotéka Vinofol","tags":{"addr:city":"Beroun","addr:housenumber":"250","addr:postcode":"26601","addr:street":"Obchodní","name":"Vinotéka Vinofol","shop":"wine"}}},{"type":"Feature","id":"node/3393589171","geometry":{"type":"Point","coordinates":[17.16811,49.53463]},"properties":{"osm_type":"node","osm_id":3393589171,"category":"wine_shop","name":"Vinotéka","tags":{"name":"Vinotéka","shop":"wine"}}},{"type":"Feature","id":"node/3427042700","geometry":{"type":"Point","coordinates":[15.67779,49.30402]},"properties":{"osm_type":"node","osm_id":3427042700,"category":"wine_shop","tags":{"shop":"wine"}}},{"type":"Feature","id":"node/3463129242","geometry":{"type":"Point","coordinates":[15.57877,49.60696]},"properties":{"osm_type":"node","osm_id":3463129242,"category":"wine_shop","name":"Dobrý ročník 33","tags":{"addr:city":"Havlíčkův Brod","addr:housenumber":"52","addr:postcode":"58001","addr:street":"Havlíčkovo náměstí","name":"Dobrý ročník 33","shop":"wine"}}},{"type":"Feature","id":"node/3464728738","geometry":{"type":"Point","coordinates":[14.44663,50.04227]},"properties":{"osm_type":"node","osm_id":3464728738,"category":"wine_shop","name":"Vinotéka Soudek","tags":{"addr:city":"Praha","addr:housenumber":"1357/78","addr:postcode":"14000","addr:street":"Antala Staška","email":"vinosoudek@gmail.com","name":"Vinotéka Soudek","opening_hours":"Mo-Fr 15:00-22:00; Sa-Su off","operator":"Tomáš Linhart","phone":"+420 602277144","shop":"wine","website":"https://www.vinotekasoudek.cz/"}}},{"type":"Feature","id":"node/3467326706","geometry":{"type":"Point","coordinates":[16.61295,49.19415]},"properties":{"osm_type":"node","osm_id":3467326706,"category":"wine_shop","name":"Vinařství a vinotéka","tags":{"addr:city":"Brno","addr:housenumber":"8","addr:postcode":"60200","addr:street":"Novobranská","email":"vydra.vcelarstvi@centrum.cz","name":"Vinařství a vinotéka","opening_hours":"Mo-Fr 08:00-17:00","phone":"+420 734 538 273","shop":"wine","website":"http://www.vydra-vcelarstvi.cz/vydra/Agalerie/dtest.php","wheelchair":"limited"}}},{"type":"Feature","id":"node/3473251723","geometry":{"type":"Point","coordinates":[15.061,50.77025]},"properties":{"osm_type":"node","osm_id":3473251723,"category":"wine_shop","name":"Dům Vína na Šalďáku","tags":{"name":"Dům Vína na Šalďáku","shop":"wine"}}},{"type":"Feature","id":"node/3498313130","geometry":{"type":"Point","coordinates":[16.60969,49.19606]},"properties":{"osm_type":"node","osm_id":3498313130,"category":"wine_shop","name":"Perly vín","tags":{"addr:city":"Brno","addr:housenumber":"8","addr:postcode":"60200","addr:street":"Běhounská","name":"Perly vín","opening_hours":"Mo,Tu,Th 14:00-22:00, We 14:00-24:00; Fr 14:00-24:00, Sa 00:00-01:00,18:00-22:00","shop":"wine","wheelchair":"yes"}}},{"type":"Feature","id":"node/3504639399","geometry":{"type":"Point","coordinates":[15.6667,49.94567]},"properties":{"osm_type":"node","osm_id":3504639399,"category":"wine_shop","name":"Vinotéka Na Cestě","tags":{"name":"Vinotéka Na Cestě","opening_hours":"Mo-Fr 10:00-17:00; Sa 08:30-11:00","operator":"Viktor Juliš","phone":"602263886","shop":"wine"}}},{"type":"Feature","id":"node/3575233097","geometry":{"type":"Point","coordinates":[16.96337,49.97066]},"properties":{"osm_type":"node","osm_id":3575233097,"category":"wine_shop","name":"Archivní vína","tags":{"name":"Archivní vína","shop":"wine"}}},{"type":"Feature","id":"node/3590315332","geometry":{"type":"Point","coordinates":[16.57016,49.21475]},"properties":{"osm_type":"node","osm_id":3590315332,"category":"wine_shop","name":"Sudové víno Réva","tags":{"addr:city":"Brno","addr:housenumber":"70a","addr:postcode":"61600","addr:street":"Horova","name":"Sudové víno Réva","opening_hours":"Tu-Fr 12:00-19:00; Sa-Su 09:00-13:00","operator":"ing. Novák","shop":"wine","wheelchair":"no"}}},{"type":"Feature","id":"node/3592293076","geometry":{"type":"Point","coordinates":[16.67137,48.87463]},"properties":{"osm_type":"node","osm_id":3592293076,"category":"wine_shop","name":"Obecní vinotéka","tags":{"amenity":"pub","name":"Obecní vinotéka","shop":"wine"}}},{"type":"Feature","id":"node/3592293077","geometry":{"type":"Point","coordinates":[16.66886,48.8756]},"properties":{"osm_type":"node","osm_id":3592293077,"category":"wine_cellar","name":"Venuše - Pálavská Galerie Vín","tags":{"addr:city":"Pavlov","addr:housenumber":"252","addr:postcode":"69201","addr:street":"Česká","name":"Venuše - Pálavská Galerie Vín","operator":"Proqin Pavlov s.r.o.","phone":"+420 602 160 996","shop":"wine","tourism":"wine_cellar","website":"http://www.palavskagalerievin.cz/"}}},{"type":"Feature","id":"node/3592293079","geometry":{"type":"Point","coordinates":[16.66774,48.87298]},"properties":{"osm_type":"node","osm_id":3592293079,"category":"wine_cellar","name":"Vinařství Topolanský","tags":{"addr:city":"Pavlov","addr:housenumber":"79","addr:postcode":"69201","addr:street":"Česká","email":"topolanskyvilda@tiscali.cz","name":"Vinařství Topolanský","phone":"+420 724 263 561","shop":"wine","tourism":"wine_cellar","website":"https://www.vinarstvitopolansky.cz/"}}},{"type":"Feature","id":"node/3594111991","geometry":{"type":"Point","coordinates":[15.11812,50.14275]},"properties":{"osm_type":"node","osm_id":3594111991,"category":"wine_shop","name":"Vinotéka U Bílého Lva","tags":{"addr:city":"Poděbrady","addr:country":"CZ","addr:housenumber":"38/16","addr:postcode":"29001","addr:street":"Jiřího náměstí","name":"Vinotéka U Bílého Lva","phone":"+420 602 202 746","shop":"wine"}}},{"type":"Feature","id":"node/3637660055","geometry":{"type":"Point","coordinates":[18.37969,49.79298]},"properties":{"osm_type":"node","osm_id":3637660055,"category":"wine_shop","name":"Vinotéka Marek","tags":{"name":"Vinotéka Marek","opening_hours":"Mo-Fr 10:00-18:00; Sa 08:00-12:00","shop":"wine"}}},{"type":"Feature","id":"node/3646281864","geometry":{"type":"Point","coordinates":[18.18765,49.89765]},"properties":{"osm_type":"node","osm_id":3646281864,"category":"wine_shop","name":"Značkové lihoviny - Moravská vína","tags":{"name":"Značkové lihoviny - Moravská vína","shop":"wine"}}},{"type":"Feature","id":"node/3648646793","geometry":{"type":"Point","coordinates":[18.1881,49.89546]},"properties":{"osm_type":"node","osm_id":3648646793,"category":"wine_shop","name":"Vinotéka Bílská","tags":{"name":"Vinotéka Bílská","shop":"wine"}}},{"type":"Feature","id":"node/3648646811","geometry":{"type":"Point","coordinates":[18.18891,49.89657]},"properties":{"osm_type":"node","osm_id":3648646811,"category":"wine_shop","name":"V&D","tags":{"name":"V&D","opening_hours":"Mo-Fr 08:30-12:00,12:30-17:00; Sa 8:30-11:30","operator":"VD Vinotéky s.r.o.","shop":"wine","website":"https://www.vinoadestilaty.cz/"}}},{"type":"Feature","id":"node/3659451600","geometry":{"type":"Point","coordinates":[15.39088,49.91009]},"properties":{"osm_type":"node","osm_id":3659451600,"category":"wine_shop","tags":{"shop":"wine"}}},{"type":"Feature","id":"node/3667914628","geometry":{"type":"Point","coordinates":[16.63837,48.80787]},"properties":{"osm_type":"node","osm_id":3667914628,"category":"wine_shop","name":"Vinotéka Volařík","tags":{"name":"Vinotéka Volařík","shop":"wine"}}},{"type":"Feature","id":"node/3708296662","geometry":{"type":"Point","coordinates":[16.81603,48.90342]},"properties":{"osm_type":"node","osm_id":3708296662,"category":"wine_shop","name":"Vinařství Zborovský","tags":{"name":"Vinařství Zborovský","opening_hours":"Mo-Fr 08:00-17:00; Sa 09:00-17:00","shop":"wine"}}},{"type":"Feature","id":"node/3719886346","geometry":{"type":"Point","coordinates":[16.59416,49.18894]},"properties":{"osm_type":"node","osm_id":3719886346,"category":"wine_shop","name":"Víno","tags":{"name":"Víno","opening_hours":"Mo-Fr 10:00-18:00; Sa,Su off","shop":"wine"}}},{"type":"Feature","id":"node/3719940014","geometry":{"type":"Point","coordinates":[16.59316,49.19942]},"properties":{"osm_type":"node","osm_id":3719940014,"category":"wine_shop","name":"Vino Art","tags":{"addr:city":"Brno","addr:housenumber":"43","addr:postcode":"60200","addr:street":"Úvoz","name":"Vino Art","shop":"wine"}}},{"type":"Feature","id":"node/3719940017","geometry":{"type":"Point","coordinates":[16.5943,49.19701]},"properties":{"osm_type":"node","osm_id":3719940017,"category":"wine_shop","name":"vinotéka","tags":{"name":"vinotéka","opening_hours":"Mo-Fr 16:00-21:00","shop":"wine"}}},{"type":"Feature","id":"node/3722714297","geometry":{"type":"Point","coordinates":[14.40223,50.06994]},"properties":{"osm_type":"node","osm_id":3722714297,"category":"wine_shop","name":"Global Wines & Spirits","tags":{"addr:city":"Praha","addr:housenumber":"3","addr:postcode":"15000","addr:street":"Karla Engliše","name":"Global Wines & Spirits","opening_hours":"Mo-Sa 10:00-20:00; Su 09:00-13:00","shop":"wine"}}},{"type":"Feature","id":"node/3763561969","geometry":{"type":"Point","coordinates":[17.26277,48.97518]},"properties":{"osm_type":"node","osm_id":3763561969,"category":"winery","name":"Zámecké vinařství Bzenec","tags":{"craft":"winery","name":"Zámecké vinařství Bzenec","opening_hours":"Mo-Fr 15:00-21:30; Sa,Su 11:00-21:30","shop":"wine","tourism":"wine_cellar","website":"https://www.zameckevinarstvi.cz/"}}},{"type":"Feature","id":"node/3770258426","geometry":{"type":"Point","coordinates":[18.32971,49.67148]},"properties":{"osm_type":"node","osm_id":3770258426,"category":"wine_shop","name":"Víno & Destiláty","tags":{"name":"Víno & Destiláty","opening_hours":"Mo-Su 09:00-21:00","shop":"wine","wheelchair":"yes"}}},{"type":"Feature","id":"node/3792480544","geometry":{"type":"Point","coordinates":[16.59587,49.1919]},"properties":{"osm_type":"node","osm_id":3792480544,"category":"wine_shop","name":"Vinotéka Vinařství Bukovský","tags":{"name":"Vinotéka Vinařství Bukovský","opening_hours":"Mo-Fr 16:00-22:00+; Sa,Su off","phone":"+420728402018","shop":"wine","website":"https://www.vinarstvibukovsky.cz","wheelchair":"no"}}},{"type":"Feature","id":"node/3861082693","geometry":{"type":"Point","coordinates":[16.61174,49.19586]},"properties":{"osm_type":"node","osm_id":3861082693,"category":"winery","name":"Terapie","tags":{"addr:city":"Brno","addr:housenumber":"8","addr:postcode":"60200","addr:street":"Vachova","craft":"winery","name":"Terapie"}}},{"type":"Feature","id":"node/3902881361","geometry":{"type":"Point","coordinates":[13.90298,49.83538]},"properties":{"osm_type":"node","osm_id":3902881361,"category":"winery","name":"Vinné sklepy Lechovice","tags":{"craft":"winery","name":"Vinné sklepy Lechovice","website":"https://www.vslechovice.cz/"}}},{"type":"Feature","id":"node/3908840799","geometry":{"type":"Point","coordinates":[13.90227,49.83434]},"properties":{"osm_type":"node","osm_id":3908840799,"category":"winery","name":"Vinotéka Petra Chvátalová","tags":{"craft":"winery","name":"Vinotéka Petra Chvátalová"}}},{"type":"Feature","id":"node/3962565185","geometry":{"type":"Point","coordinates":[13.7743,49.05359]},"properties":{"osm_type":"node","osm_id":3962565185,"category":"wine_shop","name":"Vinotéka","tags":{"addr:city":"Vimperk","addr:country":"CZ","addr:housenumber":"115","addr:postcode":"385 01","addr:street":"Pivovarská","name":"Vinotéka","opening_hours":"Mo-Fr 10:00-16:30","shop":"wine"}}},{"type":"Feature","id":"node/3971889897","geometry":{"type":"Point","coordinates":[16.75455,49.10191]},"properties":{"osm_type":"node","osm_id":3971889897,"category":"wine_shop","tags":{"shop":"wine"}}},{"type":"Feature","id":"node/3979653270","geometry":{"type":"Point","coordinates":[16.67848,48.98829]},"properties":{"osm_type":"node","osm_id":3979653270,"category":"winery","name":"Vinice Hustopeče","tags":{"craft":"winery","name":"Vinice Hustopeče"}}},{"type":"Feature","id":"node/3979705440","geometry":{"type":"Point","coordinates":[16.65263,49.01423]},"properties":{"osm_type":"node","osm_id":3979705440,"category":"winery","name":"Vinařství Karel Válka","tags":{"craft":"winery","name":"Vinařství Karel Válka"}}},{"type":"Feature","id":"node/3979858067","geometry":{"type":"Point","coordinates":[16.84577,48.82732]},"properties":{"osm_type":"node","osm_id":3979858067,"category":"winery","name":"Víno Podivín a.s.","tags":{"craft":"winery","name":"Víno Podivín a.s.","opening_hours":"Mo-Fr 08:00-12:00","website":"http://www.vino-podivin.cz/"}}},{"type":"Feature","id":"node/3979858068","geometry":{"type":"Point","coordinates":[16.84667,48.82746]},"properties":{"osm_type":"node","osm_id":3979858068,"category":"winery","name":"Vinařství Radim Mildner","tags":{"craft":"winery","name":"Vinařství Radim Mildner","website":"https://www.vinomildner.cz/"}}},{"type":"Feature","id":"node/3983773219","geometry":{"type":"Point","coordinates":[17.46752,48.94629]},"properties":{"osm_type":"node","osm_id":3983773219,"category":"winery","name":"Bílé Karpaty vinařství","tags":{"addr:city":"Blatnice pod Svatým Antonínkem","addr:housenumber":"138","addr:postcode":"69671","craft":"winery","name":"Bílé Karpaty vinařství","operator":"Bílé Karpaty vinařství s.r.o."}}},{"type":"Feature","id":"node/3988644650","geometry":{"type":"Point","coordinates":[16.59561,49.20497]},"properties":{"osm_type":"node","osm_id":3988644650,"category":"wine_shop","name":"U Slunce","tags":{"name":"U Slunce","opening_hours":"Mo-Fr 10:00-19:00","shop":"wine","wheelchair":"no"}}},{"type":"Feature","id":"node/4000847938","geometry":{"type":"Point","coordinates":[16.91125,48.8642]},"properties":{"osm_type":"node","osm_id":4000847938,"category":"winery","name":"Habánské sklepy","tags":{"addr:housenumber":"1324","addr:street":"Čejkovská","craft":"winery","name":"Habánské sklepy","operator":"Habánské sklepy s.r.o.","website":"https://www.habanskesklepy.cz/"}}},{"type":"Feature","id":"node/4006074846","geometry":{"type":"Point","coordinates":[15.79053,49.9478]},"properties":{"osm_type":"node","osm_id":4006074846,"category":"wine_shop","tags":{"shop":"wine"}}},{"type":"Feature","id":"node/4009538150","geometry":{"type":"Point","coordinates":[17.65127,49.02383]},"properties":{"osm_type":"node","osm_id":4009538150,"category":"wine_shop","name":"Vinotéka U Václava","tags":{"addr:city":"Uherský Brod","addr:housenumber":"2577","addr:postcode":"68801","addr:street":"Dolní Valy","name":"Vinotéka U Václava","operator":"Václav Durďák ml.","shop":"wine"}}},{"type":"Feature","id":"node/4026663540","geometry":{"type":"Point","coordinates":[16.90838,48.85581]},"properties":{"osm_type":"node","osm_id":4026663540,"category":"wine_shop","name":"Vinařství s ubytováním U Osičků","tags":{"addr:city":"Velké Bílovice","addr:housenumber":"605","addr:postcode":"69102","addr:street":"Sadová","email":"josicka@seznam.cz","name":"Vinařství s ubytováním U Osičků","operator":"Ing. Jan Osička","phone":"+420 608 770 712","shop":"wine","tourism":"guest_house","website":"https://www.sklepuosicku.cz/","wheelchair":"yes"}}},{"type":"Feature","id":"node/4044845556","geometry":{"type":"Point","coordinates":[16.66231,48.96624]},"properties":{"osm_type":"node","osm_id":4044845556,"category":"wine_shop","name":"Vinařství Pardál","tags":{"name":"Vinařství Pardál","shop":"wine"}}},{"type":"Feature","id":"node/4045413377","geometry":{"type":"Point","coordinates":[16.63833,48.80626]},"properties":{"osm_type":"node","osm_id":4045413377,"category":"wine_shop","name":"Vinařské centrum Mikulov","tags":{"name":"Vinařské centrum Mikulov","shop":"wine"}}},{"type":"Feature","id":"node/4045413378","geometry":{"type":"Point","coordinates":[16.63785,48.80527]},"properties":{"osm_type":"node","osm_id":4045413378,"category":"wine_shop","name":"Wine shop","tags":{"name":"Wine shop","shop":"wine"}}},{"type":"Feature","id":"node/4052433037","geometry":{"type":"Point","coordinates":[17.07612,49.7068]},"properties":{"osm_type":"node","osm_id":4052433037,"category":"wine_shop","tags":{"shop":"wine"}}},{"type":"Feature","id":"node/4107148919","geometry":{"type":"Point","coordinates":[16.11534,50.26823]},"properties":{"osm_type":"node","osm_id":4107148919,"category":"wine_shop","tags":{"shop":"wine"}}},{"type":"Feature","id":"node/4163036857","geometry":{"type":"Point","coordinates":[14.48777,50.02218]},"properties":{"osm_type":"node","osm_id":4163036857,"category":"winery","name":"U dvou přátel","tags":{"amenity":"bar","craft":"winery","name":"U dvou přátel"}}},{"type":"Feature","id":"node/4168070873","geometry":{"type":"Point","coordinates":[16.11555,49.80474]},"properties":{"osm_type":"node","osm_id":4168070873,"category":"winery","tags":{"craft":"winery"}}},{"type":"Feature","id":"node/4171481527","geometry":{"type":"Point","coordinates":[18.38039,49.90428]},"properties":{"osm_type":"node","osm_id":4171481527,"category":"wine_shop","name":"Vinotéka","tags":{"name":"Vinotéka","shop":"wine"}}},{"type":"Feature","id":"node/4202085587","geometry":{"type":"Point","coordinates":[14.39876,50.06717]},"properties":{"osm_type":"node","osm_id":4202085587,"category":"wine_cellar","name":"Vinný sklep U Stárků","tags":{"addr:city":"Praha 5","addr:housenumber":"12","addr:postcode":"15000","addr:street":"U Nikolajky","email":"vinny.sklep@ustarku.cz","name":"Vinný sklep U Stárků","opening_hours":"Tu-Th 14:00-21:30; Fr 13:30-19:00","phone":"+420 251 565 174","shop":"alcohol","tourism":"wine_cellar","website":"https://www.ustarku.cz/"}}},{"type":"Feature","id":"node/4206956320","geometry":{"type":"Point","coordinates":[16.6017,49.20152]},"properties":{"osm_type":"node","osm_id":4206956320,"category":"wine_shop","name":"Degustárna vína z Velkých Bílovic","tags":{"addr:city":"Brno","addr:housenumber":"13","addr:postcode":"60200","addr:street":"Smetanova","name":"Degustárna vína z Velkých Bílovic","opening_hours":"Mo-Th 17:00-22:00; Fr,Sa 18:30-23:00","shop":"wine"}}},{"type":"Feature","id":"node/4211150898","geometry":{"type":"Point","coordinates":[18.35084,49.66955]},"properties":{"osm_type":"node","osm_id":4211150898,"category":"wine_shop","tags":{"shop":"wine"}}},{"type":"Feature","id":"node/4215268591","geometry":{"type":"Point","coordinates":[17.40262,49.29077]},"properties":{"osm_type":"node","osm_id":4215268591,"category":"wine_shop","tags":{"shop":"wine"}}},{"type":"Feature","id":"node/4227779989","geometry":{"type":"Point","coordinates":[14.87447,50.22887]},"properties":{"osm_type":"node","osm_id":4227779989,"category":"wine_shop","name":"Vinotéka U Pavla","tags":{"addr:housenumber":"519","addr:postcode":"28924","addr:street":"V Konírnách","name":"Vinotéka U Pavla","opening_hours":"Su-Th 14:00-21:00; Fr-Sa 14:00-22:00","shop":"wine","website":"https://www.upavla.cz/"}}},{"type":"Feature","id":"node/4235144497","geometry":{"type":"Point","coordinates":[17.20695,50.22696]},"properties":{"osm_type":"node","osm_id":4235144497,"category":"wine_shop","tags":{"shop":"wine"}}},{"type":"Feature","id":"node/4240252948","geometry":{"type":"Point","coordinates":[16.67532,48.87475]},"properties":{"osm_type":"node","osm_id":4240252948,"category":"winery","name":"Vinařství Ilias","tags":{"addr:city":"Pavlov","addr:housenumber":"92","addr:postcode":"69201","addr:street":"Přehradní","craft":"winery","email":"g.ilias@ilias.cz","name":"Vinařství Ilias","operator":"Georgios Ilias","phone":"+420 602 510 952","website":"https://www.ilias.cz/"}}},{"type":"Feature","id":"node/4243470871","geometry":{"type":"Point","coordinates":[16.7561,48.74086]},"properties":{"osm_type":"node","osm_id":4243470871,"category":"wine_shop","name":"Vinotéka v Zámecké bráně","tags":{"email":"milanhradil@seznam.cz","name":"Vinotéka v Zámecké bráně","opening_hours":"Mo-Th 15:00-20:00; Fr 15:00-22:00; Sa 10:00-22:00; Su 10:00-17:00","phone":"+420 606 712 128","shop":"wine"}}},{"type":"Feature","id":"node/4256172552","geometry":{"type":"Point","coordinates":[18.14297,49.45856]},"properties":{"osm_type":"node","osm_id":4256172552,"category":"wine_shop","tags":{"shop":"wine"}}},{"type":"Feature","id":"node/4256172553","geometry":{"type":"Point","coordinates":[18.14351,49.45878]},"properties":{"osm_type":"node","osm_id":4256172553,"category":"wine_shop","tags":{"shop":"wine"}}},{"type":"Feature","id":"node/4257587863","geometry":{"type":"Point","coordinates":[18.13328,49.46267]},"properties":{"osm_type":"node","osm_id":4257587863,"category":"wine_shop","tags":{"shop":"wine"}}},{"type":"Feature","id":"node/4257587865","geometry":{"type":"Point","coordinates":[18.13688,49.46508]},"properties":{"osm_type":"node","osm_id":4257587865,"category":"wine_shop","name":"Enotria","tags":{"name":"Enotria","shop":"wine"}}},{"type":"Feature","id":"node/4257587866","geometry":{"type":"Point","coordinates":[18.12633,49.45935]},"properties":{"osm_type":"node","osm_id":4257587866,"category":"wine_shop","name":"Enotria","tags":{"email":"Info@storicaenotria.cz","name":"Enotria","opening_hours":"Mo-Th 09:00-19:00; Fr 09:00-20:00; Sa 09:00-18:00","shop":"wine","website":"https://storicaenotria.cz/"}}},{"type":"Feature","id":"node/4278549107","geometry":{"type":"Point","coordinates":[14.43031,50.09108]},"properties":{"osm_type":"node","osm_id":4278549107,"category":"winery","tags":{"addr:city":"Praha 1","addr:housenumber":"26","addr:postcode":"11000","addr:street":"Soukenická","craft":"winery"}}},{"type":"Feature","id":"node/4307758143","geometry":{"type":"Point","coordinates":[16.01168,49.35549]},"properties":{"osm_type":"node","osm_id":4307758143,"category":"wine_shop","tags":{"shop":"wine"}}},{"type":"Feature","id":"node/4328387100","geometry":{"type":"Point","coordinates":[16.7834,49.20132]},"properties":{"osm_type":"node","osm_id":4328387100,"category":"wine_shop","name":"Jana Źelezná","tags":{"addr:housenumber":"350","addr:postcode":"66407","name":"Jana Źelezná","opening_hours":"Tu-Fr 15:00-20:00; Sa 14:00-18:00; PH off","shop":"wine"}}},{"type":"Feature","id":"node/4331952891","geometry":{"type":"Point","coordinates":[17.25556,49.5771]},"properties":{"osm_type":"node","osm_id":4331952891,"category":"wine_shop","name":"V&D","tags":{"name":"V&D","shop":"wine"}}},{"type":"Feature","id":"node/4358649291","geometry":{"type":"Point","coordinates":[16.38982,49.18401]},"properties":{"osm_type":"node","osm_id":4358649291,"category":"wine_shop","name":"Vinotéka Rosice","tags":{"name":"Vinotéka Rosice","name:cs":"Vinotéka Rosice","opening_hours":"Mo-Su 09:00-21:00","shop":"wine"}}},{"type":"Feature","id":"node/4366549494","geometry":{"type":"Point","coordinates":[15.9397,49.5603]},"properties":{"osm_type":"node","osm_id":4366549494,"category":"wine_shop","name":"Vinotéka U Divadla","tags":{"name":"Vinotéka U Divadla","shop":"wine"}}},{"type":"Feature","id":"node/4373592485","geometry":{"type":"Point","coordinates":[14.31696,50.15859]},"properties":{"osm_type":"node","osm_id":4373592485,"category":"wine_bar","tags":{"amenity":"restaurant","cuisine":"wine","opening_hours":"Tu-Fr 15:30-20:00; Sa 10:00-12:00; Su,Mo off"}}},{"type":"Feature","id":"node/4379721245","geometry":{"type":"Point","coordinates":[16.65824,49.20631]},"properties":{"osm_type":"node","osm_id":4379721245,"category":"wine_shop","name":"Moravská vína","tags":{"addr:city":"Brno","addr:housenumber":"2d","addr:street":"Pálavské náměstí","name":"Moravská vína","opening_hours":"Mo-Sa 10:00-20:00; Su 14:00-19:00","shop":"wine"}}},{"type":"Feature","id":"node/4384347277","geometry":{"type":"Point","coordinates":[16.63666,48.90943]},"properties":{"osm_type":"node","osm_id":4384347277,"category":"winery","name":"sKřivánek","tags":{"addr:city":"Strachotín","addr:housenumber":"ev.52","addr:postcode":"69301","addr:street":"Sklepní","craft":"winery","name":"sKřivánek","opening_hours":"\"by appointment\"","website":"https://www.ubytovani-pod-palavou.cz/"}}},{"type":"Feature","id":"node/4386855798","geometry":{"type":"Point","coordinates":[16.07329,49.56059]},"properties":{"osm_type":"node","osm_id":4386855798,"category":"wine_shop","name":"Vinotéka u Charlieho","tags":{"name":"Vinotéka u Charlieho","name:cs":"Vinotéka u Charlieho","opening_hours":"Mo-Sa 08:00-18:00; Su 09:00-18:00","shop":"wine","website":"https://www.vinotekaucharlieho.cz/"}}},{"type":"Feature","id":"node/4399087290","geometry":{"type":"Point","coordinates":[17.10009,48.98682]},"properties":{"osm_type":"node","osm_id":4399087290,"category":"wine_shop","name":"Svatoborský sklípek","tags":{"addr:housenumber":"1185/14","addr:postcode":"69604","addr:street":"Pod Sokolovnou","name":"Svatoborský sklípek","shop":"wine"}}},{"type":"Feature","id":"node/4420254053","geometry":{"type":"Point","coordinates":[17.28788,49.42904]},"properties":{"osm_type":"node","osm_id":4420254053,"category":"wine_shop","tags":{"shop":"wine"}}},{"type":"Feature","id":"node/4426722198","geometry":{"type":"Point","coordinates":[16.0469,48.85408]},"properties":{"osm_type":"node","osm_id":4426722198,"category":"winery","name":"U Kaplana","tags":{"amenity":"bar","craft":"winery","name":"U Kaplana","phone":"+420 721853348"}}},{"type":"Feature","id":"node/4446268354","geometry":{"type":"Point","coordinates":[16.5864,49.24293]},"properties":{"osm_type":"node","osm_id":4446268354,"category":"wine_shop","name":"Víno Kačka","tags":{"addr:postcode":"60200","name":"Víno Kačka","opening_hours":"Tu-Fr 15:00-19:00; We off","shop":"wine"}}},{"type":"Feature","id":"node/4460577191","geometry":{"type":"Point","coordinates":[16.66703,48.87285]},"properties":{"osm_type":"node","osm_id":4460577191,"category":"wine_cellar","name":"Vinařství Garčic","tags":{"addr:city":"Pavlov","addr:housenumber":"237","addr:postcode":"69201","addr:street":"Vinařská","email":"info@garcicovi.cz","name":"Vinařství Garčic","name:cs":"Vinařství Garčic","name:en":"Vinery Garcic","name:sk":"Vinárstvo Garčic","phone":"+420 728 746 500","shop":"wine","tourism":"wine_cellar"}}},{"type":"Feature","id":"node/4477738789","geometry":{"type":"Point","coordinates":[16.15208,50.34419]},"properties":{"osm_type":"node","osm_id":4477738789,"category":"wine_shop","name":"SELADON kava a vino a delikatesy","tags":{"addr:housenumber":"1220","addr:postcode":"54901","addr:street":"Husovo náměstí","email":"kava@seladon.cz","name":"SELADON kava a vino a delikatesy","name:cs":"SELADON kava a vino a delikatesy","name:en":"SELADON kava a vino a delikatesy","opening_hours":"Mo-Sa 09:00-18:00; Su 13:00-18:00","phone":"+420 491473085","shop":"wine","website":"http://www.seladon.cz"}}},{"type":"Feature","id":"node/4480093449","geometry":{"type":"Point","coordinates":[18.53069,49.85724]},"properties":{"osm_type":"node","osm_id":4480093449,"category":"wine_shop","name":"Vinofol","tags":{"name":"Vinofol","opening_hours":"Mo-Su 09:00-20:00","shop":"wine"}}},{"type":"Feature","id":"node/4485588803","geometry":{"type":"Point","coordinates":[17.44832,49.45419]},"properties":{"osm_type":"node","osm_id":4485588803,"category":"wine_shop","name":"Vinotéka Vítěz","tags":{"addr:city":"Přerov","addr:housenumber":"113/5","addr:postcode":"75002","addr:street":"Bratrská","email":"prokop.ivan@quick.cz","name":"Vinotéka Vítěz","opening_hours":"Mo-Fr 09:30-19:00; Sa 08:30-11:30","phone":"+420 581 202 875","shop":"wine"}}},{"type":"Feature","id":"node/4491130294","geometry":{"type":"Point","coordinates":[15.79823,49.94283]},"properties":{"osm_type":"node","osm_id":4491130294,"category":"wine_shop","tags":{"opening_hours":"24/7","shop":"wine"}}},{"type":"Feature","id":"node/4530727225","geometry":{"type":"Point","coordinates":[14.49996,50.12213]},"properties":{"osm_type":"node","osm_id":4530727225,"category":"wine_shop","name":"Pampinus","tags":{"name":"Pampinus","opening_hours":"Mo-Fr 16:30-21:30","phone":"+420 775 994 041","shop":"wine","website":"https://vinotekaprosek.cz/","wheelchair":"yes"}}},{"type":"Feature","id":"node/4549439537","geometry":{"type":"Point","coordinates":[18.68288,49.66955]},"properties":{"osm_type":"node","osm_id":4549439537,"category":"wine_shop","name":"Staroveské centrum vína","tags":{"addr:city":"Třinec","addr:country":"CZ","addr:housenumber":"1357","addr:postcode":"73961","addr:street":"Za Tratí","name":"Staroveské centrum vína","opening_hours":"Mo-Su 08:00-20:00","shop":"wine"}}},{"type":"Feature","id":"node/4563509071","geometry":{"type":"Point","coordinates":[14.71083,49.93474]},"properties":{"osm_type":"node","osm_id":4563509071,"category":"wine_shop","name":"Sudová vína, nápoje","tags":{"name":"Sudová vína, nápoje","shop":"wine"}}},{"type":"Feature","id":"node/4563509203","geometry":{"type":"Point","coordinates":[14.71049,49.93657]},"properties":{"osm_type":"node","osm_id":4563509203,"category":"wine_shop","name":"Víno","tags":{"name":"Víno","shop":"wine"}}},{"type":"Feature","id":"node/4579762870","geometry":{"type":"Point","coordinates":[18.27127,49.54261]},"properties":{"osm_type":"node","osm_id":4579762870,"category":"wine_shop","name":"Vinotéka Sýkora","tags":{"name":"Vinotéka Sýkora","shop":"wine"}}},{"type":"Feature","id":"node/4580030006","geometry":{"type":"Point","coordinates":[18.41139,49.67526]},"properties":{"osm_type":"node","osm_id":4580030006,"category":"wine_shop","tags":{"shop":"wine"}}},{"type":"Feature","id":"node/4590359395","geometry":{"type":"Point","coordinates":[16.60035,49.18249]},"properties":{"osm_type":"node","osm_id":4590359395,"category":"wine_shop","name":"Vinotéka U Soudu","tags":{"addr:city":"Brno","addr:housenumber":"16","addr:postcode":"63900","addr:street":"Renneská třída","name":"Vinotéka U Soudu","opening_hours":"Mo-Fr 10:00-19:00; Sa 09:00-12:00","shop":"wine","website":"https://www.vinotekausoudu.cz/"}}},{"type":"Feature","id":"node/4592202830","geometry":{"type":"Point","coordinates":[16.55877,49.1688]},"properties":{"osm_type":"node","osm_id":4592202830,"category":"wine_shop","name":"Vinotéka pod Peřinou","tags":{"addr:city":"Brno","addr:housenumber":"21","addr:postcode":"62500","addr:street":"U hřiště","name":"Vinotéka pod Peřinou","opening_hours":"Mo-Su 14:00-21:00","phone":"+420 723 906 622","shop":"wine","website":"https://vinoteka-pod-perinou.webnode.cz/"}}},{"type":"Feature","id":"node/4592731097","geometry":{"type":"Point","coordinates":[16.68157,49.1796]},"properties":{"osm_type":"node","osm_id":4592731097,"category":"wine_shop","name":"Vinotéka","tags":{"name":"Vinotéka","name:cs":"Vinotéka","opening_hours":"Mo-Fr 10:00-20:00; Sa 09:00-20:00; Su 15:00-19:00","shop":"wine"}}},{"type":"Feature","id":"node/4592754489","geometry":{"type":"Point","coordinates":[16.68447,49.17901]},"properties":{"osm_type":"node","osm_id":4592754489,"category":"wine_shop","tags":{"shop":"wine"}}},{"type":"Feature","id":"node/4602067486","geometry":{"type":"Point","coordinates":[16.55457,49.21902]},"properties":{"osm_type":"node","osm_id":4602067486,"category":"wine_shop","name":"Vinotéka u zastávky","tags":{"name":"Vinotéka u zastávky","opening_hours":"Mo-Fr 10:00-19:00; Sa 10:00-18:00","shop":"wine"}}},{"type":"Feature","id":"node/4610155954","geometry":{"type":"Point","coordinates":[18.14306,49.63958]},"properties":{"osm_type":"node","osm_id":4610155954,"category":"wine_shop","name":"Vinotéka U radnice & První Příborská sýrárna","tags":{"email":"vinotekauradncie@gmail.com","name":"Vinotéka U radnice & První Příborská sýrárna","opening_hours":"Mo-Fr 10:00-18:00; Sa 08:00-13:00","phone":"+420734108180","shop":"wine"}}},{"type":"Feature","id":"node/4613481000","geometry":{"type":"Point","coordinates":[18.28421,49.83905]},"properties":{"osm_type":"node","osm_id":4613481000,"category":"wine_shop","name":"Vinotéka Modré hory","tags":{"name":"Vinotéka Modré hory","opening_hours":"Mo-Fr 15:00-23:00; Sa 17:00-23:00","shop":"wine"}}},{"type":"Feature","id":"node/4730428087","geometry":{"type":"Point","coordinates":[18.67909,49.6689]},"properties":{"osm_type":"node","osm_id":4730428087,"category":"wine_shop","name":"Vinotéka Merlot","tags":{"name":"Vinotéka Merlot","opening_hours":"Mo-Sa 08:00-20:00; Su 09:00-20:00","shop":"wine"}}},{"type":"Feature","id":"node/4734809619","geometry":{"type":"Point","coordinates":[18.61933,49.73915]},"properties":{"osm_type":"node","osm_id":4734809619,"category":"wine_shop","name":"Vinofol","tags":{"name":"Vinofol","opening_hours":"Mo-Su 08:00-20:00","shop":"wine"}}},{"type":"Feature","id":"node/4742851329","geometry":{"type":"Point","coordinates":[18.67579,49.66988]},"properties":{"osm_type":"node","osm_id":4742851329,"category":"wine_shop","name":"Vinotéka P&V","tags":{"name":"Vinotéka P&V","opening_hours":"Mo-Su 08:00-20:00","phone":"+420603227689","shop":"wine","website":"https://www.vinotekapv.cz"}}},{"type":"Feature","id":"node/4744465964","geometry":{"type":"Point","coordinates":[14.40436,50.09017]},"properties":{"osm_type":"node","osm_id":4744465964,"category":"wine_shop","name":"U Fify","tags":{"addr:city":"Praha","addr:housenumber":"163/2","addr:street":"Valdštejnské náměstí","name":"U Fify","opening_hours":"Mo-Sa 15:00-22:00","shop":"wine","wheelchair":"no"}}},{"type":"Feature","id":"node/4755089036","geometry":{"type":"Point","coordinates":[18.14724,49.84802]},"properties":{"osm_type":"node","osm_id":4755089036,"category":"wine_shop","name":"Víno&Destiláty","tags":{"name":"Víno&Destiláty","opening_hours":"Mo-Su 09:00-20:00; Fr 09:00-21:00","shop":"wine"}}},{"type":"Feature","id":"node/4771755514","geometry":{"type":"Point","coordinates":[16.65456,49.19164]},"properties":{"osm_type":"node","osm_id":4771755514,"category":"wine_shop","name":"Vinotéka","tags":{"addr:city":"Brno","addr:housenumber":"3878/2","addr:postcode":"63600","addr:street":"Juliánovské náměstí","name":"Vinotéka","opening_hours":"Mo-Sa 12:00-21:00","shop":"wine","website":"https://www.skoupimto.cz/","wheelchair":"no"}}},{"type":"Feature","id":"node/4810064077","geometry":{"type":"Point","coordinates":[17.46069,49.45249]},"properties":{"osm_type":"node","osm_id":4810064077,"category":"wine_shop","name":"Kyjovjanka","tags":{"addr:city":"Přerov","addr:housenumber":"1117/30","addr:postcode":"75002","addr:street":"Trávník","email":"kyjovjanka@email.cz","name":"Kyjovjanka","opening_hours":"Mo-Fr 14:30-21:00; Sa 10:00-14:00","phone":"+420 605 418 374","shop":"wine","website":"http://www.kyjovjanka.tk/"}}},{"type":"Feature","id":"node/4813353257","geometry":{"type":"Point","coordinates":[14.42242,50.10126]},"properties":{"osm_type":"node","osm_id":4813353257,"category":"winery","name":"U vzducholodě","tags":{"addr:city":"Praha 7","addr:housenumber":"16","addr:postcode":"17000","addr:street":"Šmeralova","craft":"winery","name":"U vzducholodě"}}},{"type":"Feature","id":"node/4818652033","geometry":{"type":"Point","coordinates":[16.8459,48.82929]},"properties":{"osm_type":"node","osm_id":4818652033,"category":"winery","name":"Vinotéka U Soudku","tags":{"craft":"winery","name":"Vinotéka U Soudku","website":"https://www.vinotekapodivin.cz/"}}},{"type":"Feature","id":"node/4822265053","geometry":{"type":"Point","coordinates":[14.43415,50.07135]},"properties":{"osm_type":"node","osm_id":4822265053,"category":"wine_shop","name":"Chateau Šafaříkova","tags":{"name":"Chateau Šafaříkova","opening_hours":"Mo,Tu 12:00-21:00; We-Sa 12:00-23:00","shop":"wine","wheelchair":"no"}}},{"type":"Feature","id":"node/4854079589","geometry":{"type":"Point","coordinates":[16.26289,49.71467]},"properties":{"osm_type":"node","osm_id":4854079589,"category":"wine_shop","name":"U hradeb","tags":{"name":"U hradeb","opening_hours":"Mo-Th 10:00-12:00,14:00-19:00; Fr 10:00-19:00; Sa 09:00-11:00,14:00-19:00","shop":"wine"}}},{"type":"Feature","id":"node/4864723823","geometry":{"type":"Point","coordinates":[18.34531,49.67149]},"properties":{"osm_type":"node","osm_id":4864723823,"category":"wine_shop","name":"sudovkarna.cz","tags":{"brand":"Znovín Znojmo;Žufánek","email":"mistek@sudovkarna.cz","name":"sudovkarna.cz","opening_hours":"Mo-Fr 10:00-20:00; Sa 09:00-13:00","shop":"wine","website":"https://www.sudovkarna.cz/"}}},{"type":"Feature","id":"node/4866635795","geometry":{"type":"Point","coordinates":[17.45279,49.45433]},"properties":{"osm_type":"node","osm_id":4866635795,"category":"wine_shop","name":"Vinárna Čelechovský","tags":{"name":"Vinárna Čelechovský","phone":"+420 581 738 802","shop":"wine"}}},{"type":"Feature","id":"node/4882172008","geometry":{"type":"Point","coordinates":[15.78551,50.03825]},"properties":{"osm_type":"node","osm_id":4882172008,"category":"wine_shop","name":"Vinný šenk","tags":{"name":"Vinný šenk","opening_hours":"Mo-Fr 15:00-21:00","shop":"wine","wheelchair":"no"}}},{"type":"Feature","id":"node/4928156503","geometry":{"type":"Point","coordinates":[16.59752,49.21031]},"properties":{"osm_type":"node","osm_id":4928156503,"category":"wine_shop","name":"Moravská vinotéka","tags":{"name":"Moravská vinotéka","opening_hours":"Mo 15:00-19:30; Tu,We 14:00-20:30; Th 14:00-19:30; Fr 14:00-18:30","shop":"wine","wheelchair":"yes"}}},{"type":"Feature","id":"node/4930988223","geometry":{"type":"Point","coordinates":[16.62325,48.83541]},"properties":{"osm_type":"node","osm_id":4930988223,"category":"wine_shop","name":"Vinařství Drmola","tags":{"addr:city":"Bavory","addr:housenumber":"46","addr:postcode":"692 01","email":"info@vinarstvidrmola.cz","name":"Vinařství Drmola","name:de":"Weingut Drmola","name:en":"Winary Drmola","opening_hours":"Mo-Fr 09:00-15:00","phone":"+420 736 487 749","shop":"wine","website":"https://www.vinarstvidrmola.cz/"}}},{"type":"Feature","id":"node/4974771221","geometry":{"type":"Point","coordinates":[16.76683,48.77443]},"properties":{"osm_type":"node","osm_id":4974771221,"category":"wine_shop","name":"Vinařství Pod Mezů","tags":{"email":"zbynek.radkovic@email.cz","name":"Vinařství Pod Mezů","opening_hours":"24/7","phone":"+420777001628","shop":"wine","website":"https://podmezu.cz/"}}},{"type":"Feature","id":"node/4996188699","geometry":{"type":"Point","coordinates":[14.47162,50.09004]},"properties":{"osm_type":"node","osm_id":4996188699,"category":"wine_shop","name":"Laska Trva","tags":{"addr:city":"Praha","addr:housenumber":"1654","addr:postcode":"13000","addr:street":"Biskupcova","name":"Laska Trva","opening_hours":"Mo-Su 14:00-23:00","shop":"wine"}}},{"type":"Feature","id":"node/4999295856","geometry":{"type":"Point","coordinates":[14.45254,50.09444]},"properties":{"osm_type":"node","osm_id":4999295856,"category":"winery","name":"správná adresa","tags":{"craft":"winery","name":"správná adresa","opening_hours":"Mo-Fr 11:00-23:00; Sa 16:00-22:00; Su Off"}}},{"type":"Feature","id":"node/5079002373","geometry":{"type":"Point","coordinates":[14.46041,50.07032]},"properties":{"osm_type":"node","osm_id":5079002373,"category":"wine_shop","name":"Wine Institute","tags":{"addr:city":"Praha 10","addr:housenumber":"797","addr:postcode":"10100","addr:street":"Kodaňská","email":"info@wineinstitute.cz","name":"Wine Institute","opening_hours":"Mo-Fr 16:00-20:00","phone":"+420603258199","shop":"wine","website":"https://www.wineinstitute.cz/"}}},{"type":"Feature","id":"node/5080645618","geometry":{"type":"Point","coordinates":[16.15919,50.41326]},"properties":{"osm_type":"node","osm_id":5080645618,"category":"wine_shop","tags":{"shop":"wine"}}},{"type":"Feature","id":"node/5086457369","geometry":{"type":"Point","coordinates":[18.76252,49.57586]},"properties":{"osm_type":"node","osm_id":5086457369,"category":"wine_shop","tags":{"shop":"wine"}}},{"type":"Feature","id":"node/5099034761","geometry":{"type":"Point","coordinates":[16.60404,49.18929]},"properties":{"osm_type":"node","osm_id":5099034761,"category":"wine_shop","name":"Vinotéka Na Hybešce","tags":{"addr:housenumber":"24","addr:street":"Hybešova","name":"Vinotéka Na Hybešce","shop":"wine"}}},{"type":"Feature","id":"node/5099034766","geometry":{"type":"Point","coordinates":[16.75102,48.83076]},"properties":{"osm_type":"node","osm_id":5099034766,"category":"winery","name":"Vinarsky dvur Fuzgrunty","tags":{"craft":"winery","name":"Vinarsky dvur Fuzgrunty"}}},{"type":"Feature","id":"node/5105844877","geometry":{"type":"Point","coordinates":[17.12755,49.47379]},"properties":{"osm_type":"node","osm_id":5105844877,"category":"winery","name":"Víno & destiláty","tags":{"craft":"winery","name":"Víno & destiláty"}}},{"type":"Feature","id":"node/5110597757","geometry":{"type":"Point","coordinates":[16.69428,49.20598]},"properties":{"osm_type":"node","osm_id":5110597757,"category":"wine_shop","name":"Vinotéka u Urbana","tags":{"name":"Vinotéka u Urbana","opening_hours":"Mo-Fr 10:00-17:00; Sa 09:00-12:00","shop":"wine"}}},{"type":"Feature","id":"node/5112587230","geometry":{"type":"Point","coordinates":[17.45811,49.06933]},"properties":{"osm_type":"node","osm_id":5112587230,"category":"wine_shop","name":"Víno Hruška","tags":{"addr:city":"Uherské Hradiště","addr:housenumber":"61","addr:postcode":"686 01","addr:street":"Mariánské náměstí","email":"uh@vinohruska.cz","name":"Víno Hruška","opening_hours":"Mo 10:00-20:00; Tu-Th 10:00-21:00; Fr-Sa 10:00-22:00","phone":"+420 775 785 061","shop":"wine"}}},{"type":"Feature","id":"node/5113554607","geometry":{"type":"Point","coordinates":[16.51782,49.22127]},"properties":{"osm_type":"node","osm_id":5113554607,"category":"wine_shop","name":"Vinotéka","tags":{"name":"Vinotéka","shop":"wine"}}},{"type":"Feature","id":"node/5118253581","geometry":{"type":"Point","coordinates":[16.82763,48.89899]},"properties":{"osm_type":"node","osm_id":5118253581,"category":"wine_shop","name":"Baraque wine gallery","tags":{"name":"Baraque wine gallery","shop":"wine","website":"https://www.vinarstvibaraque.cz/"}}},{"type":"Feature","id":"node/5133565375","geometry":{"type":"Point","coordinates":[14.55217,50.04621]},"properties":{"osm_type":"node","osm_id":5133565375,"category":"wine_shop","name":"Nejmenší vinárnička u středně velké vrtule","tags":{"amenity":"pub","name":"Nejmenší vinárnička u středně velké vrtule","opening_hours":"Tu-Sa 18:00-22:00","shop":"wine","website":"https://vrtule.majestat.cz/"}}},{"type":"Feature","id":"node/5136876614","geometry":{"type":"Point","coordinates":[17.39508,49.10617]},"properties":{"osm_type":"node","osm_id":5136876614,"category":"wine_shop","name":"Klášterní sklepy Velehrad","tags":{"name":"Klášterní sklepy Velehrad","shop":"wine"}}},{"type":"Feature","id":"node/5153396524","geometry":{"type":"Point","coordinates":[17.27374,48.97108]},"properties":{"osm_type":"node","osm_id":5153396524,"category":"wine_shop","name":"Bunža","tags":{"name":"Bunža","opening_hours":"Mo-Su 07:00-20:00","phone":"518384833","shop":"wine","website":"https://www.bunza.cz/"}}},{"type":"Feature","id":"node/5153435125","geometry":{"type":"Point","coordinates":[17.27802,48.97031]},"properties":{"osm_type":"node","osm_id":5153435125,"category":"wine_shop","name":"Ostrezi","tags":{"name":"Ostrezi","phone":"604929570","shop":"wine","website":"https://www.vinarstviostrezi.cz/"}}},{"type":"Feature","id":"node/5179472947","geometry":{"type":"Point","coordinates":[18.44284,49.78743]},"properties":{"osm_type":"node","osm_id":5179472947,"category":"wine_shop","name":"Staroveské centrum vína","tags":{"name":"Staroveské centrum vína","opening_hours":"Mo-Su 08:00-20:00","shop":"wine"}}},{"type":"Feature","id":"node/5188010991","geometry":{"type":"Point","coordinates":[14.56921,50.0443]},"properties":{"osm_type":"node","osm_id":5188010991,"category":"wine_shop","name":"Vinotéka","tags":{"name":"Vinotéka","opening_hours":"Mo-Su 09:00-20:00","shop":"wine","wheelchair":"yes"}}},{"type":"Feature","id":"node/5224482146","geometry":{"type":"Point","coordinates":[17.02225,48.85642]},"properties":{"osm_type":"node","osm_id":5224482146,"category":"winery","name":"Bojanovský sklep Uherek","tags":{"addr:city":"Dolní Bojanovice","addr:housenumber":"311","addr:postcode":"69617","addr:street":"Úvoz","craft":"winery","email":"uherek@sklepuherek.cz","name":"Bojanovský sklep Uherek","operator":"Ing. Jiří Uherek","phone":"+420 736 514 206","website":"https://www.vinaruherek.cz/"}}},{"type":"Feature","id":"node/5224489707","geometry":{"type":"Point","coordinates":[17.02901,48.85349]},"properties":{"osm_type":"node","osm_id":5224489707,"category":"winery","name":"Regnum Vini","tags":{"craft":"winery","email":"sklensky@regnumvini.cz","name":"Regnum Vini","operator":"Zdeněk Sklenský","phone":"+420 777 569 621","website":"https://www.regnumvini.cz/"}}},{"type":"Feature","id":"node/5226832924","geometry":{"type":"Point","coordinates":[15.16751,50.72352]},"properties":{"osm_type":"node","osm_id":5226832924,"category":"wine_shop","name":"Dům vína","tags":{"addr:city":"Jablonec nad Nisou","addr:postcode":"466 01","addr:street":"Komenského","name":"Dům vína","shop":"wine"}}},{"type":"Feature","id":"node/5245287521","geometry":{"type":"Point","coordinates":[16.19198,50.42409]},"properties":{"osm_type":"node","osm_id":5245287521,"category":"wine_shop","name":"Vinofol","tags":{"name":"Vinofol","shop":"wine"}}},{"type":"Feature","id":"node/5273869946","geometry":{"type":"Point","coordinates":[14.37694,50.08492]},"properties":{"osm_type":"node","osm_id":5273869946,"category":"wine_shop","name":"La Vineria","tags":{"addr:city":"Praha 6","addr:housenumber":"1394/42","addr:postcode":"16900","addr:street":"Bělohorská","name":"La Vineria","shop":"wine"}}},{"type":"Feature","id":"node/5283468292","geometry":{"type":"Point","coordinates":[14.4333,50.10223]},"properties":{"osm_type":"node","osm_id":5283468292,"category":"wine_shop","name":"Vínečko","tags":{"name":"Vínečko","shop":"wine"}}},{"type":"Feature","id":"node/5300690223","geometry":{"type":"Point","coordinates":[17.23231,49.56955]},"properties":{"osm_type":"node","osm_id":5300690223,"category":"wine_shop","name":"Vinotéka","tags":{"name":"Vinotéka","shop":"wine"}}},{"type":"Feature","id":"node/5308595221","geometry":{"type":"Point","coordinates":[17.45584,49.06761]},"properties":{"osm_type":"node","osm_id":5308595221,"category":"winery","name":"Vinotéka Vaďura","tags":{"craft":"winery","name":"Vinotéka Vaďura"}}},{"type":"Feature","id":"node/5312470754","geometry":{"type":"Point","coordinates":[15.18162,50.7336]},"properties":{"osm_type":"node","osm_id":5312470754,"category":"wine_shop","tags":{"shop":"wine"}}},{"type":"Feature","id":"node/5313520050","geometry":{"type":"Point","coordinates":[17.45904,49.06982]},"properties":{"osm_type":"node","osm_id":5313520050,"category":"winery","name":"Slovácká vinotéka","tags":{"craft":"winery","name":"Slovácká vinotéka"}}},{"type":"Feature","id":"node/5325769404","geometry":{"type":"Point","coordinates":[17.47393,49.44899]},"properties":{"osm_type":"node","osm_id":5325769404,"category":"wine_shop","name":"Vinotéka & Kavárna","tags":{"addr:city":"Přerov","addr:housenumber":"3564/42","addr:postcode":"75002","addr:street":"Želatovská","email":"obchod@vinoteka-prerov.cz","name":"Vinotéka & Kavárna","opening_hours":"Mo-Su 07:00-20:00","phone":"+420 587 408 080","shop":"wine","website":"https://www.vinoteka-prerov.cz/"}}},{"type":"Feature","id":"node/5384055666","geometry":{"type":"Point","coordinates":[16.6177,49.21245]},"properties":{"osm_type":"node","osm_id":5384055666,"category":"wine_shop","name":"Ve Sklepě","tags":{"addr:housenumber":"852/64","addr:street":"Lesnická","name":"Ve Sklepě","opening_hours":"Mo-Fr 11:00-19:00","phone":"+420608548683","shop":"wine","website":"https://vesklepe-vinny-bar.webnode.cz","wheelchair":"no"}}},{"type":"Feature","id":"node/5398566421","geometry":{"type":"Point","coordinates":[17.33841,49.0699]},"properties":{"osm_type":"node","osm_id":5398566421,"category":"wine_shop","tags":{"shop":"wine"}}},{"type":"Feature","id":"node/5503392244","geometry":{"type":"Point","coordinates":[17.26798,48.87773]},"properties":{"osm_type":"node","osm_id":5503392244,"category":"wine_shop","name":"Vinařství Svoboda","tags":{"name":"Vinařství Svoboda","shop":"wine","website":"www.vinarstvisvoboda.cz"}}},{"type":"Feature","id":"node/5503392280","geometry":{"type":"Point","coordinates":[17.27242,48.87754]},"properties":{"osm_type":"node","osm_id":5503392280,"category":"wine_shop","name":"60 - Vinařství Svoboda","tags":{"name":"60 - Vinařství Svoboda","shop":"wine","website":"www.vinarstvisvoboda.cz"}}},{"type":"Feature","id":"node/5503392296","geometry":{"type":"Point","coordinates":[17.27137,48.87693]},"properties":{"osm_type":"node","osm_id":5503392296,"category":"wine_shop","name":"30 - Vinařství Klásek","tags":{"name":"30 - Vinařství Klásek","shop":"wine","website":"https://www.vinarstviklasek.cz/"}}},{"type":"Feature","id":"node/5503392315","geometry":{"type":"Point","coordinates":[17.27153,48.8777]},"properties":{"osm_type":"node","osm_id":5503392315,"category":"wine_shop","name":"19 - Vinařství Dobčákovi","tags":{"name":"19 - Vinařství Dobčákovi","shop":"wine","website":"https://www.vinarstvidobcakovi.cz/"}}},{"type":"Feature","id":"node/5503392323","geometry":{"type":"Point","coordinates":[17.2718,48.8779]},"properties":{"osm_type":"node","osm_id":5503392323,"category":"winery","name":"11 - Vinařství Tomanovský","tags":{"craft":"winery","name":"11 - Vinařství Tomanovský","operator":"Vinařství Tomanovský","shop":"wine","website":"https://www.tomanovsky.cz/"}}},{"type":"Feature","id":"node/5503392330","geometry":{"type":"Point","coordinates":[17.27125,48.87827]},"properties":{"osm_type":"node","osm_id":5503392330,"category":"wine_shop","name":"4 - Vinařství Hartman","tags":{"name":"4 - Vinařství Hartman","shop":"wine","website":"https://sklepypetrov.webnode.cz/"}}},{"type":"Feature","id":"node/5511701829","geometry":{"type":"Point","coordinates":[14.45496,50.07554]},"properties":{"osm_type":"node","osm_id":5511701829,"category":"wine_shop","name":"Grape & Sour Wine Bar","tags":{"addr:city":"Praha","addr:housenumber":"105","addr:postcode":"130 00","addr:street":"Korunní","email":"grapensour@gmail.com","name":"Grape & Sour Wine Bar","opening_hours":"Mo-Fr 16:00-22:00; Sa 16:00-22:00","operator":"Korunní 105","phone":"+420 728 315 612","shop":"wine","website":"http://grapensour.cz"}}},{"type":"Feature","id":"node/5544792472","geometry":{"type":"Point","coordinates":[14.46214,50.087]},"properties":{"osm_type":"node","osm_id":5544792472,"category":"wine_shop","name":"La Fattoria","tags":{"name":"La Fattoria","opening_hours":"Mo-Fr 08:00-16:00","shop":"wine"}}},{"type":"Feature","id":"node/5611992642","geometry":{"type":"Point","coordinates":[14.49015,50.10434]},"properties":{"osm_type":"node","osm_id":5611992642,"category":"wine_shop","name":"Bohemia Wine","tags":{"name":"Bohemia Wine","shop":"wine"}}},{"type":"Feature","id":"node/5732528100","geometry":{"type":"Point","coordinates":[16.60866,49.91112]},"properties":{"osm_type":"node","osm_id":5732528100,"category":"wine_shop","name":"Vinotéka Poklady z Moravy","tags":{"name":"Vinotéka Poklady z Moravy","shop":"wine"}}},{"type":"Feature","id":"node/5756830224","geometry":{"type":"Point","coordinates":[17.25279,49.59415]},"properties":{"osm_type":"node","osm_id":5756830224,"category":"winery","name":"Na brehu Rhony","tags":{"addr:housenumber":"2","addr:street":"Dolni namesti","craft":"winery","name":"Na brehu Rhony"}}},{"type":"Feature","id":"node/5774052553","geometry":{"type":"Point","coordinates":[18.00723,49.14126]},"properties":{"osm_type":"node","osm_id":5774052553,"category":"wine_shop","name":"Vinotéka - Pivotéka U Aničky","tags":{"name":"Vinotéka - Pivotéka U Aničky","opening_hours":"Mo-Fr 08:30-17:00; Sa 08:00-12:00","shop":"wine"}}},{"type":"Feature","id":"node/5776691193","geometry":{"type":"Point","coordinates":[17.02114,48.86232]},"properties":{"osm_type":"node","osm_id":5776691193,"category":"winery","name":"Vinacz","tags":{"craft":"winery","email":"vinacz@vinacz.cz","name":"Vinacz","phone":"+420 518 372 467","website":"https://vinacz.cz/"}}},{"type":"Feature","id":"node/5863161609","geometry":{"type":"Point","coordinates":[14.51798,50.05321]},"properties":{"osm_type":"node","osm_id":5863161609,"category":"wine_shop","name":"Cavum Carolinum","tags":{"name":"Cavum Carolinum","opening_hours":"Mo-Fr 09:00-21:00; Sa,Su 10:00-21:00","shop":"wine","website":"https://www.to-nej-vino.cz/"}}},{"type":"Feature","id":"node/5867387285","geometry":{"type":"Point","coordinates":[16.71833,49.10081]},"properties":{"osm_type":"node","osm_id":5867387285,"category":"wine_shop","name":"Vinotéka U Hrdličky","tags":{"name":"Vinotéka U Hrdličky","opening_hours":"Mo-Fr 08:30-11:30,13:30-17:30; Sa 08:00-11:00","shop":"wine","wheelchair":"yes"}}},{"type":"Feature","id":"node/5873388687","geometry":{"type":"Point","coordinates":[14.50049,50.0754]},"properties":{"osm_type":"node","osm_id":5873388687,"category":"wine_shop","name":"Vinný Bar Ken&Oliver","tags":{"addr:city":"Praha 10","addr:street":"Turnovského","name":"Vinný Bar Ken&Oliver","opening_hours":"12:00-21:00","phone":"+420 608 541 463","shop":"wine"}}},{"type":"Feature","id":"node/5881495086","geometry":{"type":"Point","coordinates":[14.49533,50.0771]},"properties":{"osm_type":"node","osm_id":5881495086,"category":"wine_shop","name":"Víno Hruška","tags":{"addr:street":"Černokostelecká","name":"Víno Hruška","name:en":"Wine Bar","opening_hours":"Mo 16:00-21:00; Tu-We 14:00-21:00; Th-Fr 14:00-22:00","phone":"+420 607 603 110","shop":"wine"}}},{"type":"Feature","id":"node/5962086800","geometry":{"type":"Point","coordinates":[16.5339,49.19724]},"properties":{"osm_type":"node","osm_id":5962086800,"category":"wine_shop","name":"Vinotéka Swapna","tags":{"email":"info@vinoteka-swapna.cz","name":"Vinotéka Swapna","opening_hours":"Mo-Fr 09:00-12:00,14:00-19:00; Sa 09:00-13:00; Su 16:00-20:00","phone":"+420 724 279 420","shop":"wine","website":"http://www.vinoteka-swapna.cz/"}}},{"type":"Feature","id":"node/5981194392","geometry":{"type":"Point","coordinates":[16.60238,49.20189]},"properties":{"osm_type":"node","osm_id":5981194392,"category":"winery","name":"Vindom Degustační Enoteca","tags":{"craft":"winery","email":"rezervace@vindom.cz","name":"Vindom Degustační Enoteca","opening_hours":"Tu-Sa 16:00-22:00","shop":"wine","website":"http://www.degustacnienoteca.cz/"}}},{"type":"Feature","id":"node/5983066250","geometry":{"type":"Point","coordinates":[17.49108,49.06646]},"properties":{"osm_type":"node","osm_id":5983066250,"category":"wine_shop","name":"Vinný sklep U Kieryků","tags":{"name":"Vinný sklep U Kieryků","shop":"wine"}}},{"type":"Feature","id":"node/5983066255","geometry":{"type":"Point","coordinates":[17.48258,49.07057]},"properties":{"osm_type":"node","osm_id":5983066255,"category":"wine_shop","name":"Vinny sklep u Marholtů","tags":{"name":"Vinny sklep u Marholtů","shop":"wine"}}},{"type":"Feature","id":"node/5983066256","geometry":{"type":"Point","coordinates":[17.48353,49.07168]},"properties":{"osm_type":"node","osm_id":5983066256,"category":"wine_shop","name":"Vinařství Rochůz s.r.o.","tags":{"name":"Vinařství Rochůz s.r.o.","shop":"wine"}}},{"type":"Feature","id":"node/5983102983","geometry":{"type":"Point","coordinates":[17.47463,49.03858]},"properties":{"osm_type":"node","osm_id":5983102983,"category":"wine_shop","name":"Vinný sklep Veronika Omastová","tags":{"name":"Vinný sklep Veronika Omastová","shop":"wine"}}},{"type":"Feature","id":"node/6016374059","geometry":{"type":"Point","coordinates":[16.62542,49.22183]},"properties":{"osm_type":"node","osm_id":6016374059,"category":"wine_shop","name":"Vinotéka a wine bar Pavlovín","tags":{"addr:city":"Brno","addr:housenumber":"732/5","addr:postcode":"63800","addr:street":"Okružní","amenity":"bar","name":"Vinotéka a wine bar Pavlovín","opening_hours":"Mo-Su 10:00-21:00","shop":"wine","website":"https://www.pavlovin.cz/","wheelchair":"no"}}},{"type":"Feature","id":"node/6053068658","geometry":{"type":"Point","coordinates":[16.84855,48.92062]},"properties":{"osm_type":"node","osm_id":6053068658,"category":"winery","name":"AB vinný sklípek","tags":{"craft":"winery","name":"AB vinný sklípek"}}},{"type":"Feature","id":"node/6168266274","geometry":{"type":"Point","coordinates":[14.10176,50.14603]},"properties":{"osm_type":"node","osm_id":6168266274,"category":"wine_shop","name":"Zdeňka Provazníková","tags":{"name":"Zdeňka Provazníková","shop":"wine"}}},{"type":"Feature","id":"node/6183605722","geometry":{"type":"Point","coordinates":[12.18678,50.22617]},"properties":{"osm_type":"node","osm_id":6183605722,"category":"wine_shop","name":"Vinárna LaRitma","tags":{"name":"Vinárna LaRitma","shop":"wine"}}},{"type":"Feature","id":"node/6197767616","geometry":{"type":"Point","coordinates":[16.89913,48.91748]},"properties":{"osm_type":"node","osm_id":6197767616,"category":"winery","name":"Areál vinných sklepů","tags":{"craft":"winery","name":"Areál vinných sklepů"}}},{"type":"Feature","id":"node/6197809813","geometry":{"type":"Point","coordinates":[16.88963,48.93453]},"properties":{"osm_type":"node","osm_id":6197809813,"category":"winery","name":"Kobylská sklepní ulička","tags":{"craft":"winery","name":"Kobylská sklepní ulička"}}},{"type":"Feature","id":"node/6198782386","geometry":{"type":"Point","coordinates":[17.07637,48.84083]},"properties":{"osm_type":"node","osm_id":6198782386,"category":"winery","name":"Vinné sklepy","tags":{"craft":"winery","name":"Vinné sklepy"}}},{"type":"Feature","id":"node/6198782387","geometry":{"type":"Point","coordinates":[17.01854,48.79999]},"properties":{"osm_type":"node","osm_id":6198782387,"category":"winery","name":"Sklepní uličky U trati, Výmol a Zátiší","tags":{"craft":"winery","name":"Sklepní uličky U trati, Výmol a Zátiší"}}},{"type":"Feature","id":"node/6198782389","geometry":{"type":"Point","coordinates":[17.02744,48.79949]},"properties":{"osm_type":"node","osm_id":6198782389,"category":"winery","name":"Neoveská vinařská stezka","tags":{"craft":"winery","name":"Neoveská vinařská stezka"}}},{"type":"Feature","id":"node/6200460588","geometry":{"type":"Point","coordinates":[17.18874,49.02347]},"properties":{"osm_type":"node","osm_id":6200460588,"category":"winery","name":"Sklepní kolonie Pod hýselskú horú","tags":{"craft":"winery","name":"Sklepní kolonie Pod hýselskú horú"}}},{"type":"Feature","id":"node/6200517202","geometry":{"type":"Point","coordinates":[17.34113,49.035]},"properties":{"osm_type":"node","osm_id":6200517202,"category":"winery","name":"areál U Sklepů","tags":{"craft":"winery","name":"areál U Sklepů"}}},{"type":"Feature","id":"node/6200658675","geometry":{"type":"Point","coordinates":[17.25833,48.86391]},"properties":{"osm_type":"node","osm_id":6200658675,"category":"winery","name":"Sklepni ulička Starý potok","tags":{"craft":"winery","name":"Sklepni ulička Starý potok"}}},{"type":"Feature","id":"node/6207053697","geometry":{"type":"Point","coordinates":[16.55295,49.33653]},"properties":{"osm_type":"node","osm_id":6207053697,"category":"wine_shop","name":"Vinotéka Lipůvka","tags":{"name":"Vinotéka Lipůvka","opening_hours":"Mo-Su 09:00-21:00","shop":"wine"}}},{"type":"Feature","id":"node/6258651449","geometry":{"type":"Point","coordinates":[14.63316,50.90994]},"properties":{"osm_type":"node","osm_id":6258651449,"category":"wine_shop","name":"Vinotheka","tags":{"name":"Vinotheka","shop":"wine"}}},{"type":"Feature","id":"node/6374342470","geometry":{"type":"Point","coordinates":[16.53951,49.19522]},"properties":{"osm_type":"node","osm_id":6374342470,"category":"wine_shop","name":"Blended Wine","tags":{"name":"Blended Wine","opening_hours":"Mo-Su 11:00-20:00","shop":"wine"}}},{"type":"Feature","id":"node/6414389157","geometry":{"type":"Point","coordinates":[17.17381,48.94572]},"properties":{"osm_type":"node","osm_id":6414389157,"category":"wine_cellar","name":"Habánský sklep","tags":{"name":"Habánský sklep","tourism":"wine_cellar"}}},{"type":"Feature","id":"node/6467517596","geometry":{"type":"Point","coordinates":[17.15675,48.95425]},"properties":{"osm_type":"node","osm_id":6467517596,"category":"winery","name":"Vinařství Krist","tags":{"craft":"winery","name":"Vinařství Krist"}}},{"type":"Feature","id":"node/6470526286","geometry":{"type":"Point","coordinates":[14.44576,50.10087]},"properties":{"osm_type":"node","osm_id":6470526286,"category":"winery","name":"Vinotéka","tags":{"craft":"winery","name":"Vinotéka"}}},{"type":"Feature","id":"node/6604710316","geometry":{"type":"Point","coordinates":[15.88891,50.39787]},"properties":{"osm_type":"node","osm_id":6604710316,"category":"wine_shop","tags":{"shop":"wine"}}},{"type":"Feature","id":"node/6613003960","geometry":{"type":"Point","coordinates":[18.43257,49.88033]},"properties":{"osm_type":"node","osm_id":6613003960,"category":"wine_shop","name":"Staroveské centrum vína","tags":{"name":"Staroveské centrum vína","opening_hours":"Mo-Su 08:00-20:00","shop":"wine","website":"https://www.scvina.cz/rubriky/pobocky/-orlova-oc-kaufland-okruzni-1430-autobusove-nadrazi/"}}},{"type":"Feature","id":"node/6657466586","geometry":{"type":"Point","coordinates":[16.81847,48.89737]},"properties":{"osm_type":"node","osm_id":6657466586,"category":"wine_shop","name":"Vinařství Baloun","tags":{"name":"Vinařství Baloun","opening_hours":"Mo-Fr 07:00-15:30","shop":"wine"}}},{"type":"Feature","id":"node/6657704185","geometry":{"type":"Point","coordinates":[16.81873,48.89572]},"properties":{"osm_type":"node","osm_id":6657704185,"category":"wine_shop","name":"Vinařství Zborovský","tags":{"name":"Vinařství Zborovský","shop":"wine"}}},{"type":"Feature","id":"node/6677155486","geometry":{"type":"Point","coordinates":[16.63907,49.36001]},"properties":{"osm_type":"node","osm_id":6677155486,"category":"wine_shop","name":"VinárnaStarák","tags":{"name":"VinárnaStarák","shop":"wine"}}},{"type":"Feature","id":"node/6682101153","geometry":{"type":"Point","coordinates":[16.63862,48.80986]},"properties":{"osm_type":"node","osm_id":6682101153,"category":"wine_shop","tags":{"shop":"wine"}}},{"type":"Feature","id":"node/6682101154","geometry":{"type":"Point","coordinates":[16.63864,48.81022]},"properties":{"osm_type":"node","osm_id":6682101154,"category":"wine_shop","tags":{"shop":"wine"}}},{"type":"Feature","id":"node/6682174223","geometry":{"type":"Point","coordinates":[16.6505,48.81238]},"properties":{"osm_type":"node","osm_id":6682174223,"category":"wine_shop","tags":{"shop":"wine"}}},{"type":"Feature","id":"node/6697032120","geometry":{"type":"Point","coordinates":[16.58186,49.16979]},"properties":{"osm_type":"node","osm_id":6697032120,"category":"wine_shop","name":"Vinotéka Transvín","tags":{"name":"Vinotéka Transvín","opening_hours":"Mo-Fr 10:00-12:00,13:00-20:00; Sa 09:00-12:00","shop":"wine"}}},{"type":"Feature","id":"node/6702971421","geometry":{"type":"Point","coordinates":[14.44215,50.07754]},"properties":{"osm_type":"node","osm_id":6702971421,"category":"wine_shop","name":"Assaggio","tags":{"addr:city":"Praha 2","addr:housenumber":"40","addr:postcode":"12000","addr:street":"Budečská","name":"Assaggio","opening_hours":"Mo-Su 16:00-24:00","shop":"wine"}}},{"type":"Feature","id":"node/6723012812","geometry":{"type":"Point","coordinates":[14.46963,50.35272]},"properties":{"osm_type":"node","osm_id":6723012812,"category":"wine_shop","tags":{"shop":"wine"}}},{"type":"Feature","id":"node/6726096441","geometry":{"type":"Point","coordinates":[17.02051,48.86212]},"properties":{"osm_type":"node","osm_id":6726096441,"category":"winery","name":"Bojanovské búdy, s.r.o.","tags":{"addr:city":"Dolní Bojanovice","addr:housenumber":"995","addr:postcode":"69617","addr:street":"Vinařská","craft":"winery","email":"info@bojanovskebudy.cz","name":"Bojanovské búdy, s.r.o.","operator":"Bojanovské búdy, s.r.o.","phone":"+420 721 662 976","website":"https://www.bojanovskebudy.cz/"}}},{"type":"Feature","id":"node/6726096443","geometry":{"type":"Point","coordinates":[17.01921,48.8617]},"properties":{"osm_type":"node","osm_id":6726096443,"category":"winery","name":"Vinařství Blažek","tags":{"craft":"winery","email":"vinarstvi.blazek@seznam.cz","name":"Vinařství Blažek","operator":"Antonín Blažek","phone":"+420 775 955 255","website":"https://www.vinarstvi-blazek.cz/"}}},{"type":"Feature","id":"node/6726096444","geometry":{"type":"Point","coordinates":[17.02042,48.86197]},"properties":{"osm_type":"node","osm_id":6726096444,"category":"winery","name":"Vinařství Šebesta","tags":{"craft":"winery","email":"eliskasebestova@seznam.cz","name":"Vinařství Šebesta","opening_hours":"Mo-Fr 08:00-17:00","operator":"Pavel Šebesta","phone":"+420 733 566 867","website":"https://www.vinosebesta.cz/"}}},{"type":"Feature","id":"node/6726143753","geometry":{"type":"Point","coordinates":[17.01826,48.86113]},"properties":{"osm_type":"node","osm_id":6726143753,"category":"winery","name":"Bojanovský sklep U Kaňů","tags":{"craft":"winery","email":"martin@bojanovskysklep.cz","name":"Bojanovský sklep U Kaňů","operator":"Martin Kaňa","phone":"+420 777 654 001"}}},{"type":"Feature","id":"node/6726143754","geometry":{"type":"Point","coordinates":[17.02013,48.86213]},"properties":{"osm_type":"node","osm_id":6726143754,"category":"winery","name":"Vinný sklep Černý","tags":{"craft":"winery","email":"sklep.cerny@seznam.cz","name":"Vinný sklep Černý","phone":"+420 723 023 353"}}},{"type":"Feature","id":"node/6815775453","geometry":{"type":"Point","coordinates":[14.01461,50.42997]},"properties":{"osm_type":"node","osm_id":6815775453,"category":"wine_shop","name":"Johann W","tags":{"name":"Johann W","shop":"wine"}}},{"type":"Feature","id":"node/6821873185","geometry":{"type":"Point","coordinates":[16.5422,49.16315]},"properties":{"osm_type":"node","osm_id":6821873185,"category":"wine_shop","name":"Vinotéka","tags":{"name":"Vinotéka","shop":"wine"}}},{"type":"Feature","id":"node/6834749624","geometry":{"type":"Point","coordinates":[16.67532,48.87371]},"properties":{"osm_type":"node","osm_id":6834749624,"category":"wine_cellar","name":"Vinárna U Bednářů","tags":{"addr:city":"Pavlov","addr:housenumber":"218","addr:postcode":"69201","addr:street":"Družstevní","amenity":"restaurant","cuisine":"regional;wine","name":"Vinárna U Bednářů","opening_hours":"Jul,Aug: Mo-Sa 17:00-23:00; Apr-Jun,Sep-Nov: We-Sa 17:00-22:00; Feb,Mar: Sa,Su 17:00-22:00","phone":"+420519515110","tourism":"wine_cellar","website":"https://www.penzionubednaru.cz/","wheelchair":"limited"}}},{"type":"Feature","id":"node/6901065830","geometry":{"type":"Point","coordinates":[14.46813,50.35459]},"properties":{"osm_type":"node","osm_id":6901065830,"category":"winery","name":"Bettina Lobkowicz Vinařství","tags":{"craft":"winery","name":"Bettina Lobkowicz Vinařství","operator":"Bettina Lobkowicz s.r.o","phone":"+420 315 622 108","website":"https://www.lobkowicz-vinarstvi.cz/"}}},{"type":"Feature","id":"node/6929445730","geometry":{"type":"Point","coordinates":[16.75697,48.73977]},"properties":{"osm_type":"node","osm_id":6929445730,"category":"wine_cellar","name":"Zámecký sklep A.D. 1430","tags":{"addr:city":"Valtice","addr:housenumber":"1","addr:postcode":"69142","addr:street":"Zámek","email":"sekretariat@vsvaltice.cz","name":"Zámecký sklep A.D. 1430","opening_hours":"May-Jun,Sep: Sa-Su 10:00-18:00; Jul-Aug: 10:00-18:00; Oct: Sa-Su \"call us\"","operator":"CHÂTEAU VALTICE - Vinné sklepy Valtice, a. s.","phone":"+420 606 309 959","shop":"wine","tourism":"wine_cellar","website":"https://www.vsvaltice.cz/vinne-sklepy/zamecky-sklep-a-d-1430/"}}},{"type":"Feature","id":"node/6929534516","geometry":{"type":"Point","coordinates":[16.75561,48.73951]},"properties":{"osm_type":"node","osm_id":6929534516,"category":"wine_shop","name":"Salon vín České republiky","tags":{"addr:city":"Valtice","addr:housenumber":"1","addr:postcode":"69142","addr:street":"Zámek","email":"salonvin@vinarskecentrum.cz","name":"Salon vín České republiky","opening_hours":"Oct-May: Tu-Th 09:30-17:00, Fr-Sa 10:30-18:00; Jun-Sep: Tu-Th 09:30-17:00, Fr-Sa 10:30-18:00, Su 10:30-17:00","phone":"+420 606 028 574","shop":"wine","website":"https://www.vinarskecentrum.cz/"}}},{"type":"Feature","id":"node/6964537332","geometry":{"type":"Point","coordinates":[16.89796,48.8597]},"properties":{"osm_type":"node","osm_id":6964537332,"category":"wine_cellar","name":"Vinotéka u staré hrušky","tags":{"name":"Vinotéka u staré hrušky","tourism":"wine_cellar"}}},{"type":"Feature","id":"node/6966391170","geometry":{"type":"Point","coordinates":[16.62414,48.83543]},"properties":{"osm_type":"node","osm_id":6966391170,"category":"wine_shop","name":"Vinařský dům Gala","tags":{"addr:city":"Bavory","addr:housenumber":"158","addr:postcode":"69201","addr:street":"Bavory","email":"alzbeta@galavinarstvi.cz","name":"Vinařský dům Gala","phone":"+420 603 570 013","shop":"wine","tourism":"guest_house","website":"https://www.galavinarstvi.cz/"}}},{"type":"Feature","id":"node/6966391171","geometry":{"type":"Point","coordinates":[16.6252,48.83808]},"properties":{"osm_type":"node","osm_id":6966391171,"category":"winery","name":"Gala Vinařství","tags":{"addr:city":"Bavory","addr:housenumber":"172","addr:postcode":"69201","addr:street":"Bavory","craft":"winery","email":"info@galavinarstvi.cz","name":"Gala Vinařství","phone":"+420 603 570 013","shop":"wine","website":"https://www.galavinarstvi.cz/"}}},{"type":"Feature","id":"node/6966452462","geometry":{"type":"Point","coordinates":[16.67659,48.87575]},"properties":{"osm_type":"node","osm_id":6966452462,"category":"winery","name":"Vinařství Plenér","tags":{"addr:city":"Pavlov","addr:housenumber":"94","addr:postcode":"69201","addr:street":"23. dubna","craft":"winery","email":"dominika@vinarstviplener.cz","name":"Vinařství Plenér","phone":"+420 774 109 486","shop":"wine","tourism":"wine_cellar","website":"https://www.vinarstviplener.cz/cs/"}}},{"type":"Feature","id":"node/6966801805","geometry":{"type":"Point","coordinates":[16.69338,48.92744]},"properties":{"osm_type":"node","osm_id":6966801805,"category":"winery","name":"Vinařství Sonberk","tags":{"addr:city":"Popice","addr:housenumber":"393","addr:postcode":"69127","addr:street":"Sonberk","craft":"winery","email":"sonberk@sonberk.cz","name":"Vinařství Sonberk","opening_hours":"Mar-Nov Su-Th 10:00-18:00; Mar-Nov Fr,Sa 10:00-20:00","operator":"Sonberk a.s.","phone":"+420 777 630 434","website":"https://www.sonberk.cz/cs/"}}},{"type":"Feature","id":"node/6967027711","geometry":{"type":"Point","coordinates":[16.90857,48.85692]},"properties":{"osm_type":"node","osm_id":6967027711,"category":"winery","name":"Malý vinař","tags":{"addr:city":"Velké Bílovice","addr:housenumber":"1465","addr:postcode":"69102","addr:street":"Sadová","craft":"winery","email":"malyvinar@slunce.cz","name":"Malý vinař","opening_hours":"Mo-Fr 07:00-15:30","operator":"Hana Mádlová","phone":"+420 774 243 457","shop":"wine","website":"https://malyvinar.com/","wheelchair":"yes"}}},{"type":"Feature","id":"node/6968568698","geometry":{"type":"Point","coordinates":[16.66825,48.8755]},"properties":{"osm_type":"node","osm_id":6968568698,"category":"winery","name":"Sklep Padesatosm","tags":{"addr:city":"Pavlov","addr:housenumber":"58","addr:postcode":"69201","addr:street":"Na Cimbuří","craft":"winery","email":"info@padesatosm.cz","name":"Sklep Padesatosm","phone":"+420 739 634 311","website":"https://www.padesatosm.cz/"}}},{"type":"Feature","id":"node/6968568699","geometry":{"type":"Point","coordinates":[16.66762,48.87542]},"properties":{"osm_type":"node","osm_id":6968568699,"category":"winery","name":"Vinařství Vajay","tags":{"addr:city":"Pavlov","addr:housenumber":"53","addr:postcode":"69201","addr:street":"Na Cimbuří","craft":"winery","email":"valentin.vajay@centrum.cz","name":"Vinařství Vajay","phone":"+420 777 817 618"}}},{"type":"Feature","id":"node/6968568700","geometry":{"type":"Point","coordinates":[16.66722,48.87543]},"properties":{"osm_type":"node","osm_id":6968568700,"category":"winery","name":"Vinařství Paulus","tags":{"addr:city":"Pavlov","addr:housenumber":"159","addr:postcode":"69201","addr:street":"Na Cimbuří","craft":"winery","email":"obchod@vinarstvipaulus.cz","name":"Vinařství Paulus","operator":"Vinařství Paulus s.r.o.","phone":"+420775262008","shop":"wine","tourism":"wine_cellar","website":"https://www.vinarstvipaulus.cz/","wheelchair":"yes"}}},{"type":"Feature","id":"node/6968568703","geometry":{"type":"Point","coordinates":[16.67685,48.87659]},"properties":{"osm_type":"node","osm_id":6968568703,"category":"wine_shop","name":"Sousedi Pavlov","tags":{"addr:city":"Pavlov","addr:housenumber":"30","addr:postcode":"69201","addr:street":"23. dubna","amenity":"cafe","cuisine":"coffee_shop;cake;wine;tapas","email":"info@sousedipavlov.cz","name":"Sousedi Pavlov","phone":"+420 606 288 678","shop":"wine","website":"https://www.sousedipavlov.cz/","wheelchair":"yes"}}},{"type":"Feature","id":"node/6968916338","geometry":{"type":"Point","coordinates":[16.66649,48.87154]},"properties":{"osm_type":"node","osm_id":6968916338,"category":"winery","name":"Abrle Biovíno","tags":{"addr:city":"Pavlov","addr:housenumber":"191","addr:postcode":"69201","addr:street":"Rudolfa Gajdoše","craft":"winery","email":"josef.abrle@bio-produkty.cz","name":"Abrle Biovíno","phone":"+420 604 579 736","website":"https://www.bio-produkty.cz/index.php/cs/"}}},{"type":"Feature","id":"node/6968916339","geometry":{"type":"Point","coordinates":[16.66636,48.87138]},"properties":{"osm_type":"node","osm_id":6968916339,"category":"winery","name":"Vinařství Jiří Šilinek","tags":{"addr:city":"Pavlov","addr:housenumber":"192","addr:postcode":"69201","addr:street":"Rudolfa Gajdoše","craft":"winery","email":"silinek@silinek.eu","name":"Vinařství Jiří Šilinek","phone":"+420 519 515 395","website":"https://www.silinek.eu/"}}},{"type":"Feature","id":"node/6968916340","geometry":{"type":"Point","coordinates":[16.66919,48.87487]},"properties":{"osm_type":"node","osm_id":6968916340,"category":"wine_cellar","name":"Jirkův sklep","tags":{"addr:city":"Pavlov","addr:housenumber":"210","addr:postcode":"69201","addr:street":"Česká","email":"lenkasilinkova@seznam.cz","name":"Jirkův sklep","opening_hours":"Jul,Aug: Mo-Su 17:00-22:00","phone":"+420 606 700 786","shop":"wine","tourism":"wine_cellar","website":"http://www.jirkuvsklep.cz/"}}},{"type":"Feature","id":"node/6969091437","geometry":{"type":"Point","coordinates":[16.67081,48.87447]},"properties":{"osm_type":"node","osm_id":6969091437,"category":"winery","name":"Vinařství Přátelé Pavlova","tags":{"addr:city":"Pavlov","addr:housenumber":"49","addr:postcode":"69201","addr:street":"Na Návsi","craft":"winery","email":"pavel@pritelpavlova.cz","name":"Vinařství Přátelé Pavlova","operator":"Přátelé Pavlova, s.r.o.","phone":"+420 602 500 266","shop":"wine","website":"https://www.pratelepavlova.cz/"}}},{"type":"Feature","id":"node/6969091438","geometry":{"type":"Point","coordinates":[16.66737,48.87338]},"properties":{"osm_type":"node","osm_id":6969091438,"category":"winery","name":"Přátelé Pavlova - vinný sklep","tags":{"addr:city":"Pavlov","addr:housenumber":"37","addr:postcode":"69201","addr:street":"Vinařská","craft":"winery","email":"pavel@pritelpavlova.cz","name":"Přátelé Pavlova - vinný sklep","operator":"Přátelé Pavlova, s.r.o.","phone":"+420 602 500 266","tourism":"wine_cellar","website":"https://www.pratelepavlova.cz/"}}},{"type":"Feature","id":"node/6970828623","geometry":{"type":"Point","coordinates":[16.66889,48.87435]},"properties":{"osm_type":"node","osm_id":6970828623,"category":"winery","name":"Vinařství Nepraš & Co.","tags":{"addr:city":"Pavlov","addr:housenumber":"187","addr:postcode":"69201","addr:street":"Česká","craft":"winery","email":"info@vinarstvinepras.cz","name":"Vinařství Nepraš & Co.","phone":"+420 775 605 783","shop":"wine","tourism":"wine_cellar","website":"http://vinarstvinepras.cz/"}}},{"type":"Feature","id":"node/6971011045","geometry":{"type":"Point","coordinates":[16.88215,48.93315]},"properties":{"osm_type":"node","osm_id":6971011045,"category":"winery","name":"Vína Herzánovi","tags":{"addr:city":"Kobylí","addr:housenumber":"562","addr:postcode":"69110","addr:street":"Kobylí","craft":"winery","email":"obchod@vinarstviherzanovi.eu","name":"Vína Herzánovi","phone":"+420 728 089 396","shop":"wine","website":"https://www.vinaherzanovi.cz/"}}},{"type":"Feature","id":"node/6971053254","geometry":{"type":"Point","coordinates":[17.15168,48.92781]},"properties":{"osm_type":"node","osm_id":6971053254,"category":"wine_shop","name":"Vinařství sv. Barbora","tags":{"addr:city":"Ratíškovice","addr:housenumber":"502","addr:postcode":"69602","addr:street":"Baťovka","email":"info@vinobarbora.cz","name":"Vinařství sv. Barbora","operator":"Vinařství sv. Barbora, s.r.o.","phone":"+420 606 710 166","shop":"wine","website":"https://www.vinobarbora.cz/"}}},{"type":"Feature","id":"node/6971061377","geometry":{"type":"Point","coordinates":[16.05583,48.82613]},"properties":{"osm_type":"node","osm_id":6971061377,"category":"winery","name":"Vinařství Špalek","tags":{"addr:city":"Nový Šaldorf-Sedlešovice","addr:housenumber":"104","addr:postcode":"67181","addr:street":"Nový Šaldorf-Sedlešovice","craft":"winery","email":"vino@spalek.bio","name":"Vinařství Špalek","opening_hours":"Mo-Fr 08:00-14:00","phone":"+420 515 243 802","website":"https://www.spalek.bio/spalek/"}}},{"type":"Feature","id":"node/6971095375","geometry":{"type":"Point","coordinates":[16.72553,48.93373]},"properties":{"osm_type":"node","osm_id":6971095375,"category":"winery","name":"Vinařství Fabig","tags":{"addr:city":"Hustopeče","addr:housenumber":"1411/37c","addr:postcode":"69301","addr:street":"Nádražní","craft":"winery","email":"info@fabig.cz","name":"Vinařství Fabig","operator":"FABIG s.r.o.","phone":"+420 608 522 480","shop":"wine","website":"https://www.fabig.cz/"}}},{"type":"Feature","id":"node/6971189805","geometry":{"type":"Point","coordinates":[16.82091,48.93502]},"properties":{"osm_type":"node","osm_id":6971189805,"category":"winery","name":"Víno J. Stávek","tags":{"addr:city":"Němčičky","addr:housenumber":"176","addr:postcode":"69107","addr:street":"Němčičky","craft":"winery","email":"alena@jstavek.cz","name":"Víno J. Stávek","opening_hours":"Mo-Fr 08:00-16:00","operator":"Ing. Jan Stávek, Ph.D.","phone":"+420 777 906 991","shop":"wine","tourism":"wine_cellar","website":"http://www.jstavek.cz/"}}},{"type":"Feature","id":"node/6971727741","geometry":{"type":"Point","coordinates":[16.66902,48.87541]},"properties":{"osm_type":"node","osm_id":6971727741,"category":"wine_cellar","name":"Sekt bar","tags":{"addr:city":"Pavlov","addr:housenumber":"252","addr:postcode":"69201","addr:street":"Česká","amenity":"restaurant","cuisine":"coffee_shop;tapas;cake;sandwich;wine","email":"info@sektbarpavlov.cz","name":"Sekt bar","opening_hours":"Th 16:00-22:00; Fr 16:00-23:00; Sa 15:00-23:00; Su 15:00-22:00","operator":"Pálavská sektárna Pavlov,s.r.o.","phone":"+420 604 406 552","shop":"wine","tourism":"wine_cellar","website":"http://sektbarpavlov.cz/"}}},{"type":"Feature","id":"node/6972711460","geometry":{"type":"Point","coordinates":[16.66609,48.87182]},"properties":{"osm_type":"node","osm_id":6972711460,"category":"winery","name":"Vinařství Prágerovi","tags":{"addr:city":"Pavlov","addr:housenumber":"20","addr:postcode":"69201","addr:street":"Vinařská","craft":"winery","email":"jaja.pragerova@seznam.cz","name":"Vinařství Prágerovi","phone":"+420 602 775 504","tourism":"wine_cellar","website":"https://pragerovi-cz.webnode.cz/"}}},{"type":"Feature","id":"node/6973287368","geometry":{"type":"Point","coordinates":[16.67055,48.87214]},"properties":{"osm_type":"node","osm_id":6973287368,"category":"winery","name":"Vinařství Zatloukal","tags":{"addr:city":"Pavlov","addr:housenumber":"211","addr:postcode":"69201","addr:street":"Klentnická","craft":"winery","email":"vino@zatloukalpavlov.cz","name":"Vinařství Zatloukal","phone":"+420 603 483 614","shop":"wine","website":"https://www.zatloukalpavlov.cz/"}}},