{"type":"FeatureCollection","features":[{"type":"Feature","id":"node/251758263","geometry":{"type":"Point","coordinates":[2.3415929,48.873249]},"properties":{"osm_type":"node","osm_id":251758263,"category":"wine_bar","name":"I Golosi","tags":{"amenity":"wine_bar","name":"I Golosi"}}},{"type":"Feature","id":"node/252625380","geometry":{"type":"Point","coordinates":[2.3773631,48.8567799]},"properties":{"osm_type":"node","osm_id":252625380,"category":"wine_bar","name":"Les marcheurs de planète","tags":{"amenity":"wine_bar","name":"Les marcheurs de planète"}}},{"type":"Feature","id":"node/302035119","geometry":{"type":"Point","coordinates":[3.89727,43.7247627]},"properties":{"osm_type":"node","osm_id":302035119,"category":"winery","name":"Domaine Clavel","tags":{"addr:city":"Assas","addr:postcode":"34820","addr:street":"Mas de Périé","craft":"winery","name":"Domaine Clavel","operator":"Clavel"}}},{"type":"Feature","id":"node/316800660","geometry":{"type":"Point","coordinates":[0.1880358,48.0378706]},"properties":{"osm_type":"node","osm_id":316800660,"category":"wine_shop","name":"Boire du Bon","tags":{"name":"Boire du Bon","opening_hours":"We 17:00-21:00; Th 11:00-13:00,17:00-21:00; Fr,Sa 11:00-13:00,17:00-00:00; Su 11:00-13:00,16:00-19:00","shop":"wine","website":"https://boiredubon.com/"}}},{"type":"Feature","id":"node/351914988","geometry":{"type":"Point","coordinates":[5.3408665,43.6028585]},"properties":{"osm_type":"node","osm_id":351914988,"category":"winery","name":"Domaine Bargemone","tags":{"addr:city":"Saint-Cannat","addr:postcode":"13760","addr:street":"Route d’Aix","craft":"winery","email":"contact@bargemone.com","name":"Domaine Bargemone","official_name":"Domaine Bargemone","opening_hours":"Mo-Fr 10:00-19:00; Sa 10:00-18:00","phone":"+33 4 42 57 22 44","website":"https://www.bargemone.com/","wheelchair":"yes"}}},{"type":"Feature","id":"node/399870544","geometry":{"type":"Point","coordinates":[5.7238106,45.1865887]},"properties":{"osm_type":"node","osm_id":399870544,"category":"wine_shop","name":"L'Échanson","tags":{"addr:street":"Rue Lakanal","name":"L'Échanson","opening_hours":"Tu-Sa 09:30-12:15,14:15-19:30","shop":"wine","wheelchair":"yes"}}},{"type":"Feature","id":"node/401881581","geometry":{"type":"Point","coordinates":[4.8857338,43.7234658]},"properties":{"osm_type":"node","osm_id":401881581,"category":"wine_shop","name":"Mas du Gourgonnier","tags":{"name":"Mas du Gourgonnier","opening_hours":"Mo-Sa 09:00-12:00,14:00-18:00; PH,Su 10:00-12:00,15:00-17:30","phone":"+33 4 90 47 50 45","shop":"wine","website":"http://www.gourgonnier.com"}}},{"type":"Feature","id":"node/421669517","geometry":{"type":"Point","coordinates":[5.2762277,43.8537705]},"properties":{"osm_type":"node","osm_id":421669517,"category":"wine_shop","name":"Cave Bonnieux","tags":{"addr:city":"Bonnieux","addr:postcode":"84480","addr:street":"Quartier de la Gare","name":"Cave Bonnieux","phone":"+33490758003","shop":"wine"}}},{"type":"Feature","id":"node/428064258","geometry":{"type":"Point","coordinates":[2.3807543,48.8453649]},"properties":{"osm_type":"node","osm_id":428064258,"category":"winery","name":"La belle échoppe","tags":{"craft":"winery","name":"La belle échoppe"}}},{"type":"Feature","id":"node/471507061","geometry":{"type":"Point","coordinates":[3.959082,49.0427986]},"properties":{"osm_type":"node","osm_id":471507061,"category":"winery","name":"Champagne Moët et Chandon","wikidata":"Q699529","wikipedia":"en:Moët & Chandon","tags":{"craft":"winery","name":"Champagne Moët et Chandon","tourism":"attraction","wikidata":"Q699529","wikipedia":"en:Moët & Chandon"}}},{"type":"Feature","id":"node/541918706","geometry":{"type":"Point","coordinates":[7.4917016,48.5245572]},"properties":{"osm_type":"node","osm_id":541918706,"category":"winery","name":"Bernard Bech","tags":{"craft":"winery","name":"Bernard Bech","opening_hours":"Mo-Sa 08:00-18:00"}}},{"type":"Feature","id":"node/559929086","geometry":{"type":"Point","coordinates":[3.8776479,43.7061572]},"properties":{"osm_type":"node","osm_id":559929086,"category":"winery","name":"Domaine Cour Saint-Vincent","tags":{"addr:city":"Saint-Vincent-de-Barbeyrargues","craft":"winery","name":"Domaine Cour Saint-Vincent"}}},{"type":"Feature","id":"node/561144497","geometry":{"type":"Point","coordinates":[6.1785329,48.6963319]},"properties":{"osm_type":"node","osm_id":561144497,"category":"wine_shop","name":"Le Petit Français","tags":{"name":"Le Petit Français","opening_hours":"Tu-Sa 10:00-13:00,15:00-19:30; Su 10:00-13:00","phone":"+33 3 55 20 62 34","shop":"wine","website":"http://www.le-petit-francais.fr/"}}},{"type":"Feature","id":"node/561292819","geometry":{"type":"Point","coordinates":[-1.620309,48.087463]},"properties":{"osm_type":"node","osm_id":561292819,"category":"wine_shop","name":"La Cave de Célestine","tags":{"addr:city":"Chantepie","addr:country":"FR","addr:postcode":"35135","addr:street":"Place des Marelles","name":"La Cave de Célestine","opening_hours":"Mo,We 15:00-19:30; Tu,Th 09:30-13:00,15:00-19:30; Fr 09:30-13:00,14:30-19:30; Sa 09:30-19:30","shop":"wine"}}},{"type":"Feature","id":"node/564804580","geometry":{"type":"Point","coordinates":[4.8231457,43.7396952]},"properties":{"osm_type":"node","osm_id":564804580,"category":"winery","name":"Mas de la Dame","tags":{"addr:city":"Les Baux-de-Provence","addr:postcode":"13520","craft":"winery","email":"masdeladame@masdeladame.com","name":"Mas de la Dame","opening_hours":"Apr 01-Oct 31, Mo-Su 09:00-19:00; Nov 01-Mar 31, Mo-Su 09:00-18:00;Jan Su,Dec 25,Jan 01 off","operator":"Caroline Missoffe;Anne Poniatowski","phone":"+33 4 90 54 32 24","shop":"alcohol","website":"https://masdeladame.com/"}}},{"type":"Feature","id":"node/601551803","geometry":{"type":"Point","coordinates":[5.3826563,43.2949955]},"properties":{"osm_type":"node","osm_id":601551803,"category":"wine_shop","name":"Plus Belle la Vigne","tags":{"name":"Plus Belle la Vigne","opening_hours":"Mo-Sa 10:30-13:00,16:00-20:00","shop":"wine"}}},{"type":"Feature","id":"node/603773613","geometry":{"type":"Point","coordinates":[-0.5781398,44.8428176]},"properties":{"osm_type":"node","osm_id":603773613,"category":"winery","name":"Le Chapon Fin","tags":{"addr:housenumber":"5","addr:street":"Rue Montesquieu","amenity":"restaurant","craft":"winery","name":"Le Chapon Fin","website":"https://www.chapon-fin.com/fr/node/278","wheelchair":"limited"}}},{"type":"Feature","id":"node/656747247","geometry":{"type":"Point","coordinates":[7.7097552,48.541019]},"properties":{"osm_type":"node","osm_id":656747247,"category":"wine_shop","name":"Wines'Up","tags":{"addr:housenumber":"28","name":"Wines'Up","shop":"wine"}}},{"type":"Feature","id":"node/690325428","geometry":{"type":"Point","coordinates":[7.2816432,48.1243023]},"properties":{"osm_type":"node","osm_id":690325428,"category":"winery","name":"Vins d'Alsace Kaefferkopf","tags":{"craft":"winery","name":"Vins d'Alsace Kaefferkopf"}}},{"type":"Feature","id":"node/741696227","geometry":{"type":"Point","coordinates":[-1.0514856,45.6271572]},"properties":{"osm_type":"node","osm_id":741696227,"category":"wine_shop","name":"Cave de Pontaillac","tags":{"name":"Cave de Pontaillac","shop":"wine"}}},{"type":"Feature","id":"node/768591777","geometry":{"type":"Point","coordinates":[1.4327048,43.5989025]},"properties":{"osm_type":"node","osm_id":768591777,"category":"wine_shop","name":"Le Temps des Vendanges","tags":{"amenity":"restaurant","name":"Le Temps des Vendanges","opening_hours":"Mo 10:00-19:00; Tu, We, Fr, Sa 10:00-20:00; Th 10:00-22:00; Su 10:00-13:00","phone":"+33 5 61 42 94 66","shop":"wine"}}},{"type":"Feature","id":"node/772996358","geometry":{"type":"Point","coordinates":[-1.0283143,45.6245875]},"properties":{"osm_type":"node","osm_id":772996358,"category":"wine_shop","name":"NousNous","tags":{"name":"NousNous","shop":"wine"}}},{"type":"Feature","id":"node/772996486","geometry":{"type":"Point","coordinates":[-1.0283659,45.6245643]},"properties":{"osm_type":"node","osm_id":772996486,"category":"wine_shop","name":"Le Caviste Contemporain","tags":{"name":"Le Caviste Contemporain","shop":"wine"}}},{"type":"Feature","id":"node/779796350","geometry":{"type":"Point","coordinates":[2.9770319,42.5947032]},"properties":{"osm_type":"node","osm_id":779796350,"category":"wine_shop","name":"Terroirs Romans","tags":{"image":"https://www.terrassous.com/wp-content/uploads/2025/01/ELNE-TERRASSOUS.png.webp","name":"Terroirs Romans","opening_hours":"Tu-Sa 09:30-12:30,15:00-19:00","phone":"+33 4 68 95 15 74","shop":"wine","website":"https://www.terrassous.com/les-boutiques-terrassous/"}}},{"type":"Feature","id":"node/792292359","geometry":{"type":"Point","coordinates":[-0.8897808,43.2239734]},"properties":{"osm_type":"node","osm_id":792292359,"category":"winery","name":"Xirikota","tags":{"addr:city":"Mauléon-Licharre","addr:housenumber":"39","addr:postcode":"64130","addr:street":"Boulevard Gambetta","craft":"winery","name":"Xirikota","phone":"+33 5 47 86 04 58","shop":"deli","website":"https://www.xirikota.fr/","wheelchair":"yes"}}},{"type":"Feature","id":"node/821902038","geometry":{"type":"Point","coordinates":[2.3256156,48.8829277]},"properties":{"osm_type":"node","osm_id":821902038,"category":"wine_shop","name":"Les Gouttes de Dieu","tags":{"name":"Les Gouttes de Dieu","shop":"wine","wheelchair":"limited"}}},{"type":"Feature","id":"node/823756216","geometry":{"type":"Point","coordinates":[2.2554092,48.9237812]},"properties":{"osm_type":"node","osm_id":823756216,"category":"wine_shop","name":"Le repaire de Bachus","tags":{"name":"Le repaire de Bachus","opening_hours":"Tu-Th 10:00-14:00,15:30-19:30; Fr 10:00-20:00; Sa 09:00-20:00","shop":"wine"}}},{"type":"Feature","id":"node/835823361","geometry":{"type":"Point","coordinates":[-1.340403,45.9755624]},"properties":{"osm_type":"node","osm_id":835823361,"category":"wine_shop","name":"Le Célier Oléronais","tags":{"name":"Le Célier Oléronais","shop":"wine"}}},{"type":"Feature","id":"node/848729864","geometry":{"type":"Point","coordinates":[7.3943429,48.2557157]},"properties":{"osm_type":"node","osm_id":848729864,"category":"wine_cellar","name":"Koehly","tags":{"name":"Koehly","shop":"wine","tourism":"wine_cellar","website":"https://www.vins-koehly.com/"}}},{"type":"Feature","id":"node/849996606","geometry":{"type":"Point","coordinates":[2.5263645,43.3264821]},"properties":{"osm_type":"node","osm_id":849996606,"category":"wine_shop","name":"Jean Christophe Averous","tags":{"name":"Jean Christophe Averous","shop":"wine"}}},{"type":"Feature","id":"node/852773921","geometry":{"type":"Point","coordinates":[7.4418171,48.3965576]},"properties":{"osm_type":"node","osm_id":852773921,"category":"winery","name":"Domaine Gilg","tags":{"addr:city":"Mittelbergheim","addr:country":"FR","addr:housenumber":"2","addr:postcode":"67140","addr:street":"Rue Rotland","craft":"winery","email":"info@domaine-gilg.com","name":"Domaine Gilg","opening_hours":"Mo-Fr 08:00-12:00,13:30-18:00; Sa 08:00-12:00,13:30-17:00; Su 09:00-11:30; PH 09:00-11:30","phone":"+33 3 88 08 92 76","shop":"wine","website":"https://www.domaine-gilg.com"}}},{"type":"Feature","id":"node/853712373","geometry":{"type":"Point","coordinates":[7.4529091,48.4050369]},"properties":{"osm_type":"node","osm_id":853712373,"category":"wine_cellar","name":"Cave Vinicole d'Andlau Barr","tags":{"addr:city":"Barr","addr:housenumber":"15","addr:postcode":"67140","addr:street":"Avenue des Vosges","name":"Cave Vinicole d'Andlau Barr","shop":"wine","tourism":"wine_cellar"}}},{"type":"Feature","id":"node/854860382","geometry":{"type":"Point","coordinates":[7.4528949,48.4067331]},"properties":{"osm_type":"node","osm_id":854860382,"category":"wine_cellar","name":"Domaine Klipfel","tags":{"name":"Domaine Klipfel","shop":"wine","tourism":"wine_cellar"}}},{"type":"Feature","id":"node/857187600","geometry":{"type":"Point","coordinates":[7.4483944,48.4056706]},"properties":{"osm_type":"node","osm_id":857187600,"category":"wine_cellar","name":"Domaine Klipfel","tags":{"name":"Domaine Klipfel","phone":"+33 3 88 08 08 63","shop":"wine","tourism":"wine_cellar","website":"https://www.klipfel.com"}}},{"type":"Feature","id":"node/857671621","geometry":{"type":"Point","coordinates":[7.4529498,48.4140671]},"properties":{"osm_type":"node","osm_id":857671621,"category":"wine_cellar","name":"Domaine Bacher","tags":{"name":"Domaine Bacher","shop":"wine","tourism":"wine_cellar"}}},{"type":"Feature","id":"node/858377869","geometry":{"type":"Point","coordinates":[7.4506107,48.4236581]},"properties":{"osm_type":"node","osm_id":858377869,"category":"wine_cellar","name":"Domaine Meckert & Fils","tags":{"name":"Domaine Meckert & Fils","shop":"wine","tourism":"wine_cellar"}}},{"type":"Feature","id":"node/858378094","geometry":{"type":"Point","coordinates":[7.4537747,48.4246108]},"properties":{"osm_type":"node","osm_id":858378094,"category":"wine_cellar","name":"Nebinger","tags":{"name":"Nebinger","shop":"wine","tourism":"wine_cellar"}}},{"type":"Feature","id":"node/858601105","geometry":{"type":"Point","coordinates":[7.4361293,48.4631964]},"properties":{"osm_type":"node","osm_id":858601105,"category":"winery","name":"Paul Schoettel","tags":{"craft":"winery","name":"Paul Schoettel","shop":"alcohol","tourism":"wine_cellar"}}},{"type":"Feature","id":"node/861847332","geometry":{"type":"Point","coordinates":[7.4415338,48.3960572]},"properties":{"osm_type":"node","osm_id":861847332,"category":"wine_cellar","name":"Boeckel","tags":{"name":"Boeckel","phone":"+33 3 88 08 91 02","shop":"wine","tourism":"wine_cellar","website":"https://www.boeckel-alsace.com/"}}},{"type":"Feature","id":"node/869306812","geometry":{"type":"Point","coordinates":[6.0263856,47.2315081]},"properties":{"osm_type":"node","osm_id":869306812,"category":"wine_shop","name":"LauMas","tags":{"addr:housenumber":"35","addr:street":"Rue Charles Nodier","amenity":"restaurant","email":"laumasrestaurant@hotmail.com","name":"LauMas","opening_hours":"We-Sa 00:00-13:30,07:00-21:00; Su 00:00-14:00","phone":"+33 6 79 71 38 36","shop":"wine","start_date":"20180615","website":"https://restaurant-laumas.com","wheelchair":"yes"}}},{"type":"Feature","id":"node/890506957","geometry":{"type":"Point","coordinates":[2.9486225,42.5624544]},"properties":{"osm_type":"node","osm_id":890506957,"category":"wine_shop","name":"Château de Villeclare","tags":{"email":"villeclare@wanadoo.fr","name":"Château de Villeclare","phone":"+33468221492","shop":"wine","website":"https://www.chateau-de-villeclare.com/"}}},{"type":"Feature","id":"node/919437513","geometry":{"type":"Point","coordinates":[1.1957658,47.3449882]},"properties":{"osm_type":"node","osm_id":919437513,"category":"winery","name":"Caves Monmousseau","tags":{"craft":"winery","name":"Caves Monmousseau","shop":"beverages","website":"https://www.monmousseau.com"}}},{"type":"Feature","id":"node/926485429","geometry":{"type":"Point","coordinates":[4.7245114,45.6385274]},"properties":{"osm_type":"node","osm_id":926485429,"category":"wine_shop","name":"Domaine Condamin-Bernard","tags":{"addr:city":"Taluyers","addr:postcode":"69440","addr:street":"Route du Bâtard","email":"maisoncondaminbernard@gmail.com","name":"Domaine Condamin-Bernard","opening_hours":"Th,Fr 17:00-18:30; Sa 09:30-12:30","phone":"+33 6 14 30 30 58","shop":"wine","website":"https://maisoncondaminbernard.com/"}}},{"type":"Feature","id":"node/945149897","geometry":{"type":"Point","coordinates":[3.8643369,43.5333248]},"properties":{"osm_type":"node","osm_id":945149897,"category":"wine_shop","name":"Cave de Villeneuve","tags":{"name":"Cave de Villeneuve","shop":"wine","wheelchair":"yes"}}},{"type":"Feature","id":"node/948322425","geometry":{"type":"Point","coordinates":[7.2999341,48.0585902]},"properties":{"osm_type":"node","osm_id":948322425,"category":"winery","name":"Jean-Louis Schoepfer","tags":{"addr:city":"Wettolsheim","addr:country":"FR","addr:housenumber":"35","addr:postcode":"68920","addr:street":"Rue Herzog","craft":"winery","email":"info@vinsjlschoepfer.fr","name:de":"Jean-Louis Schoepfer","name:en":"Jean-Louis Schoepfer","phone":"+33 6 70 89 57 56","shop":"wine","website":"https://vinsjlschoepfer.fr/"}}},{"type":"Feature","id":"node/951641238","geometry":{"type":"Point","coordinates":[7.3100807,48.0420841]},"properties":{"osm_type":"node","osm_id":951641238,"category":"winery","name":"Wolfberger","tags":{"addr:city":"Eguisheim","addr:country":"FR","addr:housenumber":"6","addr:postcode":"68420","addr:street":"Grand'Rue","craft":"winery","name":"Wolfberger","phone":"+33 389 222020","website":"https://www.wolfberger.com"}}},{"type":"Feature","id":"node/955172866","geometry":{"type":"Point","coordinates":[2.2766091,48.8631555]},"properties":{"osm_type":"node","osm_id":955172866,"category":"wine_shop","name":"L'Officine du 16ème","tags":{"addr:housenumber":"66","addr:street":"Rue de la Pompe","name":"L'Officine du 16ème","opening_hours":"Tu-Sa 10:00-13:00,15:30-20:30","shop":"wine"}}},{"type":"Feature","id":"node/970204303","geometry":{"type":"Point","coordinates":[-0.2131926,44.8998593]},"properties":{"osm_type":"node","osm_id":970204303,"category":"wine_shop","name":"V and B","tags":{"name":"V and B","shop":"wine"}}},{"type":"Feature","id":"node/990305142","geometry":{"type":"Point","coordinates":[5.3855134,43.2931621]},"properties":{"osm_type":"node","osm_id":990305142,"category":"wine_shop","name":"Le Vin Sobre","tags":{"name":"Le Vin Sobre","shop":"wine"}}},{"type":"Feature","id":"node/997522592","geometry":{"type":"Point","coordinates":[0.9167624,47.3535204]},"properties":{"osm_type":"node","osm_id":997522592,"category":"winery","name":"Berger Frères","tags":{"craft":"winery","name":"Berger Frères","shop":"wine"}}},{"type":"Feature","id":"node/997534954","geometry":{"type":"Point","coordinates":[0.9147978,47.3540833]},"properties":{"osm_type":"node","osm_id":997534954,"category":"winery","name":"Alain Joulin et Fils","tags":{"craft":"winery","name":"Alain Joulin et Fils","shop":"wine"}}},{"type":"Feature","id":"node/1000248136","geometry":{"type":"Point","coordinates":[4.6820353,45.9157398]},"properties":{"osm_type":"node","osm_id":1000248136,"category":"winery","name":"Domaine des Forêts","tags":{"craft":"winery","name":"Domaine des Forêts","phone":"+33 4 37 55 06 13","shop":"wine","website":"https://www.marcy-sur-anse.com/wp/index.php/viticulture/domaine-des-forets/"}}},{"type":"Feature","id":"node/1000248789","geometry":{"type":"Point","coordinates":[4.6805092,45.914159]},"properties":{"osm_type":"node","osm_id":1000248789,"category":"winery","name":"Yves Brignon","tags":{"craft":"winery","name":"Yves Brignon","shop":"wine"}}},{"type":"Feature","id":"node/1000249003","geometry":{"type":"Point","coordinates":[4.671432,45.9098366]},"properties":{"osm_type":"node","osm_id":1000249003,"category":"winery","name":"Domaine du Champs Fleury","tags":{"craft":"winery","name":"Domaine du Champs Fleury","phone":"+33 4 74 67 08 20","shop":"wine","website":"https://domaine-de-champ-fleury.com"}}},{"type":"Feature","id":"node/1000249188","geometry":{"type":"Point","coordinates":[4.6772888,45.9201398]},"properties":{"osm_type":"node","osm_id":1000249188,"category":"winery","name":"Domaine des Joséphins","tags":{"craft":"winery","name":"Domaine des Joséphins","shop":"wine"}}},{"type":"Feature","id":"node/1016227785","geometry":{"type":"Point","coordinates":[-1.6283887,48.1142254]},"properties":{"osm_type":"node","osm_id":1016227785,"category":"wine_shop","name":"Le Futoir","tags":{"addr:city":"Cesson-Sévigné","addr:housenumber":"74","addr:postcode":"35510","addr:street":"Rue de Rennes","name":"Le Futoir","opening_hours":"Tu-We 15:00-23:00; Th-Sa 15:00-01:00","shop":"wine"}}},{"type":"Feature","id":"node/1017825389","geometry":{"type":"Point","coordinates":[3.662762,47.7144831]},"properties":{"osm_type":"node","osm_id":1017825389,"category":"winery","name":"Christophe Ferrari","tags":{"craft":"winery","name":"Christophe Ferrari"}}},{"type":"Feature","id":"node/1017825545","geometry":{"type":"Point","coordinates":[3.7013409,47.7626005]},"properties":{"osm_type":"node","osm_id":1017825545,"category":"wine_shop","name":"Edmond Chalmeau Et Fils","tags":{"name":"Edmond Chalmeau Et Fils","shop":"wine","website":"http://www.chalmeau.fr"}}},{"type":"Feature","id":"node/1121354340","geometry":{"type":"Point","coordinates":[3.4756934,43.5844618]},"properties":{"osm_type":"node","osm_id":1121354340,"category":"winery","name":"Domaine de la Dourbie","tags":{"craft":"winery","name":"Domaine de la Dourbie"}}},{"type":"Feature","id":"node/1126116781","geometry":{"type":"Point","coordinates":[2.4156293,49.3777644]},"properties":{"osm_type":"node","osm_id":1126116781,"category":"wine_shop","name":"Bear Market","tags":{"addr:housenumber":"74","addr:street":"Rue de la République","name":"Bear Market","opening_hours":"Tu-Th 15:00-21:00; Fr 15:00-22:30; Sa 10:00-14:00,16:00-22:30; Mo,Su off","shop":"wine"}}},{"type":"Feature","id":"node/1137912360","geometry":{"type":"Point","coordinates":[5.893513,48.6755778]},"properties":{"osm_type":"node","osm_id":1137912360,"category":"wine_shop","name":"Au Bouchon by Isa","tags":{"amenity":"bar","name":"Au Bouchon by Isa","opening_hours":"Tu-Fr 17:00-22:00; Sa 10:00-22:00","shop":"wine","wheelchair":"limited"}}},{"type":"Feature","id":"node/1144582010","geometry":{"type":"Point","coordinates":[-1.2035363,44.7237075]},"properties":{"osm_type":"node","osm_id":1144582010,"category":"wine_shop","name":"La Casa","tags":{"amenity":"restaurant","cuisine":"tapas;pizza","name":"La Casa","shop":"wine"}}},{"type":"Feature","id":"node/1168783795","geometry":{"type":"Point","coordinates":[6.2656321,43.3770603]},"properties":{"osm_type":"node","osm_id":1168783795,"category":"winery","name":"Commanderie de Peyrassol","tags":{"craft":"winery","name":"Commanderie de Peyrassol"}}},{"type":"Feature","id":"node/1172240717","geometry":{"type":"Point","coordinates":[166.4464786,-22.2761607]},"properties":{"osm_type":"node","osm_id":1172240717,"category":"wine_shop","name":"Ambiance et styles","tags":{"addr:city":"Nouméa","addr:country":"NC","addr:housenumber":"30","addr:postcode":"98800","addr:street":"Rue Auguste Brun","name":"Ambiance et styles","name:fr":"Ambiance et styles","opening_hours":"Mo-Sa 09:00-18:30","shop":"wine","website":"https://www.ambianceetstyles.com/magasins/ambiance-styles-noumea.89"}}},{"type":"Feature","id":"node/1224795731","geometry":{"type":"Point","coordinates":[2.3914714,48.8503474]},"properties":{"osm_type":"node","osm_id":1224795731,"category":"wine_shop","name":"Dame Nation","tags":{"name":"Dame Nation","shop":"wine"}}},{"type":"Feature","id":"node/1226122336","geometry":{"type":"Point","coordinates":[-1.5610717,47.211288]},"properties":{"osm_type":"node","osm_id":1226122336,"category":"wine_shop","name":"Vin/20","tags":{"name":"Vin/20","opening_hours":"Mo,Tu,Th-Sa 10:00-19:30; We 10:00-13:00,15:00-19:30","phone":"+33 2 40 69 51 76","shop":"wine","wheelchair":"limited"}}},{"type":"Feature","id":"node/1229508664","geometry":{"type":"Point","coordinates":[4.971109,47.2259675]},"properties":{"osm_type":"node","osm_id":1229508664,"category":"wine_shop","name":"La Cave de Vénus","tags":{"name":"La Cave de Vénus","shop":"wine"}}},{"type":"Feature","id":"node/1235128759","geometry":{"type":"Point","coordinates":[7.1221837,43.5799619]},"properties":{"osm_type":"node","osm_id":1235128759,"category":"wine_shop","name":"La Cave d'Antibes","tags":{"addr:city":"Antibes","addr:housenumber":"4","addr:postcode":"06600","addr:street":"Avenue Niquet","email":"lacavedantibes@gmail.com","name":"La Cave d'Antibes","phone":"+33 6 14564290","shop":"wine","website":"https://www.lacavedantibes.fr"}}},{"type":"Feature","id":"node/1239904184","geometry":{"type":"Point","coordinates":[-0.4765626,44.7730527]},"properties":{"osm_type":"node","osm_id":1239904184,"category":"winery","name":"Château Courtade Dubuc","tags":{"addr:city":"Camblanes-et-Meynac","addr:housenumber":"22","addr:postcode":"33360","addr:street":"Chemin du Jonc","craft":"winery","name":"Château Courtade Dubuc","phone":"+33 5 56 20 77 07"}}},{"type":"Feature","id":"node/1272037727","geometry":{"type":"Point","coordinates":[2.3183304,48.882869]},"properties":{"osm_type":"node","osm_id":1272037727,"category":"wine_shop","name":"Poussin","tags":{"name":"Poussin","opening_hours":"Tu-Sa 19:00-00:30","phone":"+33 9 86 45 44 23","shop":"wine","wheelchair":"no"}}},{"type":"Feature","id":"node/1281506059","geometry":{"type":"Point","coordinates":[4.8085689,44.136639]},"properties":{"osm_type":"node","osm_id":1281506059,"category":"wine_shop","name":"L’art Dit Vin","tags":{"addr:city":"Orange","name":"L’art Dit Vin","opening_hours":"Tu-Su 10:30-19:00","shop":"wine","wheelchair":"no"}}},{"type":"Feature","id":"node/1297044552","geometry":{"type":"Point","coordinates":[4.3398056,44.3095314]},"properties":{"osm_type":"node","osm_id":1297044552,"category":"wine_shop","name":"Cave Coopérative de Barjac","tags":{"email":"contact@cavecoopbarjac.com","name":"Cave Coopérative de Barjac","phone":"+33466245018","shop":"wine","website":"https://www.cavecoopbarjac.com/"}}},{"type":"Feature","id":"node/1312214414","geometry":{"type":"Point","coordinates":[-1.1477013,44.6565641]},"properties":{"osm_type":"node","osm_id":1312214414,"category":"wine_shop","name":"L'Amour du Vin","tags":{"name":"L'Amour du Vin","shop":"wine"}}},{"type":"Feature","id":"node/1326687534","geometry":{"type":"Point","coordinates":[6.1836331,43.4732328]},"properties":{"osm_type":"node","osm_id":1326687534,"category":"wine_shop","name":"Hameau des Vigerons","tags":{"name":"Hameau des Vigerons","shop":"wine"}}},{"type":"Feature","id":"node/1362175660","geometry":{"type":"Point","coordinates":[5.628327,46.7551213]},"properties":{"osm_type":"node","osm_id":1362175660,"category":"wine_cellar","name":"Domaine Berthet-Bondet","tags":{"addr:city":"Château-Chalon","addr:housenumber":"7","addr:postcode":"39210","addr:street":"Rue de la Tour","email":"domaine@berthet-bondet.com","name":"Domaine Berthet-Bondet","phone":"+33 3 84 44 60 48","shop":"alcohol","tourism":"wine_cellar","website":"https://berthet-bondet.com"}}},{"type":"Feature","id":"node/1388319056","geometry":{"type":"Point","coordinates":[3.1284541,42.4825154]},"properties":{"osm_type":"node","osm_id":1388319056,"category":"wine_shop","name":"MonClubDeVin","tags":{"name":"MonClubDeVin","shop":"wine"}}},{"type":"Feature","id":"node/1392465177","geometry":{"type":"Point","coordinates":[2.7131555,42.7018829]},"properties":{"osm_type":"node","osm_id":1392465177,"category":"winery","name":"Domaine Boucabeille","tags":{"addr:city":"Corneilla-la-Rivière","addr:postcode":"66550","addr:street":"Route Départementale 614","craft":"winery","name":"Domaine Boucabeille","shop":"wine"}}},{"type":"Feature","id":"node/1414993043","geometry":{"type":"Point","coordinates":[6.6269591,44.241103]},"properties":{"osm_type":"node","osm_id":1414993043,"category":"wine_shop","tags":{"shop":"wine"}}},{"type":"Feature","id":"node/1419903354","geometry":{"type":"Point","coordinates":[0.0162795,44.4568929]},"properties":{"osm_type":"node","osm_id":1419903354,"category":"winery","tags":{"craft":"winery"}}},{"type":"Feature","id":"node/1419915129","geometry":{"type":"Point","coordinates":[0.3474188,44.6745708]},"properties":{"osm_type":"node","osm_id":1419915129,"category":"winery","tags":{"craft":"winery"}}},{"type":"Feature","id":"node/1419915889","geometry":{"type":"Point","coordinates":[0.4519304,44.7949635]},"properties":{"osm_type":"node","osm_id":1419915889,"category":"winery","tags":{"craft":"winery"}}},{"type":"Feature","id":"node/1434258687","geometry":{"type":"Point","coordinates":[3.5522448,43.7023396]},"properties":{"osm_type":"node","osm_id":1434258687,"category":"winery","name":"Domaine des Grécaux (Cave à vins)","tags":{"addr:city":"Saint-Jean-de-Fos","addr:housenumber":"4","addr:postcode":"34150","addr:street":"Avenue du Monument","craft":"winery","name":"Domaine des Grécaux (Cave à vins)","phone":"+33 4 67 57 38 83","shop":"alcohol","website":"https://www.domainedesgrecaux.com/"}}},{"type":"Feature","id":"node/1434270996","geometry":{"type":"Point","coordinates":[3.5518343,43.7020919]},"properties":{"osm_type":"node","osm_id":1434270996,"category":"wine_shop","name":"Domaine Alexandrin","tags":{"addr:city":"Saint-Jean-de-Fos","addr:housenumber":"7","addr:postcode":"34150","addr:street":"Avenue du Monument","name":"Domaine Alexandrin","shop":"wine","website":"http://domaine-alexandrin.com/"}}},{"type":"Feature","id":"node/1439122921","geometry":{"type":"Point","coordinates":[-0.7622016,45.2470538]},"properties":{"osm_type":"node","osm_id":1439122921,"category":"winery","name":"Château Montrose","tags":{"craft":"winery","name":"Château Montrose","phone":"+33 5 56 59 30 12","website":"https://www.chateau-montrose.com/"}}},{"type":"Feature","id":"node/1461101853","geometry":{"type":"Point","coordinates":[2.28098,48.8675864]},"properties":{"osm_type":"node","osm_id":1461101853,"category":"wine_shop","name":"Les Caves de Taillevent","tags":{"name":"Les Caves de Taillevent","shop":"wine"}}},{"type":"Feature","id":"node/1526066263","geometry":{"type":"Point","coordinates":[-0.2733278,44.5908763]},"properties":{"osm_type":"node","osm_id":1526066263,"category":"winery","name":"Château La Rame","tags":{"addr:postcode":"33410","addr:street":"La Rame","craft":"winery","name":"Château La Rame","shop":"alcohol","website":"https://www.chateaularame.com/"}}},{"type":"Feature","id":"node/1536651366","geometry":{"type":"Point","coordinates":[0.2532279,44.8736841]},"properties":{"osm_type":"node","osm_id":1536651366,"category":"winery","name":"Cave vinicole Alliance Aquitaine","tags":{"addr:city":"Le Fleix","addr:postcode":"24130","addr:street":"Rue Henri de Navarre","craft":"winery","name":"Cave vinicole Alliance Aquitaine","shop":"alcohol","website":"https://www.cave-bergerac-le-fleix.com/"}}},{"type":"Feature","id":"node/1541452911","geometry":{"type":"Point","coordinates":[2.823636,49.4171146]},"properties":{"osm_type":"node","osm_id":1541452911,"category":"wine_shop","name":"Cavavin","tags":{"addr:housenumber":"30","addr:street":"Rue Saint-Corneille","name":"Cavavin","opening_hours":"Mo off; Tu-Fr 09:30-12:30,14:30-19:30; Sa 09:00-12:30,14:30-19:30; Su 09:30-12:30","phone":"+33 3 44 40 05 68","shop":"wine"}}},{"type":"Feature","id":"node/1558440466","geometry":{"type":"Point","coordinates":[-1.5520289,47.2158334]},"properties":{"osm_type":"node","osm_id":1558440466,"category":"winery","name":"L'Appart des Anges","tags":{"craft":"winery","cuisine":"tapas","name":"L'Appart des Anges","opening_hours":"Tu-Sa 18:00-02:00","website":"https://lappartdesanges.com","wheelchair":"limited"}}},{"type":"Feature","id":"node/1568147584","geometry":{"type":"Point","coordinates":[5.8029329,43.076007]},"properties":{"osm_type":"node","osm_id":1568147584,"category":"wine_shop","name":"L'annexe","tags":{"addr:housenumber":"167","addr:postcode":"83140","addr:street":"Quai Saint-Pierre","name":"L'annexe","opening_hours":"Jul-Aug Tu-Su 09:00-22:30; Sep-Jun Tu-Sa 09:00-19:00; Sep-Jun Su 09:00-14:30","shop":"wine"}}},{"type":"Feature","id":"node/1578502386","geometry":{"type":"Point","coordinates":[-1.9851571,48.6587649]},"properties":{"osm_type":"node","osm_id":1578502386,"category":"wine_shop","name":"Le Jus d'Octobre","tags":{"addr:city":"Saint-Malo","addr:housenumber":"12","addr:postcode":"35400","addr:street":"Boulevard de Rochebonne","name":"Le Jus d'Octobre","phone":"+33 2 99 80 64 00","shop":"wine","website":"https://www.lejusdoctobre.com/"}}},{"type":"Feature","id":"node/1590507069","geometry":{"type":"Point","coordinates":[0.0298435,45.4965397]},"properties":{"osm_type":"node","osm_id":1590507069,"category":"vineyard","name":"Le Maine Giraud","tags":{"landuse":"vineyard","name":"Le Maine Giraud"}}},{"type":"Feature","id":"node/1596069557","geometry":{"type":"Point","coordinates":[2.3822445,48.875115]},"properties":{"osm_type":"node","osm_id":1596069557,"category":"wine_shop","name":"La Cave des Buttes","tags":{"name":"La Cave des Buttes","shop":"wine"}}},{"type":"Feature","id":"node/1605161907","geometry":{"type":"Point","coordinates":[0.319817,44.7958279]},"properties":{"osm_type":"node","osm_id":1605161907,"category":"wine_shop","name":"Château Les Miaudoux","tags":{"name":"Château Les Miaudoux","phone":"+33 5 53279231","shop":"wine","website":"https://www.chateaulesmiaudoux.com/"}}},{"type":"Feature","id":"node/1608007424","geometry":{"type":"Point","coordinates":[-1.4440525,49.0493193]},"properties":{"osm_type":"node","osm_id":1608007424,"category":"wine_shop","name":"Le Calice","tags":{"name":"Le Calice","opening_hours":"Tu-Sa 09:30-12:15, 14:00-19:00","phone":"+33 2 33 45 97 86","shop":"wine"}}},{"type":"Feature","id":"node/1619954531","geometry":{"type":"Point","coordinates":[-1.5428184,47.2270344]},"properties":{"osm_type":"node","osm_id":1619954531,"category":"wine_shop","name":"La Cave Nature","tags":{"name":"La Cave Nature","opening_hours":"Tu-Sa 10:00-13:00,15:30-19:30","shop":"wine","wheelchair":"no"}}},{"type":"Feature","id":"node/1670387427","geometry":{"type":"Point","coordinates":[2.3622819,48.8718236]},"properties":{"osm_type":"node","osm_id":1670387427,"category":"wine_shop","name":"Nysa","tags":{"name":"Nysa","shop":"wine"}}},{"type":"Feature","id":"node/1674816216","geometry":{"type":"Point","coordinates":[0.3276336,44.8035008]},"properties":{"osm_type":"node","osm_id":1674816216,"category":"winery","name":"Château Le Tap","tags":{"craft":"winery","name":"Château Le Tap","website":"https://chateauletap.fr/"}}},{"type":"Feature","id":"node/1675735118","geometry":{"type":"Point","coordinates":[-1.4842059,47.2500213]},"properties":{"osm_type":"node","osm_id":1675735118,"category":"wine_shop","name":"Cave Vins sur Vins","tags":{"name":"Cave Vins sur Vins","shop":"wine"}}},{"type":"Feature","id":"node/1679113894","geometry":{"type":"Point","coordinates":[-0.4096262,49.1865848]},"properties":{"osm_type":"node","osm_id":1679113894,"category":"wine_shop","name":"L'Hydropathe Cave & Resto","tags":{"email":"contact@hydropathe-cave-resto.fr","name":"L'Hydropathe Cave & Resto","phone":"+33 2 31 73 11 10","shop":"wine","website":"https://hydropathe-cave-resto.fr/"}}},{"type":"Feature","id":"node/1683389323","geometry":{"type":"Point","coordinates":[-1.5507298,47.1896762]},"properties":{"osm_type":"node","osm_id":1683389323,"category":"winery","name":"CAVE 71","tags":{"craft":"winery","name":"CAVE 71"}}},{"type":"Feature","id":"node/1684354890","geometry":{"type":"Point","coordinates":[2.7301008,42.6975276]},"properties":{"osm_type":"node","osm_id":1684354890,"category":"winery","name":"Domaine Coume Majou","tags":{"addr:city":"Corneilla-la-Rivière","addr:housenumber":"11","addr:postcode":"66550","addr:street":"Rue de l'Église","craft":"winery","name":"Domaine Coume Majou","shop":"wine"}}},{"type":"Feature","id":"node/1684354894","geometry":{"type":"Point","coordinates":[2.7294375,42.6960831]},"properties":{"osm_type":"node","osm_id":1684354894,"category":"winery","name":"Domaine La Beille","tags":{"addr:city":"Corneilla-la-Rivière","addr:housenumber":"18","addr:postcode":"66550","addr:street":"Rue Saint-Jean","craft":"winery","name":"Domaine La Beille","shop":"wine"}}},{"type":"Feature","id":"node/1684354898","geometry":{"type":"Point","coordinates":[2.7319101,42.6974076]},"properties":{"osm_type":"node","osm_id":1684354898,"category":"winery","name":"Domaine Lafforgue","tags":{"addr:city":"Corneilla-la-Rivière","addr:housenumber":"26bis","addr:postcode":"66550","addr:street":"Route Nationale","craft":"winery","name":"Domaine Lafforgue","shop":"wine"}}},{"type":"Feature","id":"node/1710451090","geometry":{"type":"Point","coordinates":[-3.5318016,47.8655411]},"properties":{"osm_type":"node","osm_id":1710451090,"category":"wine_shop","name":"Madame Irmat","tags":{"addr:city":"Quimperlé","addr:housenumber":"86","addr:postcode":"29300","addr:street":"Rue de Lorient","name":"Madame Irmat","opening_hours":"Mo-Su 09:30-12:30,14:00-19:00","phone":"+33 2 98 96 17 92","shop":"wine","website":"https://www.madame-irmat.fr/"}}},{"type":"Feature","id":"node/1718384612","geometry":{"type":"Point","coordinates":[4.4549721,45.6324242]},"properties":{"osm_type":"node","osm_id":1718384612,"category":"wine_shop","name":"La Belle époque","tags":{"addr:city":"Saint-Symphorien-sur-Coise","addr:housenumber":"64","addr:postcode":"69590","addr:street":"Place du Marché","amenity":"bar","email":"cavelabelleepoque@outlook.fr","name":"La Belle époque","phone":"+33426554671","shop":"wine"}}},{"type":"Feature","id":"node/1722912772","geometry":{"type":"Point","coordinates":[2.9276354,43.0516083]},"properties":{"osm_type":"node","osm_id":1722912772,"category":"wine_shop","name":"Terra Vinéa","wikidata":"Q107722757","tags":{"addr:street":"Chemin de la Platrière","amenity":"restaurant","name":"Terra Vinéa","phone":"+33 4 68 48 64 90","shop":"wine","tourism":"attraction","website":"https://www.terra-vinea.com/","wheelchair":"yes","wikidata":"Q107722757"}}},{"type":"Feature","id":"node/1793708313","geometry":{"type":"Point","coordinates":[2.867901,43.1665066]},"properties":{"osm_type":"node","osm_id":1793708313,"category":"wine_shop","name":"Les Celliers de l'Aussou","tags":{"name":"Les Celliers de l'Aussou","shop":"wine"}}},{"type":"Feature","id":"node/1800397886","geometry":{"type":"Point","coordinates":[5.7151598,45.1818602]},"properties":{"osm_type":"node","osm_id":1800397886,"category":"wine_shop","name":"La Rencontre du Vin","tags":{"addr:housenumber":"11 bis","addr:postcode":"38000","addr:street":"Rue Irvoy","name":"La Rencontre du Vin","opening_hours":"Tu-Th 15:30-20:00; Fr,Sa 10:00-13:00,15:30-20:00","shop":"wine","website":"https://larencontreduvin.fr/","wheelchair":"no"}}},{"type":"Feature","id":"node/1804756814","geometry":{"type":"Point","coordinates":[4.2349779,43.7337153]},"properties":{"osm_type":"node","osm_id":1804756814,"category":"winery","name":"Caveau d'Héracles","tags":{"craft":"winery","name":"Caveau d'Héracles","shop":"alcohol"}}},{"type":"Feature","id":"node/1813038002","geometry":{"type":"Point","coordinates":[-1.5516063,47.2974032]},"properties":{"osm_type":"node","osm_id":1813038002,"category":"wine_shop","name":"Cave Vins sur Vins","tags":{"addr:city":"La Chapelle-sur-Erdre","addr:housenumber":"27","addr:postcode":"44240","addr:street":"Rue Martin Luther King","name":"Cave Vins sur Vins","opening_hours":"Tu-Sa 09:00-12:30,14:30-19:30","operator":"Quentin DELAVAUD","phone":"+33 2 40 29 70 71","shop":"wine","website":"https://www.vinsnantes.fr","wheelchair":"yes"}}},{"type":"Feature","id":"node/1818607327","geometry":{"type":"Point","coordinates":[2.482925,42.7380602]},"properties":{"osm_type":"node","osm_id":1818607327,"category":"winery","name":"Cave","tags":{"craft":"winery","name":"Cave"}}},{"type":"Feature","id":"node/1829670599","geometry":{"type":"Point","coordinates":[3.6499376,47.7435687]},"properties":{"osm_type":"node","osm_id":1829670599,"category":"winery","name":"Jean Hugues Et Guilhem Goisot","tags":{"craft":"winery","email":"domaine.jhg@goisot.com","name":"Jean Hugues Et Guilhem Goisot","phone":"+33 3 86 53 35 15","shop":"wine","website":"https://www.goisot.fr/"}}},{"type":"Feature","id":"node/1839137577","geometry":{"type":"Point","coordinates":[3.4215835,46.1250524]},"properties":{"osm_type":"node","osm_id":1839137577,"category":"wine_shop","name":"Les Compères","tags":{"amenity":"vacant","name":"Les Compères","shop":"wine","start_date":"2023","wheelchair":"no"}}},{"type":"Feature","id":"node/1843284250","geometry":{"type":"Point","coordinates":[4.3878269,44.598312]},"properties":{"osm_type":"node","osm_id":1843284250,"category":"wine_shop","name":"Caves Vivaraises","tags":{"email":"contact@caves-vivaraises.fr","name":"Caves Vivaraises","phone":"+33 4 75 35 17 58","shop":"wine","website":"https://www.caves-vivaraises.fr/"}}},{"type":"Feature","id":"node/1853175745","geometry":{"type":"Point","coordinates":[2.5431987,48.8269502]},"properties":{"osm_type":"node","osm_id":1853175745,"category":"wine_shop","name":"La Cave de Villiers-sur-Marne","tags":{"name":"La Cave de Villiers-sur-Marne","shop":"wine"}}},{"type":"Feature","id":"node/1857339819","geometry":{"type":"Point","coordinates":[0.3416923,44.7498003]},"properties":{"osm_type":"node","osm_id":1857339819,"category":"winery","name":"Château Thénac","tags":{"alt_name":"Château de Thénac","craft":"winery","name":"Château Thénac","website":"https://www.chateau-thenac.com"}}},{"type":"Feature","id":"node/1865436659","geometry":{"type":"Point","coordinates":[4.5960445,44.5584129]},"properties":{"osm_type":"node","osm_id":1865436659,"category":"wine_shop","name":"Cave Coopérative d'Alba la Romaine","tags":{"name":"Cave Coopérative d'Alba la Romaine","shop":"wine"}}},{"type":"Feature","id":"node/1867680102","geometry":{"type":"Point","coordinates":[-1.3310376,45.9172487]},"properties":{"osm_type":"node","osm_id":1867680102,"category":"wine_shop","tags":{"shop":"wine"}}},{"type":"Feature","id":"node/1885346486","geometry":{"type":"Point","coordinates":[-0.5778673,44.8316061]},"properties":{"osm_type":"node","osm_id":1885346486,"category":"wine_shop","name":"Boirebon","tags":{"addr:housenumber":"8","addr:street":"Rue Edmond Costedoat","name":"Boirebon","phone":"+33 5 56 91 31 81","shop":"wine"}}},{"type":"Feature","id":"node/1896616994","geometry":{"type":"Point","coordinates":[-0.5614724,44.8250597]},"properties":{"osm_type":"node","osm_id":1896616994,"category":"wine_shop","name":"La Cave d'Antoine","tags":{"addr:city":"Bordeaux","addr:housenumber":"26","addr:postcode":"33800","addr:street":"Rue Furtado","name":"La Cave d'Antoine","opening_hours":"Tu-Sa 10:00-12:45,15:30-19:30","operator":"La Cave d'Antoine","shop":"wine"}}},{"type":"Feature","id":"node/1899172423","geometry":{"type":"Point","coordinates":[6.0293522,47.2346599]},"properties":{"osm_type":"node","osm_id":1899172423,"category":"wine_shop","name":"La cave d'Hugo","tags":{"addr:city":"Besançon","addr:housenumber":"142","addr:postcode":"25000","addr:street":"Grande Rue","name":"La cave d'Hugo","opening_hours":"Tu-Sa 14:00-20:00, Tu,Th-Su 11:00-13:00, Fr,Sa 10:30-13:00","phone":"+33668700440","shop":"wine"}}},{"type":"Feature","id":"node/1920074480","geometry":{"type":"Point","coordinates":[2.353756,48.8234588]},"properties":{"osm_type":"node","osm_id":1920074480,"category":"wine_shop","name":"La Fine Gueule","tags":{"amenity":"restaurant","cuisine":"french","name":"La Fine Gueule","opening_hours":"Mo-Sa 11:00-15:00,17:00-21:00+","shop":"wine","wheelchair":"no"}}},{"type":"Feature","id":"node/1933805043","geometry":{"type":"Point","coordinates":[-0.4774624,48.9860301]},"properties":{"osm_type":"node","osm_id":1933805043,"category":"wine_shop","name":"Cave de la Suisse Normande","tags":{"name":"Cave de la Suisse Normande","phone":"+33 2 31 79 71 14","shop":"wine"}}},{"type":"Feature","id":"node/1950315374","geometry":{"type":"Point","coordinates":[-1.5657102,47.2143909]},"properties":{"osm_type":"node","osm_id":1950315374,"category":"wine_shop","name":"Vino Vini","tags":{"alt_name":"Amphoria","brand":"Vino Vini","name":"Vino Vini","opening_hours":"Mo 15:00-20:00; Tu-Sa 10:00-13:00,15:00-20:00","phone":"+33 2 40 69 06 66","shop":"wine","website":"http://www.vinovini.fr","wheelchair":"yes"}}},{"type":"Feature","id":"node/1974295847","geometry":{"type":"Point","coordinates":[4.6698939,45.9681608]},"properties":{"osm_type":"node","osm_id":1974295847,"category":"winery","name":"Cave de Liergues","tags":{"craft":"winery","name":"Cave de Liergues","shop":"wine"}}},{"type":"Feature","id":"node/1975495616","geometry":{"type":"Point","coordinates":[4.8295928,45.7690773]},"properties":{"osm_type":"node","osm_id":1975495616,"category":"wine_shop","name":"Le Biody Canon","tags":{"addr:housenumber":"5","addr:street":"Place Fernand Rey","email":"lebiodycanon@gmail.com","image":"https://panoramax.openstreetmap.fr/images/4a/97/1c/ce/3e1e-444e-bd12-85142b1c674e.jpg","name":"Le Biody Canon","opening_hours":"We 11:00-20:00; Th-Sa 17:00-00:00","phone":"+33 9 60 03 79 09","shop":"wine","wheelchair":"limited"}}},{"type":"Feature","id":"node/1984749636","geometry":{"type":"Point","coordinates":[4.7198475,46.1880215]},"properties":{"osm_type":"node","osm_id":1984749636,"category":"winery","name":"Thérèse et Roland Lemaître","tags":{"addr:city":"Fleurie","addr:postcode":"69820","craft":"winery","name":"Thérèse et Roland Lemaître","shop":"wine"}}},{"type":"Feature","id":"node/1999941519","geometry":{"type":"Point","coordinates":[2.2886865,48.8354394]},"properties":{"osm_type":"node","osm_id":1999941519,"category":"wine_shop","name":"Chipo","tags":{"name":"Chipo","shop":"wine"}}},{"type":"Feature","id":"node/2015061832","geometry":{"type":"Point","coordinates":[1.4522207,43.5744367]},"properties":{"osm_type":"node","osm_id":2015061832,"category":"winery","name":"Les Vins de la Cour","tags":{"addr:city":"Toulouse","addr:housenumber":"4","addr:postcode":"31400","addr:street":"Avenue Léon Viala","craft":"winery","name":"Les Vins de la Cour","opening_hours":"Th-Sa 10:00-13:00,16:00-20:00","website":"https://www.lacourdesvins.fr/"}}},{"type":"Feature","id":"node/2040598000","geometry":{"type":"Point","coordinates":[0.652621,44.7072738]},"properties":{"osm_type":"node","osm_id":2040598000,"category":"winery","name":"Château Tertres du Plantou","tags":{"addr:city":"Boisse","addr:postcode":"24560","craft":"winery","name":"Château Tertres du Plantou","shop":"wine"}}},{"type":"Feature","id":"node/2046208759","geometry":{"type":"Point","coordinates":[5.3857951,43.2938305]},"properties":{"osm_type":"node","osm_id":2046208759,"category":"wine_shop","name":"Super Boutique","tags":{"name":"Super Boutique","shop":"wine"}}},{"type":"Feature","id":"node/2051496099","geometry":{"type":"Point","coordinates":[-1.7808846,47.2763229]},"properties":{"osm_type":"node","osm_id":2051496099,"category":"wine_shop","name":"Plop Caviste","tags":{"name":"Plop Caviste","shop":"wine"}}},{"type":"Feature","id":"node/2066023280","geometry":{"type":"Point","coordinates":[7.3160547,48.1810887]},"properties":{"osm_type":"node","osm_id":2066023280,"category":"winery","name":"Cave David Ermel","tags":{"craft":"winery","name":"Cave David Ermel","shop":"wine"}}},{"type":"Feature","id":"node/2087542282","geometry":{"type":"Point","coordinates":[2.345067,48.8907615]},"properties":{"osm_type":"node","osm_id":2087542282,"category":"wine_shop","name":"Cave 18","tags":{"addr:city":"Paris","addr:housenumber":"65","addr:postcode":"75018","addr:street":"Rue Ramey","email":"contact@cave18.fr","name":"Cave 18","phone":"+33 1 42 52 77 77","shop":"wine","website":"https://www.cave18.fr"}}},{"type":"Feature","id":"node/2139268689","geometry":{"type":"Point","coordinates":[-1.3779072,46.9067955]},"properties":{"osm_type":"node","osm_id":2139268689,"category":"wine_shop","name":"VINS ET CIE","tags":{"addr:housenumber":"32","name":"VINS ET CIE","shop":"wine"}}},{"type":"Feature","id":"node/2170807168","geometry":{"type":"Point","coordinates":[165.4981042,-21.5685981]},"properties":{"osm_type":"node","osm_id":2170807168,"category":"wine_shop","name":"BCI de Bourail","wikidata":"Q2882970","wikipedia":"fr:Banque calédonienne d'investissement","tags":{"addr:postcode":"98870","addr:street":"Rue Théodor Metzger","amenity":"bank","name":"BCI de Bourail","phone":"+687 25 69 92","shop":"wine","wikidata":"Q2882970","wikipedia":"fr:Banque calédonienne d'investissement"}}},{"type":"Feature","id":"node/2183846709","geometry":{"type":"Point","coordinates":[2.3541552,48.8490152]},"properties":{"osm_type":"node","osm_id":2183846709,"category":"wine_shop","name":"5e Cru","tags":{"alt_name":"Cinquième Cru","amenity":"bar","cuisine":"french","name":"5e Cru","opening_hours":"Mo-Fr 12:00-15:00, 19:00-00:00; Sa 19:00-00:00","phone":"+33 1 40 46 86 34","shop":"wine","website":"http://www.5ecru.com/","wheelchair":"limited"}}},{"type":"Feature","id":"node/2185735824","geometry":{"type":"Point","coordinates":[0.3825505,47.267361]},"properties":{"osm_type":"node","osm_id":2185735824,"category":"winery","name":"Domaine Nicolas Paget","tags":{"craft":"winery","name":"Domaine Nicolas Paget","shop":"wine","tourism":"attraction"}}},{"type":"Feature","id":"node/2187220255","geometry":{"type":"Point","coordinates":[0.9108235,47.3569142]},"properties":{"osm_type":"node","osm_id":2187220255,"category":"winery","name":"Domaine Flamand Delétang","tags":{"craft":"winery","name":"Domaine Flamand Delétang","shop":"wine","tourism":"attraction"}}},{"type":"Feature","id":"node/2187220256","geometry":{"type":"Point","coordinates":[0.8969201,47.3672134]},"properties":{"osm_type":"node","osm_id":2187220256,"category":"winery","name":"Domaine Mosny","tags":{"craft":"winery","name":"Domaine Mosny","shop":"wine","tourism":"attraction"}}},{"type":"Feature","id":"node/2187220257","geometry":{"type":"Point","coordinates":[0.9260409,47.3523437]},"properties":{"osm_type":"node","osm_id":2187220257,"category":"winery","name":"EARL Guestault","tags":{"craft":"winery","name":"EARL Guestault","shop":"wine","tourism":"attraction"}}},{"type":"Feature","id":"node/2188807402","geometry":{"type":"Point","coordinates":[0.1049618,47.283509]},"properties":{"osm_type":"node","osm_id":2188807402,"category":"winery","name":"Domaine Olivier","tags":{"craft":"winery","name":"Domaine Olivier","shop":"wine","tourism":"attraction"}}},{"type":"Feature","id":"node/2188807434","geometry":{"type":"Point","coordinates":[0.0803846,47.2849296]},"properties":{"osm_type":"node","osm_id":2188807434,"category":"winery","name":"Domaine des Vallettes","tags":{"addr:city":"Saint-Nicolas-de-Bourgueil","addr:postcode":"37540","craft":"winery","name":"Domaine des Vallettes","tourism":"attraction"}}},{"type":"Feature","id":"node/2188807456","geometry":{"type":"Point","coordinates":[0.1321759,47.2954975]},"properties":{"osm_type":"node","osm_id":2188807456,"category":"winery","name":"Vignoble de la Jarnoterie","tags":{"craft":"winery","name":"Vignoble de la Jarnoterie","shop":"wine","tourism":"attraction"}}},{"type":"Feature","id":"node/2188895355","geometry":{"type":"Point","coordinates":[3.2942692,43.4514547]},"properties":{"osm_type":"node","osm_id":2188895355,"category":"winery","name":"Caveau d'Abeilhan","tags":{"addr:city":"Abeilhan","addr:housenumber":"8","addr:postcode":"34290","addr:street":"Boulevard Louis Pasteur","craft":"winery","name":"Caveau d'Abeilhan","opening_hours":"Mo,We,Fr 09:00-12:00","operator":"Les Caves Molière","phone":"+33 4 67 39 00 20","shop":"alcohol","website":"https://lescavesmoliere.com/"}}},{"type":"Feature","id":"node/2193173272","geometry":{"type":"Point","coordinates":[-0.3747797,44.6955587]},"properties":{"osm_type":"node","osm_id":2193173272,"category":"winery","name":"Château de Marsan","tags":{"craft":"winery","name":"Château de Marsan","shop":"alcohol","website":"http://www.gonfrier.fr"}}},{"type":"Feature","id":"node/2193385661","geometry":{"type":"Point","coordinates":[2.3455657,48.825764]},"properties":{"osm_type":"node","osm_id":2193385661,"category":"wine_shop","name":"Le Raisin Bleu","tags":{"name":"Le Raisin Bleu","opening_hours":"Tu-Fr 10:00-13:00,15:30-20:00; Sa 10:00-20:00; Su 10:00-13:30","shop":"wine","website":"https://www.aviva.fr/"}}},{"type":"Feature","id":"node/2235254800","geometry":{"type":"Point","coordinates":[0.1331213,47.2583884]},"properties":{"osm_type":"node","osm_id":2235254800,"category":"winery","name":"Domaine Godefroy","tags":{"craft":"winery","name":"Domaine Godefroy","opening_hours":"08:00-12:00,14:00-19:00; Sa 09:00-12:00,14:00-18:00; Su off","shop":"wine","tourism":"attraction","website":"http://www.domainegodefroy.fr/"}}},{"type":"Feature","id":"node/2235383796","geometry":{"type":"Point","coordinates":[1.0659744,47.505354]},"properties":{"osm_type":"node","osm_id":2235383796,"category":"winery","name":"Domaine Cocteaux","tags":{"craft":"winery","name":"Domaine Cocteaux","shop":"wine","tourism":"attraction"}}},{"type":"Feature","id":"node/2235415539","geometry":{"type":"Point","coordinates":[0.3746363,47.1402234]},"properties":{"osm_type":"node","osm_id":2235415539,"category":"winery","name":"Domaine de la Commanderie","tags":{"craft":"winery","name":"Domaine de la Commanderie","shop":"wine","tourism":"attraction"}}},{"type":"Feature","id":"node/2235430606","geometry":{"type":"Point","coordinates":[0.3785503,47.1530635]},"properties":{"osm_type":"node","osm_id":2235430606,"category":"winery","name":"Domaine de Beauséjour","tags":{"craft":"winery","name":"Domaine de Beauséjour","shop":"wine","tourism":"guest_house"}}},{"type":"Feature","id":"node/2235499820","geometry":{"type":"Point","coordinates":[0.4455294,47.1578737]},"properties":{"osm_type":"node","osm_id":2235499820,"category":"winery","name":"Caves de la Salle","tags":{"craft":"winery","name":"Caves de la Salle","shop":"wine","tourism":"attraction"}}},{"type":"Feature","id":"node/2258202683","geometry":{"type":"Point","coordinates":[6.2321939,44.0924553]},"properties":{"osm_type":"node","osm_id":2258202683,"category":"wine_shop","name":"Cave Conseil","tags":{"addr:city":"Digne-les-Bains","addr:housenumber":"2","addr:postcode":"04000","addr:street":"Rue Prête-à-Partir","name":"Cave Conseil","opening_hours":"Tu-Sa 09:30-12:30,15:30-19:30","shop":"wine"}}},{"type":"Feature","id":"node/2261571249","geometry":{"type":"Point","coordinates":[4.9351981,45.690976]},"properties":{"osm_type":"node","osm_id":2261571249,"category":"wine_shop","name":"Cave du Val d'Or","tags":{"brand":"Caves du Val d'Or","name":"Cave du Val d'Or","shop":"wine"}}},{"type":"Feature","id":"node/2269697185","geometry":{"type":"Point","coordinates":[-0.2133595,44.5848783]},"properties":{"osm_type":"node","osm_id":2269697185,"category":"winery","name":"Château Rouaud","tags":{"craft":"winery","name":"Château Rouaud","tourism":"guest_house"}}},{"type":"Feature","id":"node/2271458546","geometry":{"type":"Point","coordinates":[4.8230774,44.0926766]},"properties":{"osm_type":"node","osm_id":2271458546,"category":"wine_shop","name":"Domaine des Chanssauds","tags":{"name":"Domaine des Chanssauds","opening_hours":"Mo-Fr 09:00-12:00,13:30-18:00; Sa 09:00-12:00","operator":"PatrickJaume","phone":"+33 4 90 34 23 51","shop":"wine","website":"https://www.domaine-des-chanssaud.com/"}}},{"type":"Feature","id":"node/2275869364","geometry":{"type":"Point","coordinates":[6.2508909,43.1476128]},"properties":{"osm_type":"node","osm_id":2275869364,"category":"winery","name":"Château Maravenne","tags":{"craft":"winery","name":"Château Maravenne","website":"https://www.maravenne.com/"}}},{"type":"Feature","id":"node/2290944631","geometry":{"type":"Point","coordinates":[2.2914741,48.8493436]},"properties":{"osm_type":"node","osm_id":2290944631,"category":"wine_shop","name":"La Cave Des Verres Luisants","tags":{"name":"La Cave Des Verres Luisants","opening_hours":"Mo 15:30-20:00; Tu-Fr 10:00-13:30,15:30-20:00; Sa 10:00-20:30; Su 10:00-13:30","shop":"wine"}}},{"type":"Feature","id":"node/2291047295","geometry":{"type":"Point","coordinates":[0.2345051,43.6028042]},"properties":{"osm_type":"node","osm_id":2291047295,"category":"winery","name":"Domaine de Bilé","tags":{"addr:city":"Bassoues","addr:postcode":"32320","craft":"winery","name":"Domaine de Bilé","shop":"alcohol"}}},{"type":"Feature","id":"node/2291906552","geometry":{"type":"Point","coordinates":[2.2919979,48.850383]},"properties":{"osm_type":"node","osm_id":2291906552,"category":"wine_shop","name":"Le Repaire de Bacchus","tags":{"name":"Le Repaire de Bacchus","shop":"wine"}}},{"type":"Feature","id":"node/2330917189","geometry":{"type":"Point","coordinates":[3.084999,42.5240121]},"properties":{"osm_type":"node","osm_id":2330917189,"category":"wine_shop","name":"L'Étoile","tags":{"name":"L'Étoile","shop":"wine"}}},{"type":"Feature","id":"node/2338056763","geometry":{"type":"Point","coordinates":[2.4351026,48.8467993]},"properties":{"osm_type":"node","osm_id":2338056763,"category":"wine_shop","name":"Vino & Compagnia","tags":{"name":"Vino & Compagnia","shop":"wine"}}},{"type":"Feature","id":"node/2365654405","geometry":{"type":"Point","coordinates":[2.4357601,48.8482653]},"properties":{"osm_type":"node","osm_id":2365654405,"category":"wine_shop","name":"Borda","tags":{"name":"Borda","shop":"wine","wheelchair":"limited"}}},{"type":"Feature","id":"node/2375590157","geometry":{"type":"Point","coordinates":[0.6447123,44.7103432]},"properties":{"osm_type":"node","osm_id":2375590157,"category":"winery","name":"Domaine du Petit Batou","tags":{"craft":"winery","name":"Domaine du Petit Batou","shop":"wine"}}},{"type":"Feature","id":"node/2375590160","geometry":{"type":"Point","coordinates":[0.6822335,44.7107734]},"properties":{"osm_type":"node","osm_id":2375590160,"category":"winery","name":"Le Clos de Breil","tags":{"craft":"winery","name":"Le Clos de Breil","shop":"wine"}}},{"type":"Feature","id":"node/2387382727","geometry":{"type":"Point","coordinates":[5.7254264,45.1913042]},"properties":{"osm_type":"node","osm_id":2387382727,"category":"wine_shop","name":"Vinolae","tags":{"name":"Vinolae","opening_hours":"Tu-Fr 10:15-12:30,14:15-19:30; Sa 10:00-12:30,14:00-19:30","shop":"wine","wheelchair":"no"}}},{"type":"Feature","id":"node/2398691400","geometry":{"type":"Point","coordinates":[-0.3626396,44.7069415]},"properties":{"osm_type":"node","osm_id":2398691400,"category":"winery","name":"Château Saint-Ourens","tags":{"addr:city":"Langoiran","addr:housenumber":"57","addr:postcode":"33550","addr:street":"Route de Capian","craft":"winery","name":"Château Saint-Ourens","phone":"+33 5 56 67 39 45","shop":"alcohol","website":"http://www.chateausaintourens.com"}}},{"type":"Feature","id":"node/2402369562","geometry":{"type":"Point","coordinates":[-0.2441975,44.9154985]},"properties":{"osm_type":"node","osm_id":2402369562,"category":"wine_shop","name":"Daniaud","tags":{"name":"Daniaud","shop":"wine"}}},{"type":"Feature","id":"node/2404028877","geometry":{"type":"Point","coordinates":[5.7817994,43.959488]},"properties":{"osm_type":"node","osm_id":2404028877,"category":"wine_shop","name":"Cave de Régusse","tags":{"addr:city":"Forcalquier","addr:postcode":"04300","addr:street":"Boulevard des Martyrs de la Résistance","name":"Cave de Régusse","opening_hours":"Mo-Su 09:00-12:30, Mo-Sa 15:00-19:30","shop":"wine","website":"https://www.cave-regusse-forcalquier.fr/","wheelchair":"yes"}}},{"type":"Feature","id":"node/2405058705","geometry":{"type":"Point","coordinates":[4.8606572,47.0669037]},"properties":{"osm_type":"node","osm_id":2405058705,"category":"wine_shop","name":"Domaine Château de Corton André","tags":{"addr:postcode":"21420","name":"Domaine Château de Corton André","shop":"wine","website":"http://www.corton-andre.com"}}},{"type":"Feature","id":"node/2406405996","geometry":{"type":"Point","coordinates":[-0.7757641,45.2307746]},"properties":{"osm_type":"node","osm_id":2406405996,"category":"winery","name":"Château Cos d'Estournel","wikidata":"Q388478","tags":{"craft":"winery","name":"Château Cos d'Estournel","wikidata":"Q388478"}}},{"type":"Feature","id":"node/2406405997","geometry":{"type":"Point","coordinates":[-0.776837,45.2309433]},"properties":{"osm_type":"node","osm_id":2406405997,"category":"winery","name":"Château Cos Labory","wikidata":"Q1090414","tags":{"craft":"winery","name":"Château Cos Labory","website":"https://www.cos-labory.com/","wikidata":"Q1090414"}}},{"type":"Feature","id":"node/2406405998","geometry":{"type":"Point","coordinates":[-0.7877916,45.2294052]},"properties":{"osm_type":"node","osm_id":2406405998,"category":"winery","name":"Château Lafon Rochet","wikidata":"Q1090522","tags":{"addr:city":"Saint-Estèphe","addr:street":"Route de Bordeaux","craft":"winery","email":"lafon@lafon-rochet.com","name":"Château Lafon Rochet","phone":"+33 5 56 59 32 06","website":"https://www.lafon-rochet.com/","wikidata":"Q1090522"}}},{"type":"Feature","id":"node/2407761748","geometry":{"type":"Point","coordinates":[-0.8013089,45.22724]},"properties":{"osm_type":"node","osm_id":2407761748,"category":"winery","name":"Château Puy Castéra","tags":{"addr:city":"Cissac-Médoc","addr:housenumber":"8","addr:postcode":"33250","addr:street":"Route du Castéra","craft":"winery","name":"Château Puy Castéra"}}},{"type":"Feature","id":"node/2416329265","geometry":{"type":"Point","coordinates":[4.4744188,44.5637178]},"properties":{"osm_type":"node","osm_id":2416329265,"category":"wine_shop","name":"Caveau de Montfleury","tags":{"name":"Caveau de Montfleury","shop":"wine"}}},{"type":"Feature","id":"node/2416632423","geometry":{"type":"Point","coordinates":[2.6246417,43.2227731]},"properties":{"osm_type":"node","osm_id":2416632423,"category":"wine_shop","name":"Domaine La Forge Carbou","tags":{"email":"domainelaforgecarbou@sfr.fr","name":"Domaine La Forge Carbou","phone":"+33 6 10 76 46 24","shop":"wine"}}},{"type":"Feature","id":"node/2421970207","geometry":{"type":"Point","coordinates":[4.9072121,45.0600692]},"properties":{"osm_type":"node","osm_id":2421970207,"category":"wine_shop","name":"Cave Pradelle","tags":{"addr:housenumber":"905","addr:street":"Route de Tain","name":"Cave Pradelle","opening_hours":"Mo-Sa 09:30-18:00","shop":"wine"}}},{"type":"Feature","id":"node/2424036341","geometry":{"type":"Point","coordinates":[4.6015476,44.5665027]},"properties":{"osm_type":"node","osm_id":2424036341,"category":"winery","tags":{"craft":"winery","opening_hours":"Mo-Sa 09:00-12:00,14:00-18:00","phone":"+33 4 75 52 45 66","shop":"wine","website":"https://ardeche.louislatour.com/"}}},{"type":"Feature","id":"node/2424079102","geometry":{"type":"Point","coordinates":[4.4177146,44.5412578]},"properties":{"osm_type":"node","osm_id":2424079102,"category":"wine_shop","tags":{"shop":"wine"}}},{"type":"Feature","id":"node/2429079911","geometry":{"type":"Point","coordinates":[-1.5481446,47.2124631]},"properties":{"osm_type":"node","osm_id":2429079911,"category":"wine_shop","name":"Les Chants d'Avril","tags":{"amenity":"restaurant","cuisine":"french","name":"Les Chants d'Avril","opening_hours":"Mo-We 12:00-13:30; Th,Fr 12:00-13:30,20:00-21:30","shop":"wine"}}},{"type":"Feature","id":"node/2434062194","geometry":{"type":"Point","coordinates":[-1.3321339,46.1552407]},"properties":{"osm_type":"node","osm_id":2434062194,"category":"wine_shop","name":"Vin sur table","tags":{"name":"Vin sur table","opening_hours":"Mo-Su 09:30-12:30, Mo-Sa 17:00-19:00","shop":"wine","wheelchair":"limited"}}},{"type":"Feature","id":"node/2434985324","geometry":{"type":"Point","coordinates":[3.7397348,45.5499562]},"properties":{"osm_type":"node","osm_id":2434985324,"category":"wine_shop","name":"L'Amphore","tags":{"name":"L'Amphore","shop":"wine"}}},{"type":"Feature","id":"node/2438040945","geometry":{"type":"Point","coordinates":[2.7839621,43.3506576]},"properties":{"osm_type":"node","osm_id":2438040945,"category":"winery","name":"Château Coupe Roses","tags":{"craft":"winery","name":"Château Coupe Roses","shop":"wine","wheelchair":"yes"}}},{"type":"Feature","id":"node/2447719459","geometry":{"type":"Point","coordinates":[1.4462027,43.6065991]},"properties":{"osm_type":"node","osm_id":2447719459,"category":"wine_shop","name":"L'Envie","tags":{"name":"L'Envie","shop":"wine"}}},{"type":"Feature","id":"node/2454590926","geometry":{"type":"Point","coordinates":[5.5406932,43.4364161]},"properties":{"osm_type":"node","osm_id":2454590926,"category":"wine_shop","name":"La Grande Cave","tags":{"name":"La Grande Cave","shop":"wine"}}},{"type":"Feature","id":"node/2456796458","geometry":{"type":"Point","coordinates":[2.3128036,48.7530903]},"properties":{"osm_type":"node","osm_id":2456796458,"category":"wine_shop","name":"L'Epicurieux","tags":{"name":"L'Epicurieux","shop":"wine"}}},{"type":"Feature","id":"node/2462105474","geometry":{"type":"Point","coordinates":[-0.7417463,45.1521399]},"properties":{"osm_type":"node","osm_id":2462105474,"category":"winery","name":"Château du Glana","tags":{"craft":"winery","name":"Château du Glana"}}},{"type":"Feature","id":"node/2462536391","geometry":{"type":"Point","coordinates":[4.7987606,45.7566019]},"properties":{"osm_type":"node","osm_id":2462536391,"category":"wine_shop","name":"Copvin","tags":{"name":"Copvin","shop":"wine"}}},{"type":"Feature","id":"node/2478393293","geometry":{"type":"Point","coordinates":[1.4508971,43.6007394]},"properties":{"osm_type":"node","osm_id":2478393293,"category":"wine_shop","name":"Biodivin","tags":{"name":"Biodivin","opening_hours":"Tu-Fr 16:30-21:00, Th,Fr 10:30-13:30, Sa 10:30-14:30,15:30-21:00, Su 10:30-14:00","shop":"wine","wheelchair":"no"}}},{"type":"Feature","id":"node/2479079461","geometry":{"type":"Point","coordinates":[2.1306868,48.8061256]},"properties":{"osm_type":"node","osm_id":2479079461,"category":"wine_shop","name":"Quille","tags":{"name":"Quille","shop":"wine"}}},{"type":"Feature","id":"node/2502729868","geometry":{"type":"Point","coordinates":[2.7653118,43.2401114]},"properties":{"osm_type":"node","osm_id":2502729868,"category":"wine_shop","name":"Domaine des Maels","tags":{"name":"Domaine des Maels","phone":"+33 4 68 27 52 29","shop":"wine","website":"https://domainedesmaels.com/"}}},{"type":"Feature","id":"node/2505544836","geometry":{"type":"Point","coordinates":[2.9037817,43.2677819]},"properties":{"osm_type":"node","osm_id":2505544836,"category":"wine_shop","name":"Domaine Bosquet du Somail","tags":{"name":"Domaine Bosquet du Somail","opening_hours":"Mo-Su 11:00-13:00, 16:30-20:30","shop":"wine"}}},{"type":"Feature","id":"node/2513052257","geometry":{"type":"Point","coordinates":[-0.2479874,44.9122121]},"properties":{"osm_type":"node","osm_id":2513052257,"category":"wine_shop","name":"Horeau-Beylot","tags":{"name":"Horeau-Beylot","shop":"wine"}}},{"type":"Feature","id":"node/2513052264","geometry":{"type":"Point","coordinates":[-0.2482398,44.9102915]},"properties":{"osm_type":"node","osm_id":2513052264,"category":"wine_shop","name":"Jean-Baptiste Audy","tags":{"addr:city":"Libourne","addr:housenumber":"31","addr:postcode":"33500","addr:street":"Quai du Priourat","name":"Jean-Baptiste Audy","shop":"wine"}}},{"type":"Feature","id":"node/2513052268","geometry":{"type":"Point","coordinates":[-0.2482754,44.9089763]},"properties":{"osm_type":"node","osm_id":2513052268,"category":"wine_shop","name":"Jean-Pierre Moueix","tags":{"name":"Jean-Pierre Moueix","shop":"wine"}}},{"type":"Feature","id":"node/2527818307","geometry":{"type":"Point","coordinates":[-0.519417,45.9408527]},"properties":{"osm_type":"node","osm_id":2527818307,"category":"wine_shop","name":"La Cave Angerienne","tags":{"addr:housenumber":"25","name":"La Cave Angerienne","opening_hours":"Tu-Sa 10:00-13:00,16:30-19:30; Su 10:00-13:00","shop":"wine"}}},{"type":"Feature","id":"node/2571223362","geometry":{"type":"Point","coordinates":[-0.4631595,46.3237865]},"properties":{"osm_type":"node","osm_id":2571223362,"category":"wine_shop","name":"Sobre","tags":{"name":"Sobre","opening_hours":"Tu 18:00-24:00; We 16:00-23:00; Th-Sa 16:00-01:00","shop":"wine","wheelchair":"limited"}}},{"type":"Feature","id":"node/2571232345","geometry":{"type":"Point","coordinates":[7.5091053,48.585345]},"properties":{"osm_type":"node","osm_id":2571232345,"category":"winery","name":"Alexandre Arbogast","tags":{"addr:housenumber":"57","addr:street":"Rue Principale","craft":"winery","name":"Alexandre Arbogast","wheelchair":"yes"}}},{"type":"Feature","id":"node/2585039654","geometry":{"type":"Point","coordinates":[5.594912,46.715428]},"properties":{"osm_type":"node","osm_id":2585039654,"category":"winery","name":"Philippe Butin","tags":{"craft":"winery","email":"ph.butin@wanadoo.fr","name":"Philippe Butin","operator":"Philippe Butin","phone":"+33 3 84 25 36 26","shop":"alcohol"}}},{"type":"Feature","id":"node/2595193751","geometry":{"type":"Point","coordinates":[5.9208047,45.5655741]},"properties":{"osm_type":"node","osm_id":2595193751,"category":"wine_shop","name":"Cave à Perret","tags":{"name":"Cave à Perret","opening_hours":"Mo 14:30-19:30; Tu-Sa 09:30-19:30","shop":"wine"}}},{"type":"Feature","id":"node/2597027794","geometry":{"type":"Point","coordinates":[4.839504,45.0710391]},"properties":{"osm_type":"node","osm_id":2597027794,"category":"winery","name":"M. Chapoutier","tags":{"craft":"winery","name":"M. Chapoutier","opening_hours":"Mo-Su 10:00-13:00,14:00-19:00","shop":"wine"}}},{"type":"Feature","id":"node/2611624694","geometry":{"type":"Point","coordinates":[2.703493,48.407805]},"properties":{"osm_type":"node","osm_id":2611624694,"category":"wine_shop","name":"Cavavin","tags":{"addr:city":"Fontainebleau","addr:housenumber":"103","addr:postcode":"77300","addr:street":"Rue Grande","email":"fontainebleau@cavavin.fr","name":"Cavavin","opening_hours":"Tu-Th 10:00-13:00, 14:30-19:30; Fr 10:00-13:00, 14:30-19:45; Sa 10:00-19:00; Su 10:00-13:00","phone":"+33 1 64 31 27 96","shop":"wine","website":"https://www.cavavin.co/caviste/fontainebleau","wheelchair":"no"}}},{"type":"Feature","id":"node/2616981151","geometry":{"type":"Point","coordinates":[-2.3394783,47.2602797]},"properties":{"osm_type":"node","osm_id":2616981151,"category":"wine_shop","name":"Cavavin","tags":{"name":"Cavavin","opening_hours":"Tu-Sa 15:30-20:00, Tu-Su 09:00-13:00","shop":"wine","wheelchair":"yes"}}},{"type":"Feature","id":"node/2627481250","geometry":{"type":"Point","coordinates":[2.3056189,48.6101087]},"properties":{"osm_type":"node","osm_id":2627481250,"category":"wine_shop","name":"La cave de Brétigny","tags":{"email":"contact@lacavedebretigny.fr","name":"La cave de Brétigny","opening_hours":"Tu-Fr 10:00-13:30,15:00-19:30; Sa 10:00-19:30; Su 09:30-13:30","phone":"+33 169 88 82 36","shop":"wine","website":"https://www.lacavedebretigny.fr/"}}},{"type":"Feature","id":"node/2640790961","geometry":{"type":"Point","coordinates":[5.2745436,44.7271457]},"properties":{"osm_type":"node","osm_id":2640790961,"category":"winery","name":"Domaine de Magord","tags":{"craft":"winery","name":"Domaine de Magord","name:oc":"Magòr","website":"https://www.cavevincent.com/domaines/domaine-de-magord/2451"}}},{"type":"Feature","id":"node/2653970443","geometry":{"type":"Point","coordinates":[2.3667379,48.8649926]},"properties":{"osm_type":"node","osm_id":2653970443,"category":"wine_shop","name":"Delicatessen Cave","tags":{"name":"Delicatessen Cave","shop":"wine"}}},{"type":"Feature","id":"node/2671539476","geometry":{"type":"Point","coordinates":[0.5075508,44.8648385]},"properties":{"osm_type":"node","osm_id":2671539476,"category":"winery","name":"Château les Farcies du Pech","tags":{"craft":"winery","name":"Château les Farcies du Pech","name:fr":"Château les Farcies du Pech","website":"http://www.chateaulesfarciesdupech.com"}}},{"type":"Feature","id":"node/2677393929","geometry":{"type":"Point","coordinates":[2.9509208,43.4382222]},"properties":{"osm_type":"node","osm_id":2677393929,"category":"winery","name":"Domaine Les Asphodèles","tags":{"craft":"winery","name":"Domaine Les Asphodèles","website":"https://domaine.de.canimals.free.fr/"}}},{"type":"Feature","id":"node/2702756269","geometry":{"type":"Point","coordinates":[-1.5511148,43.4860322]},"properties":{"osm_type":"node","osm_id":2702756269,"category":"wine_shop","name":"Wine Shop","tags":{"addr:city":"Biarritz","addr:housenumber":"14","addr:postcode":"64200","addr:street":"Rue de la Bergerie","email":"wineshopbiarritz@gmail.com","name":"Wine Shop","shop":"wine","website":"https://www.wineshop-biarritz.fr/"}}},{"type":"Feature","id":"node/2704703703","geometry":{"type":"Point","coordinates":[0.0934707,49.496557]},"properties":{"osm_type":"node","osm_id":2704703703,"category":"wine_shop","name":"L'escapade","tags":{"addr:city":"Le Havre","addr:housenumber":"34","addr:postcode":"76600","addr:street":"Boulevard Albert 1er","email":"contact@lescapade-lh.fr","name":"L'escapade","opening_hours":"Tu-Sa 10:00-13:00,15:00-22:00","phone":"+33 2 35 41 99 83","shop":"wine","website":"https://www.lescapade-lh.fr/"}}},{"type":"Feature","id":"node/2708792663","geometry":{"type":"Point","coordinates":[2.3620033,48.8547434]},"properties":{"osm_type":"node","osm_id":2708792663,"category":"wine_shop","name":"Nysa","tags":{"name":"Nysa","opening_hours":"We-Fr 10:00-13:00, 14:30-20:30; Mo-Tu 10:30-13:30, 14:30-20:00; Sa 09:30-13:00, 13:30-20:30; Su 10:00-14:00","shop":"wine","wheelchair":"limited"}}},{"type":"Feature","id":"node/2719569157","geometry":{"type":"Point","coordinates":[9.3491604,42.695827]},"properties":{"osm_type":"node","osm_id":2719569157,"category":"wine_cellar","name":"Domaine Jean Noel Grossi","tags":{"name":"Domaine Jean Noel Grossi","shop":"alcohol","tourism":"wine_cellar","website":"https://www.nustrale.com/vin/patrimonio/grossi.htm"}}},{"type":"Feature","id":"node/2794318415","geometry":{"type":"Point","coordinates":[0.3423506,46.5836272]},"properties":{"osm_type":"node","osm_id":2794318415,"category":"wine_shop","name":"Le Dit/vin","tags":{"addr:housenumber":"5","addr:street":"Rue de la Regratterie","name":"Le Dit/vin","opening_hours":"We-Sa 10:00-13:30,15:00-19:00","shop":"wine"}}},{"type":"Feature","id":"node/2799009885","geometry":{"type":"Point","coordinates":[2.3413894,48.8764669]},"properties":{"osm_type":"node","osm_id":2799009885,"category":"wine_shop","name":"Fro Paris Est","tags":{"addr:housenumber":"10","addr:postcode":"75009","addr:street":"Rue de Maubeuge","name":"Fro Paris Est","opening_hours":"Tu-Sa 17:00-23:00","operator":"FRO. PARIS EST","shop":"wine","website":"https://froparis.fr/"}}},{"type":"Feature","id":"node/2823258301","geometry":{"type":"Point","coordinates":[2.288728,48.88185]},"properties":{"osm_type":"node","osm_id":2823258301,"category":"wine_shop","name":"La Cave 17","tags":{"addr:city":"Paris","addr:housenumber":"37","addr:postcode":"75017","addr:street":"Rue Guersant","name":"La Cave 17","opening_hours":"Mo-Sa 10:30-22:00","shop":"wine","website":"https://www.cave-paris17.fr","wheelchair":"no"}}},{"type":"Feature","id":"node/2846468068","geometry":{"type":"Point","coordinates":[-1.5629745,47.2225012]},"properties":{"osm_type":"node","osm_id":2846468068,"category":"wine_shop","name":"Les Domaines qui montent","tags":{"brand":"Les Domaines qui montent","email":"ldqm-nantes@sfr.fr","name":"Les Domaines qui montent","opening_hours":"Tu-Sa 10:00-19:30; Mo 11:30-19:30","phone":"+33 2 53 78 46 17","shop":"wine","website":"https://www.lesdomainesquimontent.com/nantes-44000-caviste-epicerie-fine","wheelchair":"yes"}}},{"type":"Feature","id":"node/2852781203","geometry":{"type":"Point","coordinates":[5.0259972,45.2555777]},"properties":{"osm_type":"node","osm_id":2852781203,"category":"wine_shop","name":"La cave du facteur","tags":{"name":"La cave du facteur","shop":"wine"}}},{"type":"Feature","id":"node/2853092049","geometry":{"type":"Point","coordinates":[-0.0868945,47.0779895]},"properties":{"osm_type":"node","osm_id":2853092049,"category":"winery","name":"Isabelle Suire","tags":{"craft":"winery","email":"isbabelle-suire@orange.fr","name":"Isabelle Suire","phone":"+33549229261","website":"https://www.isabellesuire.fr/"}}},{"type":"Feature","id":"node/2888189450","geometry":{"type":"Point","coordinates":[4.1199277,46.4518614]},"properties":{"osm_type":"node","osm_id":2888189450,"category":"wine_shop","name":"L'atelier rouge raisin","tags":{"addr:city":"Paray-le-Monial","addr:housenumber":"10","addr:postcode":"71600","addr:street":"Place Guignault","email":"latelier.rougeraisin@gmail.com","name":"L'atelier rouge raisin","phone":"+33 6 48 07 61 52","shop":"wine","website":"https://www.latelier-rougeraisin.fr/"}}},{"type":"Feature","id":"node/2894143722","geometry":{"type":"Point","coordinates":[4.770221,46.9740145]},"properties":{"osm_type":"node","osm_id":2894143722,"category":"winery","name":"Domaine Bernard MILLOT","tags":{"addr:housenumber":"27","craft":"winery","email":"contact.millotb@domaine-millot.com","name":"Domaine Bernard MILLOT","opening_hours":"Mo-Sa 08:00-12:00,14:00-18:00","phone":"+33 3 80 21 20 91","shop":"wine","website":"https://www.domaine-millot.com/"}}},{"type":"Feature","id":"node/2906955550","geometry":{"type":"Point","coordinates":[2.9543745,47.2852065]},"properties":{"osm_type":"node","osm_id":2906955550,"category":"winery","name":"Masson-Blondelet","tags":{"addr:city":"Pouilly-sur-Loire","addr:housenumber":"1","addr:postcode":"58150","craft":"winery","email":"info@masson-blondelet.com","name":"Masson-Blondelet","shop":"wine","website":"https://www.masson-blondelet.com/"}}},{"type":"Feature","id":"node/2908707101","geometry":{"type":"Point","coordinates":[6.6955178,43.6237141]},"properties":{"osm_type":"node","osm_id":2908707101,"category":"wine_shop","name":"Vins biologique de Provence","tags":{"addr:city":"Fayence","addr:housenumber":"20","addr:postcode":"83440","addr:street":"Place de la République","name":"Vins biologique de Provence","shop":"wine"}}},{"type":"Feature","id":"node/2909156241","geometry":{"type":"Point","coordinates":[2.6277087,43.0066969]},"properties":{"osm_type":"node","osm_id":2909156241,"category":"wine_shop","name":"Domaine des Pierres Bleues","tags":{"addr:city":"Villerouge-Termenès","addr:housenumber":"4","addr:postcode":"11330","addr:street":"Rue Blanche","name":"Domaine des Pierres Bleues","opening_hours":"\"Sur rendez-vous\"","shop":"wine"}}},{"type":"Feature","id":"node/2919544307","geometry":{"type":"Point","coordinates":[2.3792679,48.8848195]},"properties":{"osm_type":"node","osm_id":2919544307,"category":"wine_shop","name":"Substrats caviste","tags":{"name":"Substrats caviste","shop":"wine"}}},{"type":"Feature","id":"node/2923184915","geometry":{"type":"Point","coordinates":[3.7061968,43.5493393]},"properties":{"osm_type":"node","osm_id":2923184915,"category":"wine_shop","name":"Domaine de Terre Mégère","tags":{"addr:housenumber":"10","addr:street":"Rue du Jeu de Tambourin","name":"Domaine de Terre Mégère","opening_hours":"Mo-Fr 11:30-12:30,17:00-19:00, Sa 09:00-12:30","shop":"wine","website":"http://www.terremegere.fr"}}},{"type":"Feature","id":"node/2927586662","geometry":{"type":"Point","coordinates":[-1.658752,48.1143301]},"properties":{"osm_type":"node","osm_id":2927586662,"category":"wine_shop","name":"Rezin","tags":{"addr:city":"Rennes","addr:housenumber":"115","addr:postcode":"35000","addr:street":"Rue de Paris","name":"Rezin","opening_hours":"Tu,We 10:00-13:30,15:30-19:00; Th,Fr 10:00-13:30,15:30-21:00; Sa 10:00-20:00; Su,Mo,PH off","phone":"+33 2 99 36 95 45","shop":"wine"}}},{"type":"Feature","id":"node/2927784399","geometry":{"type":"Point","coordinates":[-1.032418,47.3857559]},"properties":{"osm_type":"node","osm_id":2927784399,"category":"wine_shop","tags":{"shop":"wine"}}},{"type":"Feature","id":"node/2929294101","geometry":{"type":"Point","coordinates":[4.8345975,47.0262295]},"properties":{"osm_type":"node","osm_id":2929294101,"category":"wine_shop","name":"Caves de l'Abbaye","tags":{"addr:housenumber":"28","addr:street":"Rue Sylvestre Chauvelot","name":"Caves de l'Abbaye","name:en":"Caves de l'Abbaye","shop":"wine"}}},{"type":"Feature","id":"node/2941733569","geometry":{"type":"Point","coordinates":[5.7229736,45.185905]},"properties":{"osm_type":"node","osm_id":2941733569,"category":"wine_shop","name":"Gramenon et compagnie","tags":{"name":"Gramenon et compagnie","opening_hours":"Tu-Fr 11:00-13:30, 15:30-19:30; Sa 10:00-13:30, 15:30-19:30","shop":"wine","wheelchair":"no"}}},{"type":"Feature","id":"node/2949227449","geometry":{"type":"Point","coordinates":[4.4310547,44.3068215]},"properties":{"osm_type":"node","osm_id":2949227449,"category":"wine_shop","name":"Cave coopérative","tags":{"name":"Cave coopérative","shop":"wine"}}},{"type":"Feature","id":"node/2963043794","geometry":{"type":"Point","coordinates":[2.3775762,48.8725753]},"properties":{"osm_type":"node","osm_id":2963043794,"category":"wine_shop","name":"La cave à Nico","tags":{"name":"La cave à Nico","shop":"wine","wheelchair":"no"}}},{"type":"Feature","id":"node/2966064007","geometry":{"type":"Point","coordinates":[5.7056734,46.8327989]},"properties":{"osm_type":"node","osm_id":2966064007,"category":"winery","name":"Xavier Reverchon - Viticulteur","tags":{"alt_name":"EARL de Chantemerle2","craft":"winery","email":"reverchon.chantemerle@wanadoo.fr","name":"Xavier Reverchon - Viticulteur","operator":"Isabelle et Xavier Reverchon","phone":"+33 3 84 37 02 58","shop":"alcohol","website":"https://www.domainereverchonvinjura.com"}}},{"type":"Feature","id":"node/2975323024","geometry":{"type":"Point","coordinates":[4.7057632,44.0113176]},"properties":{"osm_type":"node","osm_id":2975323024,"category":"wine_shop","name":"Domaine de la Mordorée","tags":{"addr:city":"Tavel","addr:postcode":"30126","addr:street":"Chemin des Oliviers","email":"info@domaine-mordoree.com","name":"Domaine de la Mordorée","opening_hours":"Mo-Fr 08:00-12:00,13:30-18:00; Sa-Su 10:00-12:00,15:00-18:00; PH 10:00-12:00,15:00-18:00","shop":"wine","website":"https://www.domaine-mordoree.com/"}}},{"type":"Feature","id":"node/2978102523","geometry":{"type":"Point","coordinates":[2.4341107,48.8576027]},"properties":{"osm_type":"node","osm_id":2978102523,"category":"wine_shop","name":"La CaVe","tags":{"alt_name":"La CaVe est Restaurant","amenity":"restaurant","name":"La CaVe","phone":"+33 1 42 87 09 48","shop":"wine","website":"http://www.lacaveestrestaurant.fr","wheelchair":"no"}}},{"type":"Feature","id":"node/2980058928","geometry":{"type":"Point","coordinates":[2.3541261,48.8609045]},"properties":{"osm_type":"node","osm_id":2980058928,"category":"wine_shop","name":"Le Bon Vin, Les Bons Moments","tags":{"addr:housenumber":"29","addr:street":"Rue Rambuteau","name":"Le Bon Vin, Les Bons Moments","shop":"wine","website":"https://www.nysa.fr/nos-magasins"}}},{"type":"Feature","id":"node/3010880502","geometry":{"type":"Point","coordinates":[-0.462742,43.5431579]},"properties":{"osm_type":"node","osm_id":3010880502,"category":"winery","name":"Vins L'Escudé","tags":{"craft":"winery","name":"Vins L'Escudé","shop":"alcohol"}}},{"type":"Feature","id":"node/3011968495","geometry":{"type":"Point","coordinates":[3.0248853,42.9112946]},"properties":{"osm_type":"node","osm_id":3011968495,"category":"wine_shop","name":"Vignobles Cap Leucate","tags":{"addr:housenumber":"2 B","addr:street":"Avenue Francis Vals","name":"Vignobles Cap Leucate","phone":"+33468332041","shop":"wine"}}},{"type":"Feature","id":"node/3020555592","geometry":{"type":"Point","coordinates":[7.5105683,48.5686643]},"properties":{"osm_type":"node","osm_id":3020555592,"category":"winery","name":"Domaine André Regin","tags":{"addr:housenumber":"4","craft":"winery","name":"Domaine André Regin","phone":"+33388381702","shop":"alcohol","website":"https://domaine-regin.fr/"}}},{"type":"Feature","id":"node/3022940480","geometry":{"type":"Point","coordinates":[2.3908166,48.8753695]},"properties":{"osm_type":"node","osm_id":3022940480,"category":"wine_shop","name":"Cavavin","tags":{"name":"Cavavin","shop":"wine"}}},{"type":"Feature","id":"node/3039756195","geometry":{"type":"Point","coordinates":[2.3307772,43.3103275]},"properties":{"osm_type":"node","osm_id":3039756195,"category":"winery","name":"Domaine de Cabrol","tags":{"craft":"winery","name":"Domaine de Cabrol","shop":"alcohol"}}},{"type":"Feature","id":"node/3040166078","geometry":{"type":"Point","coordinates":[7.0130843,43.5524123]},"properties":{"osm_type":"node","osm_id":3040166078,"category":"wine_shop","name":"Cavavin","tags":{"name":"Cavavin","shop":"wine"}}},{"type":"Feature","id":"node/3040166453","geometry":{"type":"Point","coordinates":[7.0212385,43.5531236]},"properties":{"osm_type":"node","osm_id":3040166453,"category":"wine_shop","name":"Aux coteaux de France","tags":{"name":"Aux coteaux de France","shop":"wine"}}},{"type":"Feature","id":"node/3048823845","geometry":{"type":"Point","coordinates":[1.0747055,44.5018104]},"properties":{"osm_type":"node","osm_id":3048823845,"category":"winery","name":"La Gineste","tags":{"craft":"winery","name":"La Gineste"}}},{"type":"Feature","id":"node/3049246850","geometry":{"type":"Point","coordinates":[2.9691498,42.6936693]},"properties":{"osm_type":"node","osm_id":3049246850,"category":"winery","name":"Caveau domaine Lafage","tags":{"craft":"winery","name":"Caveau domaine Lafage"}}},{"type":"Feature","id":"node/3056847971","geometry":{"type":"Point","coordinates":[-1.438886,46.3443245]},"properties":{"osm_type":"node","osm_id":3056847971,"category":"wine_shop","name":"Bar à Vins & Bières","tags":{"name":"Bar à Vins & Bières","shop":"wine"}}},{"type":"Feature","id":"node/3070150850","geometry":{"type":"Point","coordinates":[6.2589387,46.2723486]},"properties":{"osm_type":"node","osm_id":3070150850,"category":"wine_shop","name":"Les Caves du Léman","tags":{"name":"Les Caves du Léman","shop":"wine","website":"https://www.les-caves-du-leman.com/"}}},{"type":"Feature","id":"node/3070364960","geometry":{"type":"Point","coordinates":[3.5045817,43.6894472]},"properties":{"osm_type":"node","osm_id":3070364960,"category":"wine_shop","name":"Vignoble Vallat","tags":{"name":"Vignoble Vallat","shop":"wine"}}},{"type":"Feature","id":"node/3071901696","geometry":{"type":"Point","coordinates":[-1.1497642,46.1579682]},"properties":{"osm_type":"node","osm_id":3071901696,"category":"wine_shop","name":"Cave de la Guignette","tags":{"name":"Cave de la Guignette","opening_hours":"Mo-Sa 11:00-13:00,17:00-21:00","shop":"wine"}}},{"type":"Feature","id":"node/3073148508","geometry":{"type":"Point","coordinates":[3.9696952,44.0670152]},"properties":{"osm_type":"node","osm_id":3073148508,"category":"wine_shop","name":"Vignoble Mas Seren","tags":{"addr:city":"Anduze","addr:housenumber":"1820","addr:postcode":"30140","addr:street":"Route de Saint-Jean du Gard","email":"contact@mas-seren.fr","name":"Vignoble Mas Seren","shop":"wine","website":"https://www.mas-seren.fr/"}}},{"type":"Feature","id":"node/3092954085","geometry":{"type":"Point","coordinates":[7.4896202,48.5244329]},"properties":{"osm_type":"node","osm_id":3092954085,"category":"winery","name":"Pantzer Camille","tags":{"addr:housenumber":"76","craft":"winery","name":"Pantzer Camille"}}},{"type":"Feature","id":"node/3093937491","geometry":{"type":"Point","coordinates":[7.4823889,48.5245871]},"properties":{"osm_type":"node","osm_id":3093937491,"category":"winery","name":"Jean Rapp","tags":{"addr:housenumber":"1","craft":"winery","name":"Jean Rapp"}}},{"type":"Feature","id":"node/3093937519","geometry":{"type":"Point","coordinates":[7.4821787,48.5246038]},"properties":{"osm_type":"node","osm_id":3093937519,"category":"winery","tags":{"addr:housenumber":"3","craft":"winery"}}},{"type":"Feature","id":"node/3093943739","geometry":{"type":"Point","coordinates":[7.4819021,48.5247567]},"properties":{"osm_type":"node","osm_id":3093943739,"category":"winery","name":"Jacques & Christophe Lindenlaub","tags":{"addr:housenumber":"6","craft":"winery","name":"Jacques & Christophe Lindenlaub"}}},{"type":"Feature","id":"node/3094112070","geometry":{"type":"Point","coordinates":[7.48746,48.5261104]},"properties":{"osm_type":"node","osm_id":3094112070,"category":"winery","name":"Bernard Gost","tags":{"addr:housenumber":"18","craft":"winery","name":"Bernard Gost"}}},{"type":"Feature","id":"node/3097955529","geometry":{"type":"Point","coordinates":[9.3338728,41.6802041]},"properties":{"osm_type":"node","osm_id":3097955529,"category":"winery","name":"Domaine de Torraccia","tags":{"craft":"winery","name":"Domaine de Torraccia","phone":"+33 4 95 71 43 50","shop":"farm","website":"https://www.domaine-de-torraccia.com/","wheelchair":"limited"}}},{"type":"Feature","id":"node/3106667267","geometry":{"type":"Point","coordinates":[2.4346329,48.8027277]},"properties":{"osm_type":"node","osm_id":3106667267,"category":"wine_shop","name":"Lovin'","tags":{"addr:city":"Maisons-Alfort","addr:housenumber":"1 bis","addr:postcode":"94700","addr:street":"Avenue Léon Blum","name":"Lovin'","opening_hours":"Tu-Fr 10:00-13:00,15:00-20:00; Sa 10:00-20:00; Su 10:00-13:30","shop":"wine"}}},{"type":"Feature","id":"node/3139703597","geometry":{"type":"Point","coordinates":[2.4648859,44.4738977]},"properties":{"osm_type":"node","osm_id":3139703597,"category":"wine_shop","name":"Les vignerons du vallon","tags":{"addr:city":"Marcillac-Vallon","addr:housenumber":"40","addr:postcode":"12330","addr:street":"Tour de Ville","name":"Les vignerons du vallon","shop":"wine"}}},{"type":"Feature","id":"node/3155147382","geometry":{"type":"Point","coordinates":[-0.1686538,43.5550624]},"properties":{"osm_type":"node","osm_id":3155147382,"category":"winery","name":"Domaine Betbeder","tags":{"addr:city":"Conchez-de-Béarn","addr:postcode":"64330","craft":"winery","name":"Domaine Betbeder","phone":"+33 5 59 04 00 54","website":"https://www.domainebetbeder.com/"}}},{"type":"Feature","id":"node/3157692099","geometry":{"type":"Point","coordinates":[-1.2121699,48.1236574]},"properties":{"osm_type":"node","osm_id":3157692099,"category":"wine_shop","name":"Le Cellier Vitréen","tags":{"addr:city":"Vitré","addr:housenumber":"17bis","addr:postcode":"35500","addr:street":"Rue Garengeot","email":"lecelliervitreen@sommeliers","name":"Le Cellier Vitréen","opening_hours":"Tu-Th 10:00-12:30,14:30-19:30; Fr 10:00-13:00,14:30-19:30; Sa 09:30-13:00,14:30-19:30","phone":"+33 2 99 74 00 81","shop":"wine","website":"https://www.sommeliers-cavistes.com/cellier-vitreen/"}}},{"type":"Feature","id":"node/3158226315","geometry":{"type":"Point","coordinates":[5.5648025,46.6602396]},"properties":{"osm_type":"node","osm_id":3158226315,"category":"winery","name":"Domaine Pignier","tags":{"addr:city":"Montaigu","addr:housenumber":"11","addr:postcode":"39570","addr:street":"Place Rouget de Lisle","craft":"winery","name":"Domaine Pignier","opening_hours":"Mo-Fr 14:00-18:30; Sa 09:30-12:00; Su,PH off","operator":"Famille Pignier","phone":"+33 3 84 24 24 30","shop":"alcohol","website":"https://www.domaine-pignier.com"}}},{"type":"Feature","id":"node/3165579621","geometry":{"type":"Point","coordinates":[2.6199316,43.0894166]},"properties":{"osm_type":"node","osm_id":3165579621,"category":"wine_shop","name":"Domaine La Jument Rousse","tags":{"name":"Domaine La Jument Rousse","shop":"wine"}}},{"type":"Feature","id":"node/3179596596","geometry":{"type":"Point","coordinates":[2.31904,48.8476264]},"properties":{"osm_type":"node","osm_id":3179596596,"category":"wine_shop","name":"La Cave de Sèvres","tags":{"name":"La Cave de Sèvres","shop":"wine","wheelchair":"yes"}}},{"type":"Feature","id":"node/3212526216","geometry":{"type":"Point","coordinates":[3.0335051,42.5754423]},"properties":{"osm_type":"node","osm_id":3212526216,"category":"winery","name":"Domaine Saint-Thomas","tags":{"craft":"winery","name":"Domaine Saint-Thomas"}}},{"type":"Feature","id":"node/3224025463","geometry":{"type":"Point","coordinates":[-4.3465469,48.0915714]},"properties":{"osm_type":"node","osm_id":3224025463,"category":"wine_shop","tags":{"addr:housenumber":"3","addr:street":"Rue Edouard Branly","shop":"wine"}}},{"type":"Feature","id":"node/3224518009","geometry":{"type":"Point","coordinates":[6.3302317,43.482853]},"properties":{"osm_type":"node","osm_id":3224518009,"category":"winery","name":"Domaine de La Rose Trémière","tags":{"addr:city":"Lorgues","addr:postcode":"83510","addr:street":"Route de Carcès","craft":"winery","email":"rosetremiere83@aol.com","name":"Domaine de La Rose Trémière","opening_hours":"Oct-May Tu-Sa 09:30-12:00,14:00-18:00; Jun-Sep Mo-Sa 09:30-12:00,15:00-19:00","phone":"+33 4 94 73 26 93","website":"https://www.domainelarosetremiere.fr/"}}},{"type":"Feature","id":"node/3250115161","geometry":{"type":"Point","coordinates":[1.1199716,49.4696811]},"properties":{"osm_type":"node","osm_id":3250115161,"category":"wine_shop","name":"inter Caves","tags":{"name":"inter Caves","shop":"wine"}}},{"type":"Feature","id":"node/3259065031","geometry":{"type":"Point","coordinates":[-4.1790842,48.2944911]},"properties":{"osm_type":"node","osm_id":3259065031,"category":"wine_shop","name":"Le Cellier du Faou","tags":{"addr:street":"Rue du Général de Gaulle","name":"Le Cellier du Faou","shop":"wine"}}},{"type":"Feature","id":"node/3261394918","geometry":{"type":"Point","coordinates":[2.3717351,48.8643674]},"properties":{"osm_type":"node","osm_id":3261394918,"category":"wine_shop","name":"Le Verre Volé - La Cave","tags":{"addr:city":"Paris","addr:housenumber":"38","addr:postcode":"75011","addr:street":"Rue Oberkampf","name":"Le Verre Volé - La Cave","phone":"+33 1 43 14 99 46","shop":"wine","website":"https://www.leverrevole.fr/"}}},{"type":"Feature","id":"node/3267513991","geometry":{"type":"Point","coordinates":[1.9027153,47.9045064]},"properties":{"osm_type":"node","osm_id":3267513991,"category":"wine_shop","name":"Côté Cave","tags":{"addr:city":"Orléans","addr:housenumber":"57","addr:postcode":"45000","addr:street":"Rue Bannier","name":"Côté Cave","phone":"+33 2 18 88 91 68","shop":"wine"}}},{"type":"Feature","id":"node/3269731975","geometry":{"type":"Point","coordinates":[2.3732314,48.8757708]},"properties":{"osm_type":"node","osm_id":3269731975,"category":"wine_shop","name":"Le Canon d'Achille","tags":{"amenity":"bar","name":"Le Canon d'Achille","shop":"wine","wheelchair":"limited"}}},{"type":"Feature","id":"node/3294355871","geometry":{"type":"Point","coordinates":[3.4209514,43.713808]},"properties":{"osm_type":"node","osm_id":3294355871,"category":"winery","name":"Cave Coopérative","tags":{"craft":"winery","name":"Cave Coopérative"}}},{"type":"Feature","id":"node/3300692819","geometry":{"type":"Point","coordinates":[2.3815986,48.8581189]},"properties":{"osm_type":"node","osm_id":3300692819,"category":"wine_shop","name":"Le Cent dix sept","tags":{"addr:housenumber":"117","addr:street":"Rue de la Roquette","name":"Le Cent dix sept","opening_hours":"We-Fr 17:00-23:00; Sa 11:00-lc; Su 13:00-20:00","shop":"wine"}}},{"type":"Feature","id":"node/3370153269","geometry":{"type":"Point","coordinates":[-0.0304193,47.0700282]},"properties":{"osm_type":"node","osm_id":3370153269,"category":"winery","name":"GAEC Vallet Serge et Sébastien","tags":{"craft":"winery","name":"GAEC Vallet Serge et Sébastien","phone":"+33549229474","website":"https://www.vallet-s.fr/"}}},{"type":"Feature","id":"node/3370270539","geometry":{"type":"Point","coordinates":[-0.0613496,47.0800245]},"properties":{"osm_type":"node","osm_id":3370270539,"category":"winery","name":"Domaine du Grand Clos","tags":{"craft":"winery","name":"Domaine du Grand Clos","website":"https://domainedugrandclos.fr/"}}},{"type":"Feature","id":"node/3370270561","geometry":{"type":"Point","coordinates":[-0.0626444,47.0799027]},"properties":{"osm_type":"node","osm_id":3370270561,"category":"winery","name":"Renard Lionel","tags":{"craft":"winery","name":"Renard Lionel","phone":"+33549224103"}}},{"type":"Feature","id":"node/3370464369","geometry":{"type":"Point","coordinates":[-0.0709634,47.0672783]},"properties":{"osm_type":"node","osm_id":3370464369,"category":"winery","name":"Château de Berrye","tags":{"addr:housenumber":"2","addr:street":"Rue du Château","craft":"winery","email":"jacques@chateaudeberrye.com","name":"Château de Berrye","phone":"+33685541065","website":"http://www.chateaudeberrye.com"}}},{"type":"Feature","id":"node/3370464370","geometry":{"type":"Point","coordinates":[-0.0761565,47.0799027]},"properties":{"osm_type":"node","osm_id":3370464370,"category":"winery","name":"Domaine de l'Épinay","tags":{"craft":"winery","email":"menestreau-epinay@wanadoo.fr","name":"Domaine de l'Épinay","phone":"+33549229808"}}},{"type":"Feature","id":"node/3370464371","geometry":{"type":"Point","coordinates":[0.0035513,47.0685656]},"properties":{"osm_type":"node","osm_id":3370464371,"category":"winery","name":"Domaine de la Neuraye","tags":{"craft":"winery","email":"laneuraye@orange.fr","name":"Domaine de la Neuraye","phone":"+33549226398"}}},{"type":"Feature","id":"node/3370464372","geometry":{"type":"Point","coordinates":[-0.004965,47.0446022]},"properties":{"osm_type":"node","osm_id":3370464372,"category":"winery","name":"Domaine Saint-Landor","tags":{"craft":"winery","email":"contact @domainesaintlandor.fr","name":"Domaine Saint-Landor","phone":"+33632410621","website":"https://www.domainesaintlandor.fr/"}}},{"type":"Feature","id":"node/3370464588","geometry":{"type":"Point","coordinates":[0.02431,47.1338142]},"properties":{"osm_type":"node","osm_id":3370464588,"category":"winery","name":"Vignoble Château d'Éternes","tags":{"craft":"winery","email":"chateaudeternes@orange.fr","name":"Vignoble Château d'Éternes","phone":"+33 5 49 98 12 46"}}},{"type":"Feature","id":"node/3371478930","geometry":{"type":"Point","coordinates":[-0.0028097,47.1475236]},"properties":{"osm_type":"node","osm_id":3371478930,"category":"winery","name":"Domaine du Bois Mignon","tags":{"craft":"winery","email":"barillot.pascal@gmail.com","name":"Domaine du Bois Mignon","phone":"+33 5 49 22 94 59"}}},{"type":"Feature","id":"node/3382653088","geometry":{"type":"Point","coordinates":[3.3425037,43.3052041]},"properties":{"osm_type":"node","osm_id":3382653088,"category":"wine_shop","name":"Alma Cersius","tags":{"email":"info@almacersius.com","name":"Alma Cersius","opening_hours":"May-Oct Mo-Sa 09:00-12:30,14:00-18:30; Nov-Apr Mo-Sa 09:00-13:00,14:00-19:00","shop":"wine","website":"https://www.almacersius.com/","wheelchair":"yes"}}},{"type":"Feature","id":"node/3387726306","geometry":{"type":"Point","coordinates":[6.7082468,43.6145665]},"properties":{"osm_type":"node","osm_id":3387726306,"category":"winery","name":"Domaine de la Grande Bastide","tags":{"addr:city":"Tourrettes","addr:housenumber":"397","addr:postcode":"83440","addr:street":"Route de la Grande Bastide","craft":"winery","name":"Domaine de la Grande Bastide","shop":"wine","website":"http://www.grandebastide.fr/francais.html"}}},{"type":"Feature","id":"node/3390395222","geometry":{"type":"Point","coordinates":[2.385298,48.8675107]},"properties":{"osm_type":"node","osm_id":3390395222,"category":"wine_shop","name":"Les Mômes","tags":{"name":"Les Mômes","shop":"wine"}}},{"type":"Feature","id":"node/3392851627","geometry":{"type":"Point","coordinates":[3.850169,43.758073]},"properties":{"osm_type":"node","osm_id":3392851627,"category":"wine_shop","tags":{"shop":"wine"}}},{"type":"Feature","id":"node/3393055152","geometry":{"type":"Point","coordinates":[3.8672486,43.6060964]},"properties":{"osm_type":"node","osm_id":3393055152,"category":"wine_shop","name":"Le Vin Noir","tags":{"addr:city":"Montpellier","addr:housenumber":"5","addr:street":"Place Bouschet de Bernard","name":"Le Vin Noir","phone":"+33 4 67 06 54 92","shop":"wine","wheelchair":"no"}}},{"type":"Feature","id":"node/3393733527","geometry":{"type":"Point","coordinates":[2.161082,43.9579791]},"properties":{"osm_type":"node","osm_id":3393733527,"category":"wine_shop","name":"Caves Gayrel","tags":{"addr:city":"Lescure-d'Albigeois","addr:postcode":"81380","addr:street":"Route de la Barrière","name":"Caves Gayrel","phone":"+33 5 63 56 53 49","shop":"wine"}}},{"type":"Feature","id":"node/3394093185","geometry":{"type":"Point","coordinates":[4.6439287,46.013523]},"properties":{"osm_type":"node","osm_id":3394093185,"category":"winery","name":"Château de Buffavent","tags":{"craft":"winery","name":"Château de Buffavent","shop":"alcohol","tourism":"wine_cellar","website":"https://www.buffavent.com"}}},{"type":"Feature","id":"node/3415031184","geometry":{"type":"Point","coordinates":[1.9031041,47.9004718]},