{"type":"FeatureCollection","features":[{"type":"Feature","id":"node/251864987","geometry":{"type":"Point","coordinates":[11.35411,44.63949]},"properties":{"osm_type":"node","osm_id":251864987,"category":"wine_shop","name":"Cantina Sociale di Argelato","tags":{"alt_name":"Cantinone di Argelato","name":"Cantina Sociale di Argelato","shop":"wine"}}},{"type":"Feature","id":"node/264673865","geometry":{"type":"Point","coordinates":[12.49044,41.89628]},"properties":{"osm_type":"node","osm_id":264673865,"category":"wine_shop","name":"Ai Tre Scalini","tags":{"addr:city":"Roma","addr:country":"IT","addr:housenumber":"251","addr:postcode":"00184","addr:street":"Via Panisperna","email":"bottiglieria@aitrescalini.org","name":"Ai Tre Scalini","opening_hours":"Mo-Su 12:30-01:00","operator":"Enotema C&C Srl.","phone":"+39 06 48907495","shop":"wine","url":"http://colosseoorg.wix.com/aitrescalini","website":"https://www.aitrescalini.org/","wheelchair":"no"}}},{"type":"Feature","id":"node/275603933","geometry":{"type":"Point","coordinates":[8.08463,44.71818]},"properties":{"osm_type":"node","osm_id":275603933,"category":"winery","name":"Moccagatta","tags":{"addr:city":"Barbaresco","addr:housenumber":"46","addr:postcode":"12050","addr:street":"Strada Rabajà","craft":"winery","email":"info@moccagatta.eu","name":"Moccagatta","phone":"+390173635228","website":"https://www.moccagatta.eu/"}}},{"type":"Feature","id":"node/275951852","geometry":{"type":"Point","coordinates":[8.08081,44.72522]},"properties":{"osm_type":"node","osm_id":275951852,"category":"wine_shop","name":"Enoteca Regionale del Barbaresco","tags":{"addr:city":"Barbaresco","addr:housenumber":"7","addr:postcode":"12050","addr:street":"Piazza del Municipio","name":"Enoteca Regionale del Barbaresco","phone":"+39 0173 635251","shop":"wine","tourism":"attraction","website":"https://www.enotecadelbarbaresco.it/"}}},{"type":"Feature","id":"node/277549862","geometry":{"type":"Point","coordinates":[11.79206,43.112]},"properties":{"osm_type":"node","osm_id":277549862,"category":"wine_shop","name":"Vecchia Cantina","tags":{"name":"Vecchia Cantina","shop":"wine"}}},{"type":"Feature","id":"node/287341013","geometry":{"type":"Point","coordinates":[11.72147,43.24602]},"properties":{"osm_type":"node","osm_id":287341013,"category":"wine_shop","name":"Cantina Sociale Vitivoltori Senesi-Aretini","tags":{"name":"Cantina Sociale Vitivoltori Senesi-Aretini","shop":"wine"}}},{"type":"Feature","id":"node/293400441","geometry":{"type":"Point","coordinates":[10.8162,45.38806]},"properties":{"osm_type":"node","osm_id":293400441,"category":"wine_shop","name":"Cantina Sociale di Custoza","tags":{"addr:housenumber":"1","addr:street":"Strada Staffalo","name":"Cantina Sociale di Custoza","shop":"wine"}}},{"type":"Feature","id":"node/293876239","geometry":{"type":"Point","coordinates":[13.13261,43.47063]},"properties":{"osm_type":"node","osm_id":293876239,"category":"winery","name":"Peruzzi Liana Az. Agr.","tags":{"addr:city":"Monte Roberto","addr:housenumber":"14/B","addr:postcode":"60030","addr:street":"Via Calapina","craft":"winery","name":"Peruzzi Liana Az. Agr."}}},{"type":"Feature","id":"node/302878921","geometry":{"type":"Point","coordinates":[11.12186,43.62484]},"properties":{"osm_type":"node","osm_id":302878921,"category":"wine_shop","name":"Valvirginio","tags":{"name":"Valvirginio","shop":"wine"}}},{"type":"Feature","id":"node/303116724","geometry":{"type":"Point","coordinates":[12.03232,45.90195]},"properties":{"osm_type":"node","osm_id":303116724,"category":"winery","name":"Cantina Col Vetoraz","tags":{"addr:city":"Valdobbiadene","addr:housenumber":"1","addr:postcode":"31049","addr:street":"Strada delle Treziese","craft":"winery","email":"info@colvetoraz.it","name":"Cantina Col Vetoraz","opening_hours":"Mo-Su 09:00-12:00,14:00-18:00","operator":"Col Vetoraz Spumanti Srl","phone":"+39 0423 975291","website":"https://www.colvetoraz.it/","wheelchair":"yes"}}},{"type":"Feature","id":"node/311932213","geometry":{"type":"Point","coordinates":[8.95557,44.40421]},"properties":{"osm_type":"node","osm_id":311932213,"category":"wine_shop","name":"DiVino Market","tags":{"addr:city":"Genova","addr:housenumber":"15r","addr:postcode":"16129","addr:street":"Via Armenia","name":"DiVino Market","shop":"wine"}}},{"type":"Feature","id":"node/315551552","geometry":{"type":"Point","coordinates":[8.95425,44.39908]},"properties":{"osm_type":"node","osm_id":315551552,"category":"wine_shop","name":"Vini d'artista","tags":{"name":"Vini d'artista","shop":"wine"}}},{"type":"Feature","id":"node/319272083","geometry":{"type":"Point","coordinates":[13.57835,45.93724]},"properties":{"osm_type":"node","osm_id":319272083,"category":"wine_shop","name":"Azienda Agricola Conti Attems","tags":{"name":"Azienda Agricola Conti Attems","shop":"wine"}}},{"type":"Feature","id":"node/319272089","geometry":{"type":"Point","coordinates":[13.55151,45.9661]},"properties":{"osm_type":"node","osm_id":319272089,"category":"wine_shop","name":"Azienda Agricola Borgo Lotessa","tags":{"name":"Azienda Agricola Borgo Lotessa","shop":"wine"}}},{"type":"Feature","id":"node/319272091","geometry":{"type":"Point","coordinates":[13.55666,45.96785]},"properties":{"osm_type":"node","osm_id":319272091,"category":"wine_shop","name":"Azienda Vinicola Skok","tags":{"addr:city":"San Floriano del Collio / Števerjan","addr:housenumber":"15","addr:postcode":"34070","name":"Azienda Vinicola Skok","operator":"Skok Edi","shop":"wine","website":"https://www.skok.it/"}}},{"type":"Feature","id":"node/319272094","geometry":{"type":"Point","coordinates":[13.55795,45.96647]},"properties":{"osm_type":"node","osm_id":319272094,"category":"wine_shop","name":"Azienda Agricola Zuani","tags":{"addr:city":"San Floriano del Collio / Števerjan","addr:housenumber":"12","addr:postcode":"34070","name":"Azienda Agricola Zuani","operator":"Felluga Patrizia & Figli s.s.","shop":"wine","website":"https://www.zuanivini.it/"}}},{"type":"Feature","id":"node/319272096","geometry":{"type":"Point","coordinates":[13.55805,45.96322]},"properties":{"osm_type":"node","osm_id":319272096,"category":"wine_shop","name":"Azienda Agricola Gradis'ciutta","tags":{"addr:city":"San Floriano del Collio / Števerjan","addr:housenumber":"32a","addr:postcode":"34070","name":"Azienda Agricola Gradis'ciutta","operator":"Robert Prinčič","shop":"wine","website":"https://www.gradisciutta.eu/"}}},{"type":"Feature","id":"node/319272098","geometry":{"type":"Point","coordinates":[13.57731,45.96514]},"properties":{"osm_type":"node","osm_id":319272098,"category":"wine_shop","name":"Azienda Agricola Simon Komjanc","tags":{"name":"Azienda Agricola Simon Komjanc","shop":"wine"}}},{"type":"Feature","id":"node/319272100","geometry":{"type":"Point","coordinates":[13.57633,45.96771]},"properties":{"osm_type":"node","osm_id":319272100,"category":"wine_shop","name":"Azienda Agricola Terpin","tags":{"name":"Azienda Agricola Terpin","shop":"wine"}}},{"type":"Feature","id":"node/319272101","geometry":{"type":"Point","coordinates":[13.57744,45.96771]},"properties":{"osm_type":"node","osm_id":319272101,"category":"wine_shop","name":"Azienda Agricola Manià Gianni","tags":{"name":"Azienda Agricola Manià Gianni","shop":"wine"}}},{"type":"Feature","id":"node/319272102","geometry":{"type":"Point","coordinates":[13.57769,45.96773]},"properties":{"osm_type":"node","osm_id":319272102,"category":"wine_shop","name":"Azienda Agricola Marega","tags":{"name":"Azienda Agricola Marega","shop":"wine"}}},{"type":"Feature","id":"node/319272103","geometry":{"type":"Point","coordinates":[13.57853,45.96768]},"properties":{"osm_type":"node","osm_id":319272103,"category":"wine_shop","name":"Azienda Agricola Humar","tags":{"name":"Azienda Agricola Humar","shop":"wine"}}},{"type":"Feature","id":"node/319272104","geometry":{"type":"Point","coordinates":[13.58001,45.96945]},"properties":{"osm_type":"node","osm_id":319272104,"category":"wine_shop","name":"Azienda Agricola Ascevi Luwa","tags":{"name":"Azienda Agricola Ascevi Luwa","shop":"wine"}}},{"type":"Feature","id":"node/319272115","geometry":{"type":"Point","coordinates":[13.58629,45.96565]},"properties":{"osm_type":"node","osm_id":319272115,"category":"wine_shop","name":"Azienda Agricola Ciglič Bogdan","tags":{"name":"Azienda Agricola Ciglič Bogdan","shop":"wine"}}},{"type":"Feature","id":"node/319272116","geometry":{"type":"Point","coordinates":[13.58952,45.96987]},"properties":{"osm_type":"node","osm_id":319272116,"category":"wine_shop","name":"Azienda Agricola / Kmetija Terčič Matjaž","tags":{"addr:city":"San Floriano del Collio / Števerjan","addr:housenumber":"4a","addr:postcode":"34070","name":"Azienda Agricola / Kmetija Terčič Matjaž","name:it":"Azienda Agricola Terčič Matjaž","name:sl":"Kmetija Terčič Matijaž","phone":"+39 0481 884193","shop":"wine","website":"https://www.tercic.com/"}}},{"type":"Feature","id":"node/319272118","geometry":{"type":"Point","coordinates":[13.58993,45.96583]},"properties":{"osm_type":"node","osm_id":319272118,"category":"wine_shop","name":"Azienda Agricola Paraschos Evangelos","tags":{"name":"Azienda Agricola Paraschos Evangelos","shop":"wine","website":"https://www.paraschos.it/"}}},{"type":"Feature","id":"node/319272119","geometry":{"type":"Point","coordinates":[13.58501,45.97431]},"properties":{"osm_type":"node","osm_id":319272119,"category":"wine_shop","name":"Azienda Agricola Muzič","tags":{"name":"Azienda Agricola Muzič","shop":"wine"}}},{"type":"Feature","id":"node/319272120","geometry":{"type":"Point","coordinates":[13.58839,45.98264]},"properties":{"osm_type":"node","osm_id":319272120,"category":"wine_shop","name":"Azienda Agricola Conti Formentini","tags":{"name":"Azienda Agricola Conti Formentini","shop":"wine"}}},{"type":"Feature","id":"node/319272125","geometry":{"type":"Point","coordinates":[13.59561,45.98004]},"properties":{"osm_type":"node","osm_id":319272125,"category":"wine_shop","name":"Azienda Agricola Draga Miklus","tags":{"name":"Azienda Agricola Draga Miklus","shop":"wine"}}},{"type":"Feature","id":"node/319272126","geometry":{"type":"Point","coordinates":[13.59718,45.97672]},"properties":{"osm_type":"node","osm_id":319272126,"category":"wine_shop","name":"Azienda Agricola Graunad Davide","tags":{"name":"Azienda Agricola Graunad Davide","shop":"wine"}}},{"type":"Feature","id":"node/319272127","geometry":{"type":"Point","coordinates":[13.59857,45.98506]},"properties":{"osm_type":"node","osm_id":319272127,"category":"wine_shop","name":"Azienda Agricola Il Carpino","tags":{"name":"Azienda Agricola Il Carpino","shop":"wine"}}},{"type":"Feature","id":"node/319272128","geometry":{"type":"Point","coordinates":[13.6102,45.9809]},"properties":{"osm_type":"node","osm_id":319272128,"category":"wine_shop","name":"Azienda Agricola Fiegl","tags":{"name":"Azienda Agricola Fiegl","shop":"wine"}}},{"type":"Feature","id":"node/319272129","geometry":{"type":"Point","coordinates":[13.6108,45.97986]},"properties":{"osm_type":"node","osm_id":319272129,"category":"wine_shop","name":"Azienda Agricola Primosic","tags":{"name":"Azienda Agricola Primosic","shop":"wine"}}},{"type":"Feature","id":"node/320944459","geometry":{"type":"Point","coordinates":[13.57595,45.97373]},"properties":{"osm_type":"node","osm_id":320944459,"category":"wine_shop","name":"Azienda Agricola Vogrič Ivan","tags":{"name":"Azienda Agricola Vogrič Ivan","shop":"wine"}}},{"type":"Feature","id":"node/320944460","geometry":{"type":"Point","coordinates":[13.58476,45.98061]},"properties":{"osm_type":"node","osm_id":320944460,"category":"wine_shop","name":"Azienda Agricola Baronesse Tacco","tags":{"name":"Azienda Agricola Baronesse Tacco","shop":"wine"}}},{"type":"Feature","id":"node/320944461","geometry":{"type":"Point","coordinates":[13.60657,45.98258]},"properties":{"osm_type":"node","osm_id":320944461,"category":"wine_shop","name":"Azienda Agricola Joško Gravner","tags":{"name":"Azienda Agricola Joško Gravner","shop":"wine"}}},{"type":"Feature","id":"node/320944462","geometry":{"type":"Point","coordinates":[13.60283,45.98279]},"properties":{"osm_type":"node","osm_id":320944462,"category":"wine_shop","name":"Azienda Agricola Radikon","tags":{"name":"Azienda Agricola Radikon","shop":"wine"}}},{"type":"Feature","id":"node/320944463","geometry":{"type":"Point","coordinates":[13.61194,45.97248]},"properties":{"osm_type":"node","osm_id":320944463,"category":"wine_shop","name":"Azienda Agricola La Castellada","tags":{"name":"Azienda Agricola La Castellada","shop":"wine"}}},{"type":"Feature","id":"node/320944466","geometry":{"type":"Point","coordinates":[13.62905,45.97553]},"properties":{"osm_type":"node","osm_id":320944466,"category":"wine_shop","name":"Azienda Agricola Castel San Mauro","tags":{"name":"Azienda Agricola Castel San Mauro","shop":"wine"}}},{"type":"Feature","id":"node/322852702","geometry":{"type":"Point","coordinates":[13.47681,45.95858]},"properties":{"osm_type":"node","osm_id":322852702,"category":"wine_shop","name":"Azienda Agricola Giulio Manzocco","tags":{"name":"Azienda Agricola Giulio Manzocco","shop":"wine"}}},{"type":"Feature","id":"node/322852703","geometry":{"type":"Point","coordinates":[13.48525,45.95313]},"properties":{"osm_type":"node","osm_id":322852703,"category":"wine_shop","name":"Azienda Agricola Buzzinelli","tags":{"name":"Azienda Agricola Buzzinelli","shop":"wine"}}},{"type":"Feature","id":"node/322852706","geometry":{"type":"Point","coordinates":[13.48776,45.95227]},"properties":{"osm_type":"node","osm_id":322852706,"category":"wine_shop","name":"Azienda Agricola Cociancig","tags":{"name":"Azienda Agricola Cociancig","shop":"wine"}}},{"type":"Feature","id":"node/322852708","geometry":{"type":"Point","coordinates":[13.48889,45.95106]},"properties":{"osm_type":"node","osm_id":322852708,"category":"wine_shop","name":"Azienda Agricola Paolo Caccese","tags":{"name":"Azienda Agricola Paolo Caccese","shop":"wine"}}},{"type":"Feature","id":"node/322852709","geometry":{"type":"Point","coordinates":[13.48848,45.95034]},"properties":{"osm_type":"node","osm_id":322852709,"category":"wine_shop","name":"Azienda Agricola Doro Princic","tags":{"name":"Azienda Agricola Doro Princic","shop":"wine"}}},{"type":"Feature","id":"node/322852712","geometry":{"type":"Point","coordinates":[13.48399,45.94869]},"properties":{"osm_type":"node","osm_id":322852712,"category":"wine_shop","name":"Azienda Agricola Srednik","tags":{"name":"Azienda Agricola Srednik","shop":"wine"}}},{"type":"Feature","id":"node/322852714","geometry":{"type":"Point","coordinates":[13.48306,45.9512]},"properties":{"osm_type":"node","osm_id":322852714,"category":"wine_shop","name":"Azienda Agricola Carlo di Pradis","tags":{"name":"Azienda Agricola Carlo di Pradis","shop":"wine"}}},{"type":"Feature","id":"node/322852717","geometry":{"type":"Point","coordinates":[13.48977,45.95188]},"properties":{"osm_type":"node","osm_id":322852717,"category":"wine_shop","name":"Azienda Agricola Picech Roberto","tags":{"name":"Azienda Agricola Picech Roberto","shop":"wine"}}},{"type":"Feature","id":"node/322852720","geometry":{"type":"Point","coordinates":[13.48933,45.95834]},"properties":{"osm_type":"node","osm_id":322852720,"category":"wine_shop","name":"Azienda Agricola Subida di Monte","tags":{"name":"Azienda Agricola Subida di Monte","shop":"wine"}}},{"type":"Feature","id":"node/322852739","geometry":{"type":"Point","coordinates":[13.49065,45.97199]},"properties":{"osm_type":"node","osm_id":322852739,"category":"winery","name":"Azienda Agricola Kurtin","tags":{"craft":"winery","name":"Azienda Agricola Kurtin"}}},{"type":"Feature","id":"node/322852749","geometry":{"type":"Point","coordinates":[13.49844,45.97398]},"properties":{"osm_type":"node","osm_id":322852749,"category":"winery","name":"Azienda Agricola Toros","tags":{"craft":"winery","name":"Azienda Agricola Toros"}}},{"type":"Feature","id":"node/322852753","geometry":{"type":"Point","coordinates":[13.49985,45.97366]},"properties":{"osm_type":"node","osm_id":322852753,"category":"winery","name":"Azienda Agricola Branko","tags":{"addr:city":"Cormons","addr:housenumber":"20","addr:postcode":"34071","craft":"winery","name":"Azienda Agricola Branko","operator":"Erzetic Igor","website":"http://www.brankowines.com"}}},{"type":"Feature","id":"node/322852756","geometry":{"type":"Point","coordinates":[13.49764,45.97532]},"properties":{"osm_type":"node","osm_id":322852756,"category":"winery","name":"Società Agricola Aldo Polencig","tags":{"addr:city":"Cormons","addr:housenumber":"13","addr:postcode":"34071","craft":"winery","name":"Società Agricola Aldo Polencig","operator":"SOCIETA' AGRICOLA ALDO POLENCIC S.R.L.","website":"https://www.aldopolencic.it/"}}},{"type":"Feature","id":"node/322852758","geometry":{"type":"Point","coordinates":[13.4967,45.97772]},"properties":{"osm_type":"node","osm_id":322852758,"category":"winery","name":"Azienda Agricola Polencic Isidoro","tags":{"craft":"winery","name":"Azienda Agricola Polencic Isidoro"}}},{"type":"Feature","id":"node/322852763","geometry":{"type":"Point","coordinates":[13.49916,45.98083]},"properties":{"osm_type":"node","osm_id":322852763,"category":"winery","name":"Azienda Agricola Gradnik Eredi","tags":{"craft":"winery","name":"Azienda Agricola Gradnik Eredi"}}},{"type":"Feature","id":"node/322852765","geometry":{"type":"Point","coordinates":[13.50179,45.97889]},"properties":{"osm_type":"node","osm_id":322852765,"category":"winery","name":"Azienda Agricola Blazic","tags":{"addr:city":"Cormons","addr:housenumber":"16","addr:postcode":"34071","craft":"winery","name":"Azienda Agricola Blazic","website":"https://www.blazic.it/"}}},{"type":"Feature","id":"node/322852770","geometry":{"type":"Point","coordinates":[13.50214,45.97719]},"properties":{"osm_type":"node","osm_id":322852770,"category":"wine_shop","name":"Azienda Agricola Edi Keber","tags":{"addr:city":"Cormons","addr:housenumber":"17","addr:postcode":"34071","name":"Azienda Agricola Edi Keber","operator":"Edi Keber","phone":"+39048161184","shop":"wine","website":"http://www.edikeber.it/"}}},{"type":"Feature","id":"node/322852773","geometry":{"type":"Point","coordinates":[13.50301,45.97667]},"properties":{"osm_type":"node","osm_id":322852773,"category":"winery","name":"Azienda Agricola Renato Keber","tags":{"addr:city":"Cormons","addr:housenumber":"15","addr:postcode":"34071","craft":"winery","name":"Azienda Agricola Renato Keber","website":"https://www.renatokeber.com/"}}},{"type":"Feature","id":"node/322852774","geometry":{"type":"Point","coordinates":[13.50372,45.97365]},"properties":{"osm_type":"node","osm_id":322852774,"category":"winery","name":"Azienda Agricola Sturm","tags":{"addr:city":"Cormons","addr:housenumber":"1","addr:postcode":"34071","craft":"winery","name":"Azienda Agricola Sturm","website":"https://www.sturm.it/"}}},{"type":"Feature","id":"node/322852776","geometry":{"type":"Point","coordinates":[13.50663,45.97946]},"properties":{"osm_type":"node","osm_id":322852776,"category":"winery","name":"Azienda Agricola Ronco di Zegla","tags":{"craft":"winery","name":"Azienda Agricola Ronco di Zegla"}}},{"type":"Feature","id":"node/322852777","geometry":{"type":"Point","coordinates":[13.51113,45.9742]},"properties":{"osm_type":"node","osm_id":322852777,"category":"winery","name":"Azienda Agricola Gaspare Buscemi","tags":{"addr:city":"Cormons","addr:housenumber":"1 bis","addr:postcode":"34071","craft":"winery","name":"Azienda Agricola Gaspare Buscemi","website":"https://www.gasparebuscemi.com/"}}},{"type":"Feature","id":"node/322852778","geometry":{"type":"Point","coordinates":[13.5105,45.97964]},"properties":{"osm_type":"node","osm_id":322852778,"category":"winery","name":"Azienda Agricola Colle Duga","tags":{"addr:city":"Cormons","addr:housenumber":"10","addr:postcode":"34071","craft":"winery","name":"Azienda Agricola Colle Duga","website":"http://www.colleduga.com/"}}},{"type":"Feature","id":"node/324320958","geometry":{"type":"Point","coordinates":[13.49851,45.98067]},"properties":{"osm_type":"node","osm_id":324320958,"category":"winery","name":"Azienda Agricola Anzelin","tags":{"craft":"winery","name":"Azienda Agricola Anzelin"}}},{"type":"Feature","id":"node/324320959","geometry":{"type":"Point","coordinates":[13.48605,45.96732]},"properties":{"osm_type":"node","osm_id":324320959,"category":"winery","name":"Azienda Agricola Ronco dei Tassi","tags":{"craft":"winery","name":"Azienda Agricola Ronco dei Tassi"}}},{"type":"Feature","id":"node/324320960","geometry":{"type":"Point","coordinates":[13.48181,45.95056]},"properties":{"osm_type":"node","osm_id":324320960,"category":"wine_shop","name":"Azienda Agricola Renzo Sgubin","tags":{"name":"Azienda Agricola Renzo Sgubin","shop":"wine"}}},{"type":"Feature","id":"node/324320961","geometry":{"type":"Point","coordinates":[13.47648,45.94791]},"properties":{"osm_type":"node","osm_id":324320961,"category":"wine_shop","name":"Azienda Agricola Ronco del Gelso","tags":{"name":"Azienda Agricola Ronco del Gelso","shop":"wine"}}},{"type":"Feature","id":"node/324320963","geometry":{"type":"Point","coordinates":[13.46386,45.94813]},"properties":{"osm_type":"node","osm_id":324320963,"category":"wine_shop","name":"Cantina Produttori Cormons","tags":{"name":"Cantina Produttori Cormons","shop":"wine"}}},{"type":"Feature","id":"node/324320973","geometry":{"type":"Point","coordinates":[13.45581,45.95785]},"properties":{"osm_type":"node","osm_id":324320973,"category":"wine_shop","name":"Azienda Agricola Drius Mauro","tags":{"name":"Azienda Agricola Drius Mauro","shop":"wine","website":"https://www.driusmauro.it/"}}},{"type":"Feature","id":"node/324320975","geometry":{"type":"Point","coordinates":[13.46407,45.96771]},"properties":{"osm_type":"node","osm_id":324320975,"category":"wine_shop","name":"Azienda Agricola Dario Raccaro","tags":{"name":"Azienda Agricola Dario Raccaro","shop":"wine"}}},{"type":"Feature","id":"node/324340521","geometry":{"type":"Point","coordinates":[13.49768,45.94726]},"properties":{"osm_type":"node","osm_id":324340521,"category":"wine_shop","name":"Azienda Agricola Vidussi","tags":{"name":"Azienda Agricola Vidussi","shop":"wine"}}},{"type":"Feature","id":"node/324340524","geometry":{"type":"Point","coordinates":[13.50527,45.95179]},"properties":{"osm_type":"node","osm_id":324340524,"category":"wine_shop","name":"Azienda Agricola Pighin","tags":{"name":"Azienda Agricola Pighin","shop":"wine"}}},{"type":"Feature","id":"node/324340528","geometry":{"type":"Point","coordinates":[13.50717,45.9517]},"properties":{"osm_type":"node","osm_id":324340528,"category":"wine_shop","name":"Azienda Agricola Mario Schiopetto","tags":{"name":"Azienda Agricola Mario Schiopetto","shop":"wine"}}},{"type":"Feature","id":"node/324340530","geometry":{"type":"Point","coordinates":[13.51123,45.9452]},"properties":{"osm_type":"node","osm_id":324340530,"category":"wine_shop","name":"Vinnaeria La Baita","tags":{"name":"Vinnaeria La Baita","shop":"wine"}}},{"type":"Feature","id":"node/324340534","geometry":{"type":"Point","coordinates":[13.51245,45.94916]},"properties":{"osm_type":"node","osm_id":324340534,"category":"wine_shop","name":"Azienda Agricola Villa Russiz","tags":{"name":"Azienda Agricola Villa Russiz","shop":"wine"}}},{"type":"Feature","id":"node/324340549","geometry":{"type":"Point","coordinates":[13.52367,45.95126]},"properties":{"osm_type":"node","osm_id":324340549,"category":"wine_shop","name":"Azienda Agricola Budignac","tags":{"name":"Azienda Agricola Budignac","shop":"wine"}}},{"type":"Feature","id":"node/324340592","geometry":{"type":"Point","coordinates":[13.52259,45.94093]},"properties":{"osm_type":"node","osm_id":324340592,"category":"wine_shop","name":"Agriturismo Orzan","tags":{"name":"Agriturismo Orzan","shop":"wine"}}},{"type":"Feature","id":"node/324340606","geometry":{"type":"Point","coordinates":[13.51752,45.94163]},"properties":{"osm_type":"node","osm_id":324340606,"category":"wine_shop","name":"Azienda Agricola Roncus","tags":{"name":"Azienda Agricola Roncus","shop":"wine"}}},{"type":"Feature","id":"node/324340613","geometry":{"type":"Point","coordinates":[13.51454,45.94169]},"properties":{"osm_type":"node","osm_id":324340613,"category":"wine_shop","name":"Azienda Agricola Mario Russian","tags":{"name":"Azienda Agricola Mario Russian","shop":"wine"}}},{"type":"Feature","id":"node/324340619","geometry":{"type":"Point","coordinates":[13.54135,45.93835]},"properties":{"osm_type":"node","osm_id":324340619,"category":"wine_shop","name":"Azienda Agricola Codelli","tags":{"name":"Azienda Agricola Codelli","shop":"wine"}}},{"type":"Feature","id":"node/324403836","geometry":{"type":"Point","coordinates":[11.22902,43.69401]},"properties":{"osm_type":"node","osm_id":324403836,"category":"winery","name":"Fattoria di Bagnolo","tags":{"craft":"winery","name":"Fattoria di Bagnolo","website":"https://www.bartolinibaldelli.it/vino-e-olio_fattoria-bagnolo_page_it.html"}}},{"type":"Feature","id":"node/324724587","geometry":{"type":"Point","coordinates":[13.61717,45.93772]},"properties":{"osm_type":"node","osm_id":324724587,"category":"wine_shop","name":"Vino Simon Komjanc","tags":{"name":"Vino Simon Komjanc","opening_hours":"Mo-Fr 08:30-12:30; Sa 08:00-12:00,15:30-19:00","shop":"wine"}}},{"type":"Feature","id":"node/324726557","geometry":{"type":"Point","coordinates":[13.5313,45.90981]},"properties":{"osm_type":"node","osm_id":324726557,"category":"wine_shop","name":"Vinnaioli Jerman","tags":{"name":"Vinnaioli Jerman","shop":"wine"}}},{"type":"Feature","id":"node/324726567","geometry":{"type":"Point","coordinates":[13.52649,45.91565]},"properties":{"osm_type":"node","osm_id":324726567,"category":"wine_shop","name":"Tenuta Borgo Conventi","tags":{"name":"Tenuta Borgo Conventi","shop":"wine","website":"https://www.borgoconventi.it/"}}},{"type":"Feature","id":"node/324726568","geometry":{"type":"Point","coordinates":[13.50515,45.90279]},"properties":{"osm_type":"node","osm_id":324726568,"category":"wine_shop","name":"Azienda Agricola Sant'Elena","tags":{"name":"Azienda Agricola Sant'Elena","shop":"wine"}}},{"type":"Feature","id":"node/324726569","geometry":{"type":"Point","coordinates":[13.5092,45.89872]},"properties":{"osm_type":"node","osm_id":324726569,"category":"wine_shop","name":"Azienda Agricola Marco Felluga","tags":{"name":"Azienda Agricola Marco Felluga","shop":"wine"}}},{"type":"Feature","id":"node/324726570","geometry":{"type":"Point","coordinates":[13.53365,45.90659]},"properties":{"osm_type":"node","osm_id":324726570,"category":"wine_shop","name":"Azienda Agricola La Bellanotte","tags":{"name":"Azienda Agricola La Bellanotte","shop":"wine"}}},{"type":"Feature","id":"node/324726578","geometry":{"type":"Point","coordinates":[13.54521,45.90508]},"properties":{"osm_type":"node","osm_id":324726578,"category":"wine_shop","name":"Azienda Agricola Colmello di Grotta","tags":{"name":"Azienda Agricola Colmello di Grotta","shop":"wine"}}},{"type":"Feature","id":"node/324736785","geometry":{"type":"Point","coordinates":[13.54322,45.9292]},"properties":{"osm_type":"node","osm_id":324736785,"category":"wine_shop","name":"Azienda Agricola Zorzenon Alessandro","tags":{"name":"Azienda Agricola Zorzenon Alessandro","shop":"wine"}}},{"type":"Feature","id":"node/324736791","geometry":{"type":"Point","coordinates":[13.54245,45.92108]},"properties":{"osm_type":"node","osm_id":324736791,"category":"wine_shop","name":"Azienda Agricola Simone Turus","tags":{"addr:city":"Mossa","addr:housenumber":"6","addr:postcode":"34070","addr:street":"Via Campi","email":"simoneturus@virgilio.it","name":"Azienda Agricola Simone Turus","shop":"wine","website":"http://www.cantinaturus.it"}}},{"type":"Feature","id":"node/324736795","geometry":{"type":"Point","coordinates":[13.52732,45.92935]},"properties":{"osm_type":"node","osm_id":324736795,"category":"wine_shop","name":"Azienda Agricola Lis Neris","tags":{"name":"Azienda Agricola Lis Neris","shop":"wine"}}},{"type":"Feature","id":"node/324736800","geometry":{"type":"Point","coordinates":[13.52539,45.93012]},"properties":{"osm_type":"node","osm_id":324736800,"category":"wine_shop","name":"Pierpaolo Vignaiolo","tags":{"name":"Pierpaolo Vignaiolo","shop":"wine"}}},{"type":"Feature","id":"node/324736806","geometry":{"type":"Point","coordinates":[13.48554,45.92111]},"properties":{"osm_type":"node","osm_id":324736806,"category":"wine_shop","name":"Azienda Agricola Nadali","tags":{"name":"Azienda Agricola Nadali","shop":"wine"}}},{"type":"Feature","id":"node/324736823","geometry":{"type":"Point","coordinates":[13.47694,45.91855]},"properties":{"osm_type":"node","osm_id":324736823,"category":"wine_shop","name":"Azienda Agricola Luisa","tags":{"name":"Azienda Agricola Luisa","shop":"wine"}}},{"type":"Feature","id":"node/324736840","geometry":{"type":"Point","coordinates":[13.45073,45.93359]},"properties":{"osm_type":"node","osm_id":324736840,"category":"wine_shop","name":"Chiosco Angoris","tags":{"amenity":"restaurant","name":"Chiosco Angoris","official_name":"Cossar Daniela e Pisot Olga & C. S.n.c.","shop":"wine"}}},{"type":"Feature","id":"node/324736845","geometry":{"type":"Point","coordinates":[13.46054,45.93792]},"properties":{"osm_type":"node","osm_id":324736845,"category":"wine_shop","name":"Tenuta di Angoris","tags":{"name":"Tenuta di Angoris","shop":"wine"}}},{"type":"Feature","id":"node/324736850","geometry":{"type":"Point","coordinates":[13.47931,45.93551]},"properties":{"osm_type":"node","osm_id":324736850,"category":"wine_shop","name":"Azienda Agricola La Boatina","tags":{"name":"Azienda Agricola La Boatina","shop":"wine"}}},{"type":"Feature","id":"node/324736860","geometry":{"type":"Point","coordinates":[13.47802,45.93269]},"properties":{"osm_type":"node","osm_id":324736860,"category":"wine_shop","name":"Azienda Agricola Magnas","tags":{"name":"Azienda Agricola Magnas","shop":"wine"}}},{"type":"Feature","id":"node/347066457","geometry":{"type":"Point","coordinates":[7.99031,44.67707]},"properties":{"osm_type":"node","osm_id":347066457,"category":"wine_shop","name":"Cantine d'Italia","tags":{"addr:city":"Alba","addr:housenumber":"4","addr:postcode":"12051","addr:street":"Via Renato Ratti","name":"Cantine d'Italia","shop":"wine"}}},{"type":"Feature","id":"node/391789368","geometry":{"type":"Point","coordinates":[10.3309,43.55352]},"properties":{"osm_type":"node","osm_id":391789368,"category":"wine_shop","name":"La Vineria","tags":{"addr:housenumber":"140","addr:street":"Viale Giosuè Carducci","name":"La Vineria","shop":"wine"}}},{"type":"Feature","id":"node/401356635","geometry":{"type":"Point","coordinates":[16.8716,41.11973]},"properties":{"osm_type":"node","osm_id":401356635,"category":"wine_shop","name":"Enoteca Sportelli","tags":{"addr:city":"Bari","addr:housenumber":"215","addr:postcode":"70121","addr:street":"Via Melo da Bari","name":"Enoteca Sportelli","shop":"wine"}}},{"type":"Feature","id":"node/426352030","geometry":{"type":"Point","coordinates":[13.45626,46.00963]},"properties":{"osm_type":"node","osm_id":426352030,"category":"winery","name":"La Viarte","tags":{"craft":"winery","name":"La Viarte","operator":"Giorgio Polegato","phone":"+39 0432 759458","website":"https://laviarte.it/"}}},{"type":"Feature","id":"node/429157908","geometry":{"type":"Point","coordinates":[13.51607,43.61756]},"properties":{"osm_type":"node","osm_id":429157908,"category":"wine_shop","name":"Lumière - Bottega Pop","tags":{"addr:city":"Ancona","addr:housenumber":"4","addr:postcode":"60121","addr:street":"Piazza Camillo Benso Conte di Cavour","name":"Lumière - Bottega Pop","opening_hours":"10:00-21:30","shop":"wine","website":"https://beacons.ai/lumierebottegapop","wheelchair":"limited"}}},{"type":"Feature","id":"node/522825394","geometry":{"type":"Point","coordinates":[11.22336,46.17554]},"properties":{"osm_type":"node","osm_id":522825394,"category":"wine_shop","name":"Cantina Lavis Valle di Cembra","tags":{"name":"Cantina Lavis Valle di Cembra","shop":"wine"}}},{"type":"Feature","id":"node/522825641","geometry":{"type":"Point","coordinates":[11.2212,46.17479]},"properties":{"osm_type":"node","osm_id":522825641,"category":"wine_shop","name":"Enoteca Zanotelli","tags":{"name":"Enoteca Zanotelli","shop":"wine"}}},{"type":"Feature","id":"node/529655793","geometry":{"type":"Point","coordinates":[9.6528,45.35564]},"properties":{"osm_type":"node","osm_id":529655793,"category":"wine_shop","name":"Nonsolovino","tags":{"name":"Nonsolovino","shop":"wine"}}},{"type":"Feature","id":"node/534577352","geometry":{"type":"Point","coordinates":[13.30696,45.90678]},"properties":{"osm_type":"node","osm_id":534577352,"category":"wine_shop","name":"L'incanto del vino","tags":{"name":"L'incanto del vino","shop":"wine"}}},{"type":"Feature","id":"node/538292905","geometry":{"type":"Point","coordinates":[11.35084,46.48775]},"properties":{"osm_type":"node","osm_id":538292905,"category":"winery","name":"Thurnhof","tags":{"craft":"winery","name":"Thurnhof"}}},{"type":"Feature","id":"node/540813426","geometry":{"type":"Point","coordinates":[9.16588,45.48293]},"properties":{"osm_type":"node","osm_id":540813426,"category":"wine_shop","name":"L'Enoteca di Bonazzi","tags":{"name":"L'Enoteca di Bonazzi","shop":"wine"}}},{"type":"Feature","id":"node/563311749","geometry":{"type":"Point","coordinates":[7.0489,45.75197]},"properties":{"osm_type":"node","osm_id":563311749,"category":"wine_shop","name":"Cave Mont Blanc de Morgex et La Salle Soc. Coop.","tags":{"addr:city":"Morgex","addr:housenumber":"31","addr:postcode":"11017","addr:street":"Strada des Iles - Chemin des Iles","name":"Cave Mont Blanc de Morgex et La Salle Soc. Coop.","shop":"wine","website":"https://www.cavemontblanc.com/"}}},{"type":"Feature","id":"node/566517017","geometry":{"type":"Point","coordinates":[12.52445,41.88931]},"properties":{"osm_type":"node","osm_id":566517017,"category":"wine_shop","name":"Vini e Olii","tags":{"addr:city":"Roma","addr:country":"IT","addr:housenumber":"18","addr:postcode":"00176","addr:street":"Via del Pigneto","amenity":"pub","name":"Vini e Olii","shop":"wine"}}},{"type":"Feature","id":"node/593885528","geometry":{"type":"Point","coordinates":[15.06565,36.89234]},"properties":{"osm_type":"node","osm_id":593885528,"category":"wine_shop","name":"Tesol","tags":{"name":"Tesol","shop":"wine"}}},{"type":"Feature","id":"node/619378879","geometry":{"type":"Point","coordinates":[11.24607,46.41341]},"properties":{"osm_type":"node","osm_id":619378879,"category":"wine_shop","name":"Weinhaus Punkt","tags":{"amenity":"cafe","cuisine":"bistro","name":"Weinhaus Punkt","opening_hours":"Mo off","phone":"+39 0471 964965","shop":"wine"}}},{"type":"Feature","id":"node/619395414","geometry":{"type":"Point","coordinates":[8.61782,45.95702]},"properties":{"osm_type":"node","osm_id":619395414,"category":"wine_shop","tags":{"shop":"wine"}}},{"type":"Feature","id":"node/621156832","geometry":{"type":"Point","coordinates":[11.65286,46.71993]},"properties":{"osm_type":"node","osm_id":621156832,"category":"wine_shop","name":"Weingalerie","tags":{"amenity":"bar","name":"Weingalerie","shop":"wine"}}},{"type":"Feature","id":"node/621451551","geometry":{"type":"Point","coordinates":[11.65739,46.7175]},"properties":{"osm_type":"node","osm_id":621451551,"category":"wine_shop","name":"Vinus","tags":{"amenity":"bar","name":"Vinus","opening_hours":"Tu 10:00-13:00,16:00-21:00; We-Fr 10:00-13:00,16:00-23:00; Sa 10:00-18:00; Su,Mo off","shop":"wine","wheelchair":"yes"}}},{"type":"Feature","id":"node/622197667","geometry":{"type":"Point","coordinates":[14.19074,42.46469]},"properties":{"osm_type":"node","osm_id":622197667,"category":"wine_shop","name":"La Bottega del Vino","tags":{"addr:city":"Pescara","addr:postcode":"65124","addr:street":"Via Monte Faito","name":"La Bottega del Vino","shop":"wine"}}},{"type":"Feature","id":"node/631608466","geometry":{"type":"Point","coordinates":[13.2339,46.05925]},"properties":{"osm_type":"node","osm_id":631608466,"category":"wine_shop","name":"Osteria di Barnabiti","tags":{"amenity":"restaurant","name":"Osteria di Barnabiti","shop":"wine"}}},{"type":"Feature","id":"node/634522903","geometry":{"type":"Point","coordinates":[12.21467,46.15217]},"properties":{"osm_type":"node","osm_id":634522903,"category":"wine_shop","name":"Vendita vino Casere","tags":{"name":"Vendita vino Casere","shop":"wine"}}},{"type":"Feature","id":"node/670892803","geometry":{"type":"Point","coordinates":[11.25894,46.45482]},"properties":{"osm_type":"node","osm_id":670892803,"category":"wine_shop","name":"Bordeaux Keller","tags":{"name":"Bordeaux Keller","opening_hours":"We-Fr 17:00-23:00; Sa 11:00-23:00","shop":"wine","website":"https://www.bordeauxkeller.it/"}}},{"type":"Feature","id":"node/737762875","geometry":{"type":"Point","coordinates":[10.68672,45.44023]},"properties":{"osm_type":"node","osm_id":737762875,"category":"wine_shop","name":"La Vineria","tags":{"name":"La Vineria","shop":"wine"}}},{"type":"Feature","id":"node/760488096","geometry":{"type":"Point","coordinates":[11.78513,43.11099]},"properties":{"osm_type":"node","osm_id":760488096,"category":"wine_shop","name":"Icario","tags":{"name":"Icario","shop":"wine"}}},{"type":"Feature","id":"node/760488098","geometry":{"type":"Point","coordinates":[11.84357,43.13498]},"properties":{"osm_type":"node","osm_id":760488098,"category":"wine_shop","name":"Poliziano","tags":{"addr:housenumber":"1","addr:postcode":"53045","addr:street":"Via Fontago","email":"info@carlettipoliziano.com","name":"Poliziano","opening_hours":"Mo-Fr 10:00-18:00","phone":"+39 0578 738171","shop":"wine","website":"https://www.carlettipoliziano.com/"}}},{"type":"Feature","id":"node/763092852","geometry":{"type":"Point","coordinates":[11.25008,43.76608]},"properties":{"osm_type":"node","osm_id":763092852,"category":"wine_shop","name":"Pitti","tags":{"addr:city":"Firenze","addr:housenumber":"35r","addr:postcode":"50100","addr:street":"Piazza Pitti","name":"Pitti","opening_hours":"Mo-Su 12:00-23:00","shop":"wine","wheelchair":"no"}}},{"type":"Feature","id":"node/791247583","geometry":{"type":"Point","coordinates":[11.67739,42.88177]},"properties":{"osm_type":"node","osm_id":791247583,"category":"wine_shop","name":"La Confusa","tags":{"addr:city":"Abbadia San Salvatore","addr:country":"IT","addr:housenumber":"18","addr:postcode":"53021","addr:street":"Piazza XX Settembre","name":"La Confusa","shop":"wine"}}},{"type":"Feature","id":"node/827774568","geometry":{"type":"Point","coordinates":[11.62252,44.34398]},"properties":{"osm_type":"node","osm_id":827774568,"category":"winery","name":"Tenuta Montecatone","tags":{"craft":"winery","name":"Tenuta Montecatone","phone":"+39 0542 42625","website":"https://www.tenutamontecatone.com/"}}},{"type":"Feature","id":"node/867399658","geometry":{"type":"Point","coordinates":[12.63386,44.00202]},"properties":{"osm_type":"node","osm_id":867399658,"category":"wine_shop","name":"Enoteca San Lorenzo","tags":{"addr:housenumber":"1","addr:street":"Viale Veneto","name":"Enoteca San Lorenzo","shop":"wine"}}},{"type":"Feature","id":"node/926332741","geometry":{"type":"Point","coordinates":[9.25455,45.05194]},"properties":{"osm_type":"node","osm_id":926332741,"category":"wine_shop","name":"Terre d’Oltrepò - Cantina sociale broni","tags":{"name":"Terre d’Oltrepò - Cantina sociale broni","shop":"wine"}}},{"type":"Feature","id":"node/929003437","geometry":{"type":"Point","coordinates":[7.957,44.48731]},"properties":{"osm_type":"node","osm_id":929003437,"category":"winery","name":"Anna Maria Abbona","tags":{"craft":"winery","email":"info@annamariabbona.it","name":"Anna Maria Abbona","phone":"+39 0173 797228","website":"https://www.annamariabbona.it/"}}},{"type":"Feature","id":"node/936955133","geometry":{"type":"Point","coordinates":[7.94143,44.60989]},"properties":{"osm_type":"node","osm_id":936955133,"category":"wine_shop","name":"Bric Cenciurio","tags":{"addr:city":"Barolo","addr:country":"IT","addr:housenumber":"24","addr:postcode":"12060","addr:street":"Via Roma","name":"Bric Cenciurio","shop":"wine"}}},{"type":"Feature","id":"node/936955399","geometry":{"type":"Point","coordinates":[8.21349,44.78124]},"properties":{"osm_type":"node","osm_id":936955399,"category":"winery","name":"Gozzelino Sergio","tags":{"addr:city":"Costigliole d'Asti","addr:housenumber":"7","addr:postcode":"14055","addr:street":"Bricco Lù","craft":"winery","name":"Gozzelino Sergio","tourism":"wine_cellar"}}},{"type":"Feature","id":"node/941435303","geometry":{"type":"Point","coordinates":[8.71812,45.84298]},"properties":{"osm_type":"node","osm_id":941435303,"category":"wine_shop","name":"Cantina Piemontese","tags":{"name":"Cantina Piemontese","shop":"wine","wine":"yes"}}},{"type":"Feature","id":"node/943372601","geometry":{"type":"Point","coordinates":[11.03426,46.36451]},"properties":{"osm_type":"node","osm_id":943372601,"category":"wine_shop","name":"Al Picchio Nero","tags":{"cuisine":"regional","name":"Al Picchio Nero","shop":"wine"}}},{"type":"Feature","id":"node/962401502","geometry":{"type":"Point","coordinates":[8.82738,45.81887]},"properties":{"osm_type":"node","osm_id":962401502,"category":"wine_shop","name":"Enoteca San Vittore","tags":{"name":"Enoteca San Vittore","shop":"wine"}}},{"type":"Feature","id":"node/963942406","geometry":{"type":"Point","coordinates":[8.79536,45.81032]},"properties":{"osm_type":"node","osm_id":963942406,"category":"winery","tags":{"craft":"winery"}}},{"type":"Feature","id":"node/996307459","geometry":{"type":"Point","coordinates":[12.70173,42.95652]},"properties":{"osm_type":"node","osm_id":996307459,"category":"wine_shop","name":"10e10","tags":{"name":"10e10","shop":"wine"}}},{"type":"Feature","id":"node/1003009884","geometry":{"type":"Point","coordinates":[7.98275,44.59577]},"properties":{"osm_type":"node","osm_id":1003009884,"category":"winery","name":"Elio Grasso","tags":{"craft":"winery","name":"Elio Grasso"}}},{"type":"Feature","id":"node/1025057219","geometry":{"type":"Point","coordinates":[11.41656,43.08054]},"properties":{"osm_type":"node","osm_id":1025057219,"category":"winery","name":"Castiglion del Bosco","wikidata":"Q65091769","wikipedia":"en:Castiglion del Bosco","tags":{"addr:city":"Montalcino","addr:postcode":"53027","addr:street":"Strada Provinciale Castiglion del Bosco","craft":"winery","email":"wine@castigliondelbosco.com","name":"Castiglion del Bosco","opening_hours":"Mo-Fr 09:00-18:00","phone":"+3905771913750","website":"https://wine.castigliondelbosco.com/","wheelchair":"yes","wikidata":"Q65091769","wikipedia":"en:Castiglion del Bosco"}}},{"type":"Feature","id":"node/1033158592","geometry":{"type":"Point","coordinates":[9.32176,45.35634]},"properties":{"osm_type":"node","osm_id":1033158592,"category":"wine_shop","name":"Uva Viva","tags":{"addr:city":"Melegnano","addr:housenumber":"37","addr:postcode":"20077","addr:street":"Via Zuavi","name":"Uva Viva","shop":"wine"}}},{"type":"Feature","id":"node/1209006448","geometry":{"type":"Point","coordinates":[11.23915,43.77059]},"properties":{"osm_type":"node","osm_id":1209006448,"category":"wine_shop","name":"Fuor Di Porta","tags":{"addr:city":"Firenze","addr:housenumber":"7","addr:postcode":"50100","addr:street":"Via Pisana","name":"Fuor Di Porta","opening_hours":"Mo-Fr 10:00-15:00,18:00-20:30","shop":"wine"}}},{"type":"Feature","id":"node/1227916835","geometry":{"type":"Point","coordinates":[10.64413,44.6928]},"properties":{"osm_type":"node","osm_id":1227916835,"category":"wine_shop","name":"Il Brentino","tags":{"addr:housenumber":"5a","addr:street":"Viale Olimpia","amenity":"cafe","cuisine":"regional","name":"Il Brentino","operator":"Gossip Cafe s.a.s.","shop":"wine"}}},{"type":"Feature","id":"node/1249699754","geometry":{"type":"Point","coordinates":[11.62027,44.83588]},"properties":{"osm_type":"node","osm_id":1249699754,"category":"wine_shop","name":"Antica Enoteca Al Brindisi","tags":{"addr:city":"Ferrara","addr:housenumber":"11","addr:postcode":"44121","addr:street":"Via Guglielmo degli Adelardi","name":"Antica Enoteca Al Brindisi","name:historic":"Hostaria del Chiucchiolino","shop":"wine","start_date":"1435","website":"https://www.albrindisi.net/","wheelchair":"no"}}},{"type":"Feature","id":"node/1270509635","geometry":{"type":"Point","coordinates":[10.63723,45.38653]},"properties":{"osm_type":"node","osm_id":1270509635,"category":"winery","name":"Borgo la Caccia","tags":{"craft":"winery","name":"Borgo la Caccia"}}},{"type":"Feature","id":"node/1272211266","geometry":{"type":"Point","coordinates":[10.66932,45.44678]},"properties":{"osm_type":"node","osm_id":1272211266,"category":"wine_shop","name":"Vino e dintorni","tags":{"name":"Vino e dintorni","shop":"wine"}}},{"type":"Feature","id":"node/1278554168","geometry":{"type":"Point","coordinates":[11.31522,43.67498]},"properties":{"osm_type":"node","osm_id":1278554168,"category":"winery","name":"Castel Ruggero","tags":{"addr:city":"Bagno a Ripoli","addr:housenumber":"33","addr:postcode":"50011","addr:street":"Via Castel Ruggero","craft":"winery","name":"Castel Ruggero","operator":"Nicolo d'Afflitto","website":"https://www.castelruggero.com/"}}},{"type":"Feature","id":"node/1296858155","geometry":{"type":"Point","coordinates":[12.90412,43.33605]},"properties":{"osm_type":"node","osm_id":1296858155,"category":"wine_shop","name":"Fresco","tags":{"addr:housenumber":"45","addr:street":"Corso della Repubblica","name":"Fresco","shop":"wine"}}},{"type":"Feature","id":"node/1341382929","geometry":{"type":"Point","coordinates":[10.60926,45.48769]},"properties":{"osm_type":"node","osm_id":1341382929,"category":"wine_shop","name":"Enoteca del Lugana","tags":{"name":"Enoteca del Lugana","shop":"wine"}}},{"type":"Feature","id":"node/1341500797","geometry":{"type":"Point","coordinates":[16.54243,41.13109]},"properties":{"osm_type":"node","osm_id":1341500797,"category":"wine_shop","name":"Boutique della Bottiglia","tags":{"addr:city":"Terlizzi","addr:housenumber":"22","addr:postcode":"70038","addr:street":"Via Guglielmo Marconi","name":"Boutique della Bottiglia","shop":"wine","wheelchair":"no"}}},{"type":"Feature","id":"node/1353614037","geometry":{"type":"Point","coordinates":[9.19053,45.01825]},"properties":{"osm_type":"node","osm_id":1353614037,"category":"wine_shop","name":"Terre Bentivoglio","tags":{"name":"Terre Bentivoglio","shop":"wine"}}},{"type":"Feature","id":"node/1371572897","geometry":{"type":"Point","coordinates":[12.21904,43.51808]},"properties":{"osm_type":"node","osm_id":1371572897,"category":"wine_shop","name":"Casanova","tags":{"name":"Casanova","shop":"wine"}}},{"type":"Feature","id":"node/1371630289","geometry":{"type":"Point","coordinates":[12.2015,43.51248]},"properties":{"osm_type":"node","osm_id":1371630289,"category":"wine_shop","name":"Vinea Familiae","tags":{"name":"Vinea Familiae","shop":"wine"}}},{"type":"Feature","id":"node/1389586115","geometry":{"type":"Point","coordinates":[11.06478,45.91816]},"properties":{"osm_type":"node","osm_id":1389586115,"category":"winery","name":"Azienda Agricola Maso Salengo","tags":{"addr:housenumber":"13","addr:street":"Via Giuseppe Zucchelli","amenity":"bench","craft":"winery","name":"Azienda Agricola Maso Salengo"}}},{"type":"Feature","id":"node/1423089012","geometry":{"type":"Point","coordinates":[7.50781,45.07983]},"properties":{"osm_type":"node","osm_id":1423089012,"category":"wine_shop","name":"La Boutique Del Gusto","tags":{"addr:city":"Rivoli","addr:country":"IT","addr:housenumber":"171a","addr:postcode":"10098","addr:street":"Corso Alcide De Gasperi","name":"La Boutique Del Gusto","opening_hours":"Tu-Su 09:00-13:00,16:00-20:00; PH closed","shop":"wine"}}},{"type":"Feature","id":"node/1455257214","geometry":{"type":"Point","coordinates":[11.38984,43.42204]},"properties":{"osm_type":"node","osm_id":1455257214,"category":"wine_shop","name":"San Sano","tags":{"name":"San Sano","shop":"wine"}}},{"type":"Feature","id":"node/1456035064","geometry":{"type":"Point","coordinates":[12.42199,42.92821]},"properties":{"osm_type":"node","osm_id":1456035064,"category":"wine_shop","name":"Cantina Baldassarri","tags":{"addr:housenumber":"1","addr:street":"Vocabolo Pianelli","email":"cantinabaldassarriluciano@gmail.com","name":"Cantina Baldassarri","opening_hours":"Mo-Sa 08:30-13:00, 15:00-19:30","phone":"+390758707299","shop":"wine","website":"https://www.cantinabaldassarri.it/"}}},{"type":"Feature","id":"node/1459133976","geometry":{"type":"Point","coordinates":[11.86811,45.40381]},"properties":{"osm_type":"node","osm_id":1459133976,"category":"winery","tags":{"addr:country":"IT","addr:housenumber":"7","craft":"winery"}}},{"type":"Feature","id":"node/1459180043","geometry":{"type":"Point","coordinates":[11.86883,45.41019]},"properties":{"osm_type":"node","osm_id":1459180043,"category":"wine_shop","name":"La Moscheta","tags":{"name":"La Moscheta","shop":"wine"}}},{"type":"Feature","id":"node/1470052242","geometry":{"type":"Point","coordinates":[8.19688,44.89855]},"properties":{"osm_type":"node","osm_id":1470052242,"category":"wine_shop","name":"Tastè Vin","tags":{"name":"Tastè Vin","shop":"wine"}}},{"type":"Feature","id":"node/1473162126","geometry":{"type":"Point","coordinates":[11.8791,45.40378]},"properties":{"osm_type":"node","osm_id":1473162126,"category":"wine_shop","name":"Enoteca da Severino","tags":{"addr:housenumber":"44","addr:street":"Via del Santo","name":"Enoteca da Severino","opening_hours":"Mo-Su 10:30-13:00,17:00-21:30","shop":"wine"}}},{"type":"Feature","id":"node/1480114998","geometry":{"type":"Point","coordinates":[11.64806,46.74214]},"properties":{"osm_type":"node","osm_id":1480114998,"category":"wine_shop","name":"Vintothek","tags":{"name":"Vintothek","opening_hours":"Mo-Fr 10:00-19:00; Sa 09:00-18:00","shop":"wine","wheelchair":"yes"}}},{"type":"Feature","id":"node/1490207626","geometry":{"type":"Point","coordinates":[11.11532,43.42086]},"properties":{"osm_type":"node","osm_id":1490207626,"category":"wine_shop","name":"Il Salotto","tags":{"name":"Il Salotto","shop":"wine"}}},{"type":"Feature","id":"node/1491158957","geometry":{"type":"Point","coordinates":[11.01664,43.40008]},"properties":{"osm_type":"node","osm_id":1491158957,"category":"winery","name":"Fattoria Il Palagio","tags":{"addr:city":"Colle di Val d'Elsa","addr:postcode":"53034","craft":"winery","email":"info@ilpalagio.it","name":"Fattoria Il Palagio","operator":"Zonin","phone":"+39 0577 953004","website":"https://ilpalagio.it/"}}},{"type":"Feature","id":"node/1492560419","geometry":{"type":"Point","coordinates":[12.47966,41.85482]},"properties":{"osm_type":"node","osm_id":1492560419,"category":"wine_shop","name":"Enoteca Quattrochiacchiere","tags":{"addr:city":"Roma","addr:country":"IT","addr:housenumber":"61","addr:postcode":"00145","addr:street":"Via Gabriello Chiabrera","email":"rosella.guido@tiscali.it","name":"Enoteca Quattrochiacchiere","opening_hours":"Mo-Sa 10:00-14:30,17:00-21:00","operator":"Quattrochiacchiere s.r.l.","phone":"+39 06 5431291","shop":"wine","website":"https://www.quattrochiacchiere.com/"}}},{"type":"Feature","id":"node/1508728373","geometry":{"type":"Point","coordinates":[11.73468,45.7684]},"properties":{"osm_type":"node","osm_id":1508728373,"category":"wine_shop","name":"Strappo","tags":{"name":"Strappo","shop":"wine","wheelchair":"yes"}}},{"type":"Feature","id":"node/1512072759","geometry":{"type":"Point","coordinates":[12.24966,43.4647]},"properties":{"osm_type":"node","osm_id":1512072759,"category":"wine_shop","tags":{"shop":"wine"}}},{"type":"Feature","id":"node/1520436406","geometry":{"type":"Point","coordinates":[15.54568,41.46334]},"properties":{"osm_type":"node","osm_id":1520436406,"category":"winery","name":"Enoteca Boccadama","tags":{"craft":"winery","name":"Enoteca Boccadama"}}},{"type":"Feature","id":"node/1530984361","geometry":{"type":"Point","coordinates":[11.76241,45.38569]},"properties":{"osm_type":"node","osm_id":1530984361,"category":"wine_shop","name":"Conte Giordano Emo Capodilista","tags":{"addr:city":"Selvazzano Dentro","addr:country":"IT","addr:housenumber":"16","addr:postcode":"35030","addr:street":"Via Montecchia","alt_name":"La Montecchia","man_made":"winery","name":"Conte Giordano Emo Capodilista","shop":"wine"}}},{"type":"Feature","id":"node/1547553021","geometry":{"type":"Point","coordinates":[10.26875,44.64854]},"properties":{"osm_type":"node","osm_id":1547553021,"category":"winery","name":"Azienda Agricola Lamoretti","tags":{"craft":"winery","name":"Azienda Agricola Lamoretti"}}},{"type":"Feature","id":"node/1621345716","geometry":{"type":"Point","coordinates":[14.30769,41.0732]},"properties":{"osm_type":"node","osm_id":1621345716,"category":"wine_shop","name":"Enoteca La Botte","tags":{"name":"Enoteca La Botte","shop":"wine"}}},{"type":"Feature","id":"node/1634059079","geometry":{"type":"Point","coordinates":[15.14249,37.84199]},"properties":{"osm_type":"node","osm_id":1634059079,"category":"wine_shop","name":"Il Vino della Rosa","tags":{"name":"Il Vino della Rosa","operator":"Rosa D'Agostino","phone":"+39 095 643134","shop":"wine"}}},{"type":"Feature","id":"node/1634400526","geometry":{"type":"Point","coordinates":[7.80849,45.58221]},"properties":{"osm_type":"node","osm_id":1634400526,"category":"wine_shop","name":"Cantina Produttori Nebbiolo Di Carema","tags":{"addr:city":"Carema","addr:housenumber":"32","addr:postcode":"10010","addr:street":"Via Nazionale","email":"cantinaproduttori@caremadoc.it","name":"Cantina Produttori Nebbiolo Di Carema","phone":"+39 0125 811160","shop":"wine","website":"https://www.caremadoc.it/"}}},{"type":"Feature","id":"node/1651270018","geometry":{"type":"Point","coordinates":[10.73206,44.84477]},"properties":{"osm_type":"node","osm_id":1651270018,"category":"winery","name":"Acetaia Comunale","tags":{"email":"turismo@comune.novellara.re.it","industrial":"winery","name":"Acetaia Comunale","tourism":"attraction","website":"https://www.comune.novellara.re.it/vivere-novellara/luoghi/acetaia-comunale-balsamic-vinegar"}}},{"type":"Feature","id":"node/1675022614","geometry":{"type":"Point","coordinates":[11.10784,46.1378]},"properties":{"osm_type":"node","osm_id":1675022614,"category":"wine_shop","name":"Vinoteca Cantina La-Vis","tags":{"addr:city":"Lavis","addr:country":"IT","addr:housenumber":"5","addr:postcode":"38015","addr:street":"Via del Carmine","email":"vinoteca@la-vis.com","name":"Vinoteca Cantina La-Vis","operator":"Cantina La-Vis e Valle di Cembra S.C.A.","phone":"+39 0461 440150","shop":"wine","website":"https://la-vis.com/"}}},{"type":"Feature","id":"node/1697898039","geometry":{"type":"Point","coordinates":[9.17626,45.4665]},"properties":{"osm_type":"node","osm_id":1697898039,"category":"wine_shop","name":"Cantina Carducci","tags":{"addr:city":"Milano","addr:country":"IT","addr:housenumber":"9","addr:postcode":"20123","addr:street":"Via Giosuè Carducci","amenity":"restaurant","email":"info@cantinacarducci.it","name":"Cantina Carducci","opening_hours":"Mo-Sa 06:30-21:00; Su off","phone":"+390286452009","shop":"wine","website":"https://www.cantinacarducci.it/"}}},{"type":"Feature","id":"node/1702380973","geometry":{"type":"Point","coordinates":[10.01816,44.09862]},"properties":{"osm_type":"node","osm_id":1702380973,"category":"wine_shop","name":"Enoteca Regionale della Liguria","tags":{"addr:postcode":"19033","addr:street":"Via Vittorio Veneto","name":"Enoteca Regionale della Liguria","shop":"wine"}}},{"type":"Feature","id":"node/1704111211","geometry":{"type":"Point","coordinates":[11.36023,44.52594]},"properties":{"osm_type":"node","osm_id":1704111211,"category":"wine_shop","name":"Nanni uve e vini s.a.s","tags":{"addr:city":"Bologna","addr:country":"IT","addr:housenumber":"13","addr:postcode":"40128","addr:street":"Via Don Carlo Gnocchi","email":"soniananni@gmail.com","name":"Nanni uve e vini s.a.s","shop":"wine"}}},{"type":"Feature","id":"node/1704248353","geometry":{"type":"Point","coordinates":[11.34453,44.49523]},"properties":{"osm_type":"node","osm_id":1704248353,"category":"wine_shop","name":"Enoteca storica Faccioli","tags":{"addr:city":"Bologna","addr:country":"IT","addr:housenumber":"15","addr:postcode":"40126","addr:street":"Via Altabella","amenity":"bar","name":"Enoteca storica Faccioli","shop":"wine","website":"http://www.enotecastoricafaccioli.it/"}}},{"type":"Feature","id":"node/1704270648","geometry":{"type":"Point","coordinates":[11.36488,43.66522]},"properties":{"osm_type":"node","osm_id":1704270648,"category":"wine_cellar","name":"Vitiano Vini","tags":{"name":"Vitiano Vini","tourism":"wine_cellar"}}},{"type":"Feature","id":"node/1704334232","geometry":{"type":"Point","coordinates":[11.38869,44.47659]},"properties":{"osm_type":"node","osm_id":1704334232,"category":"wine_shop","name":"La tua vigna in città","tags":{"addr:city":"Bologna","addr:country":"IT","addr:housenumber":"12","addr:postcode":"40139","addr:street":"Via Vincenzo Gemito","name":"La tua vigna in città","shop":"wine"}}},{"type":"Feature","id":"node/1707878104","geometry":{"type":"Point","coordinates":[17.23637,40.60856]},"properties":{"osm_type":"node","osm_id":1707878104,"category":"wine_shop","name":"La Volpe Ubriaca","tags":{"addr:city":"Crispiano","addr:housenumber":"42","addr:postcode":"74012","addr:street":"Circumvallazione Conca D'Oro","email":"lavolpeubriaca@gmail.com","name":"La Volpe Ubriaca","opening_hours":"Mo-We,Fr,Sa 17:00-20:30, Mo-Sa 09:00-13:30; Su,PH off","operator":"Massimo","phone":"+39 340 398 0754","shop":"wine","website":"www.LaVolpeUbriaca.it"}}},{"type":"Feature","id":"node/1719919401","geometry":{"type":"Point","coordinates":[10.32742,43.56291]},"properties":{"osm_type":"node","osm_id":1719919401,"category":"wine_shop","name":"Cantina Il Carraio","tags":{"name":"Cantina Il Carraio","shop":"wine"}}},{"type":"Feature","id":"node/1719919456","geometry":{"type":"Point","coordinates":[10.3305,43.5635]},"properties":{"osm_type":"node","osm_id":1719919456,"category":"wine_shop","name":"Mister Bacco","tags":{"addr:housenumber":"50","addr:street":"Via Astolfo Lunardi","name":"Mister Bacco","shop":"wine"}}},{"type":"Feature","id":"node/1721213953","geometry":{"type":"Point","coordinates":[10.32931,43.54773]},"properties":{"osm_type":"node","osm_id":1721213953,"category":"wine_shop","name":"Cantina di Cenaia","tags":{"name":"Cantina di Cenaia","shop":"wine"}}},{"type":"Feature","id":"node/1721646358","geometry":{"type":"Point","coordinates":[12.14694,43.56854]},"properties":{"osm_type":"node","osm_id":1721646358,"category":"wine_shop","tags":{"shop":"wine"}}},{"type":"Feature","id":"node/1739474442","geometry":{"type":"Point","coordinates":[12.10277,42.41501]},"properties":{"osm_type":"node","osm_id":1739474442,"category":"wine_shop","name":"Com'era","tags":{"addr:housenumber":"2","addr:street":"Vicolo dei Pellegrini","name":"Com'era","shop":"wine","wheelchair":"yes"}}},{"type":"Feature","id":"node/1744458084","geometry":{"type":"Point","coordinates":[11.10292,43.87935]},"properties":{"osm_type":"node","osm_id":1744458084,"category":"wine_shop","name":"Methe","tags":{"addr:housenumber":"134","addr:street":"Piazza Mercatale","name":"Methe","shop":"wine"}}},{"type":"Feature","id":"node/1755092520","geometry":{"type":"Point","coordinates":[12.91969,43.63144]},"properties":{"osm_type":"node","osm_id":1755092520,"category":"winery","name":"Terracruda","tags":{"addr:city":"Fratte Rosa","addr:housenumber":"28","addr:postcode":"61040","addr:street":"Via Serre","craft":"winery","name":"Terracruda","website":"https://www.terracruda.it/"}}},{"type":"Feature","id":"node/1755184175","geometry":{"type":"Point","coordinates":[12.63412,43.72798]},"properties":{"osm_type":"node","osm_id":1755184175,"category":"wine_shop","name":"Magia Ciarla","tags":{"addr:housenumber":"54","addr:street":"Via Raffaello","name":"Magia Ciarla","opening_hours":"Mo-Sa 09:00-13:00,16:00-20:00","phone":"+390722328438","shop":"wine"}}},{"type":"Feature","id":"node/1759807177","geometry":{"type":"Point","coordinates":[12.53149,41.88765]},"properties":{"osm_type":"node","osm_id":1759807177,"category":"wine_shop","name":"Vini e Olii","tags":{"addr:city":"Roma","addr:postcode":"00176","addr:street":"Via del Pigneto","name":"Vini e Olii","shop":"wine"}}},{"type":"Feature","id":"node/1759856895","geometry":{"type":"Point","coordinates":[12.5251,41.8891]},"properties":{"osm_type":"node","osm_id":1759856895,"category":"wine_shop","name":"Enoteca Pigneto","tags":{"name":"Enoteca Pigneto","shop":"wine"}}},{"type":"Feature","id":"node/1762280551","geometry":{"type":"Point","coordinates":[11.34444,43.39138]},"properties":{"osm_type":"node","osm_id":1762280551,"category":"wine_shop","name":"Azienda Agricola Amina di Monti Livio","tags":{"man_made":"winery","name":"Azienda Agricola Amina di Monti Livio","shop":"wine","tourism":"guest_house","wine":"yes"}}},{"type":"Feature","id":"node/1762280568","geometry":{"type":"Point","coordinates":[11.34846,43.37741]},"properties":{"osm_type":"node","osm_id":1762280568,"category":"wine_shop","name":"Ruppiano Società Agraria","tags":{"man_made":"winery","name":"Ruppiano Società Agraria","shop":"wine","wine":"yes"}}},{"type":"Feature","id":"node/1762286035","geometry":{"type":"Point","coordinates":[13.34319,41.72638]},"properties":{"osm_type":"node","osm_id":1762286035,"category":"wine_shop","name":"Enoteca VITA Vini & Taglieri","tags":{"addr:housenumber":"13","addr:postcode":"03011","addr:street":"Via Carlo Minnocci","cuisine":"Alcolici;Cibo;Cibo per Happy Hour;Drink per Happy Hour;Vino;Birra;Cibo al bar;Cocktail;Superalcolici","name":"Enoteca VITA Vini & Taglieri","opening_hours":"Mo off; Tu-Th 11:00-24:00; Fr-Sa 11:00-01:00; Su 18:00-01:00","phone":"+39 371 166 8336","shop":"wine","wheelchair":"yes"}}},{"type":"Feature","id":"node/1762318709","geometry":{"type":"Point","coordinates":[11.4982,43.38768]},"properties":{"osm_type":"node","osm_id":1762318709,"category":"wine_shop","name":"Azienda Agricola I Campacci","tags":{"man_made":"winery","name":"Azienda Agricola I Campacci","shop":"wine"}}},{"type":"Feature","id":"node/1790476556","geometry":{"type":"Point","coordinates":[11.73336,45.76665]},"properties":{"osm_type":"node","osm_id":1790476556,"category":"wine_shop","name":"Vibo","tags":{"name":"Vibo","shop":"wine","wheelchair":"yes"}}},{"type":"Feature","id":"node/1794739645","geometry":{"type":"Point","coordinates":[10.51543,44.8974]},"properties":{"osm_type":"node","osm_id":1794739645,"category":"wine_shop","tags":{"shop":"wine"}}},{"type":"Feature","id":"node/1803703914","geometry":{"type":"Point","coordinates":[12.90337,46.11093]},"properties":{"osm_type":"node","osm_id":1803703914,"category":"winery","name":"Enoteca","tags":{"craft":"winery","name":"Enoteca"}}},{"type":"Feature","id":"node/1824049383","geometry":{"type":"Point","coordinates":[12.23707,43.45848]},"properties":{"osm_type":"node","osm_id":1824049383,"category":"wine_shop","name":"Lo Sfizio","tags":{"name":"Lo Sfizio","shop":"wine"}}},{"type":"Feature","id":"node/1831393517","geometry":{"type":"Point","coordinates":[11.98411,42.64335]},"properties":{"osm_type":"node","osm_id":1831393517,"category":"wine_shop","name":"Enoteca Mariottini","tags":{"name":"Enoteca Mariottini","shop":"wine"}}},{"type":"Feature","id":"node/1840230949","geometry":{"type":"Point","coordinates":[12.43576,41.89729]},"properties":{"osm_type":"node","osm_id":1840230949,"category":"wine_shop","name":"Tavernacolo","tags":{"addr:city":"Roma","addr:housenumber":"311","addr:postcode":"00165","addr:street":"Via Aurelia","name":"Tavernacolo","shop":"wine"}}},{"type":"Feature","id":"node/1854309387","geometry":{"type":"Point","coordinates":[12.34342,45.43595]},"properties":{"osm_type":"node","osm_id":1854309387,"category":"wine_shop","name":"Wine Bar 5000","tags":{"addr:housenumber":"5000","addr:postcode":"30122","name":"Wine Bar 5000","shop":"wine"}}},{"type":"Feature","id":"node/1866502087","geometry":{"type":"Point","coordinates":[13.11159,43.41227]},"properties":{"osm_type":"node","osm_id":1866502087,"category":"winery","name":"Azienda Vitivinicola Borioni Gianni","tags":{"craft":"winery","name":"Azienda Vitivinicola Borioni Gianni"}}},{"type":"Feature","id":"node/1929662521","geometry":{"type":"Point","coordinates":[11.59915,45.66365]},"properties":{"osm_type":"node","osm_id":1929662521,"category":"wine_shop","name":"La Cantinetta","tags":{"addr:city":"Sandrigo","addr:country":"IT","addr:housenumber":"36","addr:postcode":"36066","addr:street":"Via Monte Grappa","name":"La Cantinetta","opening_hours":"Mo 15:30-18:00; Tu-Sa 09:00-12:30,15:30-18:00; We 09:00-12:30","phone":"+39 0444 751313","shop":"wine"}}},{"type":"Feature","id":"node/1963190337","geometry":{"type":"Point","coordinates":[14.82635,38.55611]},"properties":{"osm_type":"node","osm_id":1963190337,"category":"winery","tags":{"craft":"winery","tourism":"wine_cellar"}}},{"type":"Feature","id":"node/1964022791","geometry":{"type":"Point","coordinates":[10.32802,43.54764]},"properties":{"osm_type":"node","osm_id":1964022791,"category":"wine_shop","name":"Divini Sapori","tags":{"name":"Divini Sapori","shop":"wine"}}},{"type":"Feature","id":"node/2004273985","geometry":{"type":"Point","coordinates":[11.65504,45.74511]},"properties":{"osm_type":"node","osm_id":2004273985,"category":"wine_shop","name":"Enoteca Al Fante","tags":{"addr:city":"Marostica","addr:housenumber":"10","addr:postcode":"36063","addr:street":"Piazza Castello","name":"Enoteca Al Fante","shop":"wine"}}},{"type":"Feature","id":"node/2025154976","geometry":{"type":"Point","coordinates":[10.29087,43.89281]},"properties":{"osm_type":"node","osm_id":2025154976,"category":"wine_shop","name":"Chicchi Pietro, Vendita Vino","tags":{"name":"Chicchi Pietro, Vendita Vino","shop":"wine"}}},{"type":"Feature","id":"node/2034632298","geometry":{"type":"Point","coordinates":[11.65063,46.74457]},"properties":{"osm_type":"node","osm_id":2034632298,"category":"winery","name":"Köfererhof","tags":{"amenity":"restaurant","craft":"winery","name":"Köfererhof","phone":"+39 0472 836649","website":"https://www.koefererhof.it/"}}},{"type":"Feature","id":"node/2034632299","geometry":{"type":"Point","coordinates":[11.65063,46.74477]},"properties":{"osm_type":"node","osm_id":2034632299,"category":"wine_shop","tags":{"shop":"wine"}}},{"type":"Feature","id":"node/2044508278","geometry":{"type":"Point","coordinates":[10.99548,43.82369]},"properties":{"osm_type":"node","osm_id":2044508278,"category":"winery","tags":{"craft":"winery","shop":"wine"}}},{"type":"Feature","id":"node/2045846010","geometry":{"type":"Point","coordinates":[11.31785,43.31351]},"properties":{"osm_type":"node","osm_id":2045846010,"category":"wine_shop","name":"Wein Vino Wine","tags":{"addr:city":"Siena","addr:housenumber":"65","addr:postcode":"53100","addr:street":"Strada di Pescaia","name":"Wein Vino Wine","phone":"+39 0577 600392","shop":"wine","website":"https://weinvinowine.com/"}}},{"type":"Feature","id":"node/2049366101","geometry":{"type":"Point","coordinates":[8.35727,45.61851]},"properties":{"osm_type":"node","osm_id":2049366101,"category":"wine_shop","name":"Travaglini Vini","tags":{"name":"Travaglini Vini","shop":"wine"}}},{"type":"Feature","id":"node/2069021844","geometry":{"type":"Point","coordinates":[7.28841,44.82122]},"properties":{"osm_type":"node","osm_id":2069021844,"category":"wine_shop","name":"Azienda Agricola la Rivà","tags":{"addr:city":"Bricherasio","addr:country":"IT","addr:housenumber":"9","addr:postcode":"10060","addr:street":"Strada Rivà","man_made":"winery","name":"Azienda Agricola la Rivà","shop":"wine"}}},{"type":"Feature","id":"node/2079121246","geometry":{"type":"Point","coordinates":[11.10751,46.15327]},"properties":{"osm_type":"node","osm_id":2079121246,"category":"winery","name":"Villa Persani","tags":{"addr:city":"Lavis","addr:housenumber":"13","addr:postcode":"38015","addr:street":"Via Guglielmo Marconi","craft":"winery","name":"Villa Persani","operator":"Azienda Agricola Clementi Silvano","shop":"wine"}}},{"type":"Feature","id":"node/2087683177","geometry":{"type":"Point","coordinates":[13.24723,41.29272]},"properties":{"osm_type":"node","osm_id":2087683177,"category":"wine_shop","name":"Enoteca Saint Patrick","tags":{"name":"Enoteca Saint Patrick","shop":"wine"}}},{"type":"Feature","id":"node/2091272659","geometry":{"type":"Point","coordinates":[11.70953,44.23427]},"properties":{"osm_type":"node","osm_id":2091272659,"category":"winery","name":"Tenuta Cassano","tags":{"craft":"winery","name":"Tenuta Cassano"}}},{"type":"Feature","id":"node/2112857603","geometry":{"type":"Point","coordinates":[11.11813,46.05729]},"properties":{"osm_type":"node","osm_id":2112857603,"category":"wine_shop","name":"La botega del vin","tags":{"addr:city":"Trento","addr:country":"IT","addr:housenumber":"2","addr:postcode":"38122","addr:street":"Via dei Muredei","name":"La botega del vin","shop":"wine"}}},{"type":"Feature","id":"node/2159956231","geometry":{"type":"Point","coordinates":[11.24366,46.41183]},"properties":{"osm_type":"node","osm_id":2159956231,"category":"winery","name":"Weingut Peter Sölva und Söhne - Tenuta Peter Sölva e Figli","tags":{"addr:city":"Kaltern an der Weinstraße - Caldaro sulla Strada del Vino","addr:housenumber":"33","addr:postcode":"39052","addr:street":"Goldgasse - Via D'Oro","craft":"winery","name":"Weingut Peter Sölva und Söhne - Tenuta Peter Sölva e Figli","name:de":"Weingut Peter Sölva und Söhne","name:it":"Tenuta Peter Sölva e Figli","opening_hours":"Mo-Fr 10:00-13:00,15:00-20:00; Sa 10:00-20:00; Jul,Aug Th 10:00-13:00,15:00-23:00; Jul Fr off; Sep-Oct Su 11:00-17:00; Dec Fr 10:00-13:00,15:00-23:00","operator":"Weingut Peter Sölva","start_date":"1731","website":"https://www.soelva.com/"}}},{"type":"Feature","id":"node/2160301042","geometry":{"type":"Point","coordinates":[11.60144,45.66207]},"properties":{"osm_type":"node","osm_id":2160301042,"category":"wine_shop","name":"La mia cantina - Enoteca da Anacleto","tags":{"addr:city":"Sandrigo","addr:country":"IT","addr:housenumber":"14","addr:postcode":"36066","addr:street":"Via Ippodromo","name":"La mia cantina - Enoteca da Anacleto","opening_hours":"Mo-Th 09:30-12:30,15:00-20:00; Fr 08:30-13:00,15:00-20:00; Sa 09:00-13:00,15:00-20:00","shop":"wine"}}},{"type":"Feature","id":"node/2165495950","geometry":{"type":"Point","coordinates":[12.32506,45.43604]},"properties":{"osm_type":"node","osm_id":2165495950,"category":"wine_shop","name":"Estro - Vino e Cucina","tags":{"addr:city":"Venezia","addr:housenumber":"3778","addr:postcode":"30123","addr:street":"Calle San Pantalon","amenity":"restaurant","email":"estro.enoteca@gmail.com","name":"Estro - Vino e Cucina","name:it":"Estro - Vino e Cucina","opening_hours":"We-Mo,PH 12:00-23:00","phone":"+39 041 476 4914","shop":"wine","website":"http://www.estrovenezia.com"}}},{"type":"Feature","id":"node/2208650603","geometry":{"type":"Point","coordinates":[16.59858,41.20556]},"properties":{"osm_type":"node","osm_id":2208650603,"category":"winery","name":"Chiazzodd","tags":{"addr:city":"Molfetta","addr:housenumber":"23/25","addr:postcode":"70056","addr:street":"Via Piazza","craft":"winery","name":"Chiazzodd","operator":"Rosanna Spadavecchia"}}},{"type":"Feature","id":"node/2245317673","geometry":{"type":"Point","coordinates":[10.97905,43.87668]},"properties":{"osm_type":"node","osm_id":2245317673,"category":"wine_shop","name":"SuperOlmi wine bar","tags":{"addr:city":"Quarrata","addr:postcode":"51039","addr:street":"Via Statale","name":"SuperOlmi wine bar","shop":"wine"}}},{"type":"Feature","id":"node/2262804046","geometry":{"type":"Point","coordinates":[11.28346,46.4618]},"properties":{"osm_type":"node","osm_id":2262804046,"category":"winery","name":"Kellerei Girlan","tags":{"addr:housenumber":"24","addr:postcode":"39057","addr:street":"St.-Martin-Straße - Via San Martino","craft":"winery","name":"Kellerei Girlan","opening_hours":"Mo-Sa 09:00-12:30, 14:00-18:30","phone":"+390471662403","website":"https://www.girlan.it/"}}},{"type":"Feature","id":"node/2272594742","geometry":{"type":"Point","coordinates":[9.18193,45.48388]},"properties":{"osm_type":"node","osm_id":2272594742,"category":"wine_shop","name":"Enoteca Huaxia","tags":{"addr:city":"Milano","addr:country":"IT","addr:housenumber":"23","addr:postcode":"20154","addr:street":"Via Maurizio Quadrio","amenity":"restaurant","cuisine":"chinese","email":"info@enotecahuaxia.com","name":"Enoteca Huaxia","phone":"+39 02 87240358","shop":"wine","website":"http://www.enotecahuaxia.com/"}}},{"type":"Feature","id":"node/2284611569","geometry":{"type":"Point","coordinates":[11.4712,43.61877]},"properties":{"osm_type":"node","osm_id":2284611569,"category":"wine_shop","name":"Enoteca Rosati","tags":{"addr:housenumber":"1","addr:street":"Corso Giacomo Matteotti","name":"Enoteca Rosati","opening_hours":"Mo-Sa 08:30-13:30,15:30-20:00; Su off","shop":"wine","wheelchair":"yes"}}},{"type":"Feature","id":"node/2286180507","geometry":{"type":"Point","coordinates":[8.37943,44.73541]},"properties":{"osm_type":"node","osm_id":2286180507,"category":"winery","name":"Azienda Agricola Cascina Garitina","tags":{"addr:city":"Castel Boglione","addr:housenumber":"20","addr:postcode":"14040","addr:street":"Via Gianola","craft":"winery","name":"Azienda Agricola Cascina Garitina","shop":"wine","tourism":"attraction","website":"https://www.cascinagaritina.com/"}}},{"type":"Feature","id":"node/2306551549","geometry":{"type":"Point","coordinates":[12.34612,44.26654]},"properties":{"osm_type":"node","osm_id":2306551549,"category":"wine_shop","name":"Cantina Marittima","tags":{"name":"Cantina Marittima","shop":"wine"}}},{"type":"Feature","id":"node/2310495682","geometry":{"type":"Point","coordinates":[9.23339,45.48341]},"properties":{"osm_type":"node","osm_id":2310495682,"category":"wine_shop","name":"Grappo Lambro","tags":{"name":"Grappo Lambro","shop":"wine"}}},{"type":"Feature","id":"node/2321575468","geometry":{"type":"Point","coordinates":[12.36964,43.09177]},"properties":{"osm_type":"node","osm_id":2321575468,"category":"wine_shop","name":"La bottega del vino","tags":{"name":"La bottega del vino","shop":"wine"}}},{"type":"Feature","id":"node/2330395858","geometry":{"type":"Point","coordinates":[10.50595,43.84579]},"properties":{"osm_type":"node","osm_id":2330395858,"category":"wine_shop","name":"Baffardello","tags":{"addr:city":"Lucca","addr:housenumber":"2","addr:postcode":"55100","addr:street":"Via dell'Anfiteatro","name":"Baffardello","shop":"wine","website":"https://www.baffardellolucca.com/","wheelchair":"no"}}},{"type":"Feature","id":"node/2337086521","geometry":{"type":"Point","coordinates":[10.378,43.53264]},"properties":{"osm_type":"node","osm_id":2337086521,"category":"winery","tags":{"craft":"winery","opening_hours":"Sa 08:00-12:00","shop":"wine"}}},{"type":"Feature","id":"node/2339313195","geometry":{"type":"Point","coordinates":[8.63837,39.72434]},"properties":{"osm_type":"node","osm_id":2339313195,"category":"wine_shop","name":"La Cantinetta - Vini","tags":{"addr:city":"Terralba","addr:housenumber":"1","addr:postcode":"09098","addr:street":"Via Santa Suia","name":"La Cantinetta - Vini","shop":"wine"}}},{"type":"Feature","id":"node/2343768270","geometry":{"type":"Point","coordinates":[8.71146,45.68326]},"properties":{"osm_type":"node","osm_id":2343768270,"category":"wine_shop","name":"Bistrot","tags":{"addr:city":"Somma Lombardo","addr:country":"IT","addr:housenumber":"8","addr:postcode":"21019","addr:street":"Via Emilio Fuser","amenity":"cafe","name":"Bistrot","shop":"wine","wheelchair":"no"}}},{"type":"Feature","id":"node/2346006414","geometry":{"type":"Point","coordinates":[12.28024,45.71643]},"properties":{"osm_type":"node","osm_id":2346006414,"category":"wine_shop","name":"Enoteca Carmenere","tags":{"addr:city":"Lancenigo","addr:housenumber":"68","addr:postcode":"31020","addr:street":"Via Piave","name":"Enoteca Carmenere","shop":"wine"}}},{"type":"Feature","id":"node/2357022335","geometry":{"type":"Point","coordinates":[9.17518,45.51055]},"properties":{"osm_type":"node","osm_id":2357022335,"category":"wine_shop","name":"Corte San Fortunato","tags":{"addr:housenumber":"10","addr:postcode":"20161","addr:street":"Via Giovanni Nicotera","name":"Corte San Fortunato","opening_hours":"Mo-Fr 15:00-19:00; Sa 09:00-13:00","shop":"wine"}}},{"type":"Feature","id":"node/2361641315","geometry":{"type":"Point","coordinates":[11.25278,43.76699]},"properties":{"osm_type":"node","osm_id":2361641315,"category":"wine_shop","name":"Le Volpi e L'uva","tags":{"addr:city":"Firenze","addr:country":"IT","addr:housenumber":"1 R","addr:postcode":"50125","addr:street":"Piazza dei Rossi","amenity":"pub","email":"Info@levolpieluva.com","name":"Le Volpi e L'uva","opening_hours":"Mo-Su 12:00-21:00","phone":"+390552398132","shop":"wine","website":"https://www.levolpieluva.com/"}}},{"type":"Feature","id":"node/2361699927","geometry":{"type":"Point","coordinates":[11.2601,43.78187]},"properties":{"osm_type":"node","osm_id":2361699927,"category":"wine_shop","name":"Enoteca Bussotti","tags":{"addr:city":"Firenze","addr:country":"IT","addr:housenumber":"161 R","addr:postcode":"50129","addr:street":"Via San Gallo","email":"info@enotecabussotti.it","name":"Enoteca Bussotti","phone":"+39 055 483091","shop":"wine","website":"https://www.enotecabussotti.it/"}}},{"type":"Feature","id":"node/2361764493","geometry":{"type":"Point","coordinates":[11.25,43.79203]},"properties":{"osm_type":"node","osm_id":2361764493,"category":"wine_shop","name":"Vineggiando","tags":{"addr:city":"Firenze","addr:country":"IT","addr:housenumber":"25 R","addr:street":"Piazza Giovambattista Giorgini","name":"Vineggiando","opening_hours":"We-Fr 9:30-13:00","shop":"wine"}}},{"type":"Feature","id":"node/2361917526","geometry":{"type":"Point","coordinates":[11.26109,43.77101]},"properties":{"osm_type":"node","osm_id":2361917526,"category":"winery","name":"Oratio","tags":{"addr:city":"Firenze","addr:country":"IT","addr:housenumber":"7","addr:street":"Via Matteo Palmieri","craft":"winery","name":"Oratio"}}},{"type":"Feature","id":"node/2371151031","geometry":{"type":"Point","coordinates":[9.27405,45.58313]},"properties":{"osm_type":"node","osm_id":2371151031,"category":"wine_shop","name":"Enoteca Meregalli","tags":{"addr:city":"Monza","addr:country":"IT","addr:housenumber":"24b","addr:postcode":"20900","addr:street":"Via Italia","name":"Enoteca Meregalli","opening_hours":"Mo 15:30-19:30; Tu-Fr 09:00-13:00,15:30-19:30; Sa 09:00-13:00,15:30-20:00; Su 10:00-13:00,15:30-19:00","phone":"+39 039 2301980","shop":"wine","website":"https://www.meregalli.it/","wheelchair":"no"}}},{"type":"Feature","id":"node/2381660397","geometry":{"type":"Point","coordinates":[9.27668,45.584]},"properties":{"osm_type":"node","osm_id":2381660397,"category":"wine_shop","name":"Cantina dei Sapori","tags":{"addr:city":"Monza","addr:country":"IT","addr:housenumber":"2","addr:postcode":"20900","addr:street":"Vicolo della Torre","amenity":"bar","name":"Cantina dei Sapori","shop":"wine"}}},{"type":"Feature","id":"node/2388841181","geometry":{"type":"Point","coordinates":[9.2703,45.57948]},"properties":{"osm_type":"node","osm_id":2388841181,"category":"wine_shop","name":"Wineline","tags":{"addr:city":"Monza","addr:country":"IT","addr:housenumber":"4e","addr:postcode":"20900","addr:street":"Via Venti Settembre","amenity":"restaurant","email":"info@wine-line.it","name":"Wineline","opening_hours":"Su 00:00+","phone":"+39 039 3902567","shop":"wine","website":"http://www.wine-line.it/"}}},{"type":"Feature","id":"node/2417961625","geometry":{"type":"Point","coordinates":[9.27811,45.58421]},"properties":{"osm_type":"node","osm_id":2417961625,"category":"wine_shop","name":"Vineria dei Tintori","tags":{"addr:city":"Monza","addr:country":"IT","addr:housenumber":"2","addr:postcode":"20900","addr:street":"Via Gerardo dei Tintori","email":"prenotazioni@vineriadeitintori.it","name":"Vineria dei Tintori","opening_hours":"Mo 00:00-02:00,18:00-24:00; Tu 00:00-01:00,11:00-24:00; We-Su 00:00-02:00,11:00-24:00","phone":"+39 039 9372406","shop":"wine","website":"https://www.vineriadeitintori.it/"}}},{"type":"Feature","id":"node/2426731321","geometry":{"type":"Point","coordinates":[11.25586,46.3913]},"properties":{"osm_type":"node","osm_id":2426731321,"category":"wine_shop","name":"Manincor Vinothek","tags":{"addr:city":"Kaltern an der Weinstraße - Caldaro sulla Strada del Vino","addr:housenumber":"4","addr:postcode":"39052","name":"Manincor Vinothek","opening_hours":"Mo-Fr 09:30-18:00; Sa 10:00-17:00","shop":"wine","website":"https://www.manincor.com/de/ab-hof-verkauf.html"}}},{"type":"Feature","id":"node/2429309974","geometry":{"type":"Point","coordinates":[9.28529,45.58845]},"properties":{"osm_type":"node","osm_id":2429309974,"category":"wine_shop","name":"Bulk Wine","tags":{"addr:city":"Monza","addr:country":"IT","addr:housenumber":"31","addr:postcode":"20900","addr:street":"Via Lecco","name":"Bulk Wine","shop":"wine"}}},{"type":"Feature","id":"node/2432670241","geometry":{"type":"Point","coordinates":[11.65439,46.71907]},"properties":{"osm_type":"node","osm_id":2432670241,"category":"wine_shop","name":"La Cantinota","tags":{"amenity":"bar","name":"La Cantinota","shop":"wine"}}},{"type":"Feature","id":"node/2434221405","geometry":{"type":"Point","coordinates":[13.24906,41.29236]},"properties":{"osm_type":"node","osm_id":2434221405,"category":"wine_shop","name":"Cantina Porta Nova","tags":{"addr:city":"Terracina","addr:housenumber":"11-12","addr:postcode":"04019","addr:street":"Via Porta Nuova","name":"Cantina Porta Nova","operator":"Alessandro Meltieri","shop":"wine"}}},{"type":"Feature","id":"node/2446058932","geometry":{"type":"Point","coordinates":[9.19077,45.48877]},"properties":{"osm_type":"node","osm_id":2446058932,"category":"wine_shop","name":"Rotondi Vini","tags":{"addr:city":"Milano","addr:country":"IT","addr:housenumber":"2","addr:postcode":"20159","addr:street":"Piazzale Lagosta","email":"enoteca@vinicolarotondi.it","name":"Rotondi Vini","opening_hours":"Mo 16:00-19:30; Tu-Sa 10:00-13:00,16:00-19:30","phone":"+39 02 6684293","shop":"wine","website":"https://www.vinicolarotondi.com/","wheelchair":"limited"}}},{"type":"Feature","id":"node/2450910611","geometry":{"type":"Point","coordinates":[10.6177,45.4547]},"properties":{"osm_type":"node","osm_id":2450910611,"category":"winery","name":"Azienda Agricola Cà dei Frati","tags":{"addr:city":"Sirmione","addr:housenumber":"22","addr:postcode":"25019","addr:street":"Via Frati","craft":"winery","name":"Azienda Agricola Cà dei Frati","opening_hours":"Mo-Fr 08:30-12:30,14:30-18:30","shop":"wine"}}},{"type":"Feature","id":"node/2464385813","geometry":{"type":"Point","coordinates":[9.28501,45.58609]},"properties":{"osm_type":"node","osm_id":2464385813,"category":"wine_shop","name":"Osteria Bacco e Tabacco","tags":{"addr:city":"Monza","addr:country":"IT","addr:housenumber":"26a","addr:postcode":"20900","addr:street":"Via Enrico da Monza","amenity":"restaurant","email":"info@osteriabaccoetabacco.it","name":"Osteria Bacco e Tabacco","phone":"+39 039 2308969","shop":"wine","website":"http://www.osteriabaccoetabacco.it/"}}},{"type":"Feature","id":"node/2467303797","geometry":{"type":"Point","coordinates":[16.68936,41.10612]},"properties":{"osm_type":"node","osm_id":2467303797,"category":"wine_shop","name":"Vitium","tags":{"addr:city":"Bitonto","addr:housenumber":"17","addr:postcode":"70032","addr:street":"Piazza Cattedrale","name":"Vitium","shop":"wine"}}},{"type":"Feature","id":"node/2475681435","geometry":{"type":"Point","coordinates":[11.5418,45.55641]},"properties":{"osm_type":"node","osm_id":2475681435,"category":"wine_shop","name":"Casolin Parolin","tags":{"addr:city":"Vicenza","addr:country":"IT","addr:housenumber":"1","addr:postcode":"36100","addr:street":"Via Giambattista Vico","email":"info@vineriaparolin.it","name":"Casolin Parolin","opening_hours":"Tu-Th 11:30-14:00,18:00-22:00; Fr-Sa 11:30-14:00,18:00-23:00; Sa 18:00-21:30; PH off","operator":"Fratelli Parolin s.r.l.","phone":"+39 0444 024225","shop":"wine","website":"https://www.vineriaparolin.it/"}}},{"type":"Feature","id":"node/2498684666","geometry":{"type":"Point","coordinates":[9.22618,45.4685]},"properties":{"osm_type":"node","osm_id":2498684666,"category":"wine_shop","name":"Il Barile di Amontillado","tags":{"addr:city":"Milano","addr:housenumber":"9","addr:postcode":"20133","addr:street":"Viale Argonne","name":"Il Barile di Amontillado","phone":"+39 02 36565388","shop":"wine"}}},{"type":"Feature","id":"node/2500543031","geometry":{"type":"Point","coordinates":[8.70687,45.68381]},"properties":{"osm_type":"node","osm_id":2500543031,"category":"wine_shop","name":"Enoteca Chirico","tags":{"addr:city":"Somma Lombardo","addr:country":"IT","addr:housenumber":"7","addr:postcode":"21019","addr:street":"Via Giuseppe Mazzini","email":"Info@enotecachirico.it","name":"Enoteca Chirico","opening_hours":"Mo-We, Fr-Sa 08:00-12:30, 15:00-20:00; Th 07:45-20:00","phone":"+39 0331 256541","shop":"wine","website":"https://www.enotecachirico.it/"}}},{"type":"Feature","id":"node/2505950480","geometry":{"type":"Point","coordinates":[9.20243,45.44967]},"properties":{"osm_type":"node","osm_id":2505950480,"category":"wine_shop","name":"Il vinaio di Furio","tags":{"name":"Il vinaio di Furio","shop":"wine"}}},{"type":"Feature","id":"node/2511297410","geometry":{"type":"Point","coordinates":[13.77891,45.6728]},"properties":{"osm_type":"node","osm_id":2511297410,"category":"wine_shop","name":"Azienda Vinicola Andrej Bole","tags":{"addr:city":"Trieste","addr:housenumber":"25","addr:postcode":"34135","addr:street":"Via Sottomonte","amenity":"osmica","email":"bole.andrej@gmail.com","name":"Azienda Vinicola Andrej Bole","operator":"Andrej Bole","phone":"+393333568243","shop":"wine"}}},{"type":"Feature","id":"node/2513696410","geometry":{"type":"Point","coordinates":[12.4839,41.90015]},"properties":{"osm_type":"node","osm_id":2513696410,"category":"wine_shop","name":"Vino Vip","tags":{"name":"Vino Vip","shop":"wine"}}},{"type":"Feature","id":"node/2517966291","geometry":{"type":"Point","coordinates":[9.28386,40.21162]},"properties":{"osm_type":"node","osm_id":2517966291,"category":"wine_shop","name":"Enoteca La rossa","tags":{"addr:city":"Mamoiada","addr:postcode":"08024","addr:street":"Corso Vittorio Emanuele III","name":"Enoteca La rossa","opening_hours":"Mo-Su 09:00-20:00","phone":"+39 349 392 1671","shop":"wine"}}},{"type":"Feature","id":"node/2559740741","geometry":{"type":"Point","coordinates":[8.67242,44.6863]},"properties":{"osm_type":"node","osm_id":2559740741,"category":"wine_shop","name":"Distilleria Gualco","tags":{"addr:city":"Silvano d'Orba","addr:housenumber":"5","addr:postcode":"15060","addr:street":"Via Venti Settembre","name":"Distilleria Gualco","shop":"wine","website":"https://www.distilleriagualco.it/"}}},{"type":"Feature","id":"node/2559969273","geometry":{"type":"Point","coordinates":[9.28942,45.58778]},"properties":{"osm_type":"node","osm_id":2559969273,"category":"wine_shop","name":"Il Vinivendolo","tags":{"addr:city":"Monza","addr:country":"IT","addr:housenumber":"3","addr:postcode":"20900","addr:street":"Via Giuseppe Ugolini","email":"ilvinivendolo@gmail.com","name":"Il Vinivendolo","phone":"+39 393 8036177","shop":"wine","website":"http://www.ilvinivendolo.com/"}}},{"type":"Feature","id":"node/2617437912","geometry":{"type":"Point","coordinates":[8.64585,44.63768]},"properties":{"osm_type":"node","osm_id":2617437912,"category":"wine_shop","name":"Enoteca Regionale di Ovada e del Monferrato","tags":{"addr:city":"Ovada","addr:housenumber":"69","addr:postcode":"15076","addr:street":"Via Torino","email":"enotecaregionaleovada@gmail.com","name":"Enoteca Regionale di Ovada e del Monferrato","opening_hours":"Tu-Sa 10:00-12:00,16:30-19:30; Su \"by appointment\"; Mo off","phone":"+39 0143 346988","shop":"wine","website":"https://enotecaregionaleovada.com/"}}},{"type":"Feature","id":"node/2630658518","geometry":{"type":"Point","coordinates":[7.87869,45.45121]},"properties":{"osm_type":"node","osm_id":2630658518,"category":"wine_shop","name":"Incontro Di Vite","tags":{"addr:city":"Ivrea","addr:country":"IT","addr:housenumber":"265","addr:postcode":"10015","addr:street":"Via Torino","email":"incontrodivite@outlook.it","name":"Incontro Di Vite","shop":"wine","wheelchair":"no"}}},{"type":"Feature","id":"node/2634151922","geometry":{"type":"Point","coordinates":[12.50402,41.89374]},"properties":{"osm_type":"node","osm_id":2634151922,"category":"wine_shop","name":"Quartino","tags":{"addr:city":"Roma","addr:country":"IT","addr:housenumber":"103","addr:postcode":"00185","addr:street":"Piazza Vittorio Emanuele II;Piazza Vittorio Emanuele Secondo","name":"Quartino","shop":"wine"}}},{"type":"Feature","id":"node/2634913630","geometry":{"type":"Point","coordinates":[11.32583,43.54605]},"properties":{"osm_type":"node","osm_id":2634913630,"category":"winery","name":"La Fattoria di Vignamaggio","tags":{"amenity":"restaurant","craft":"winery","cuisine":"local","name":"La Fattoria di Vignamaggio"}}},{"type":"Feature","id":"node/2645687790","geometry":{"type":"Point","coordinates":[12.51225,41.88023]},"properties":{"osm_type":"node","osm_id":2645687790,"category":"wine_shop","name":"Vini e Oli","tags":{"addr:city":"Roma","addr:country":"IT","addr:housenumber":"21","addr:postcode":"00183","addr:street":"Via Ceneda","alt_name":"Vini e Olî","name":"Vini e Oli","operator":"Enoteca Alimentari Marchioni Nello","phone":"+39 06 7000517","shop":"wine"}}},{"type":"Feature","id":"node/2664291876","geometry":{"type":"Point","coordinates":[9.17053,45.48082]},"properties":{"osm_type":"node","osm_id":2664291876,"category":"wine_shop","name":"KR Enoteca 3","tags":{"addr:city":"Milano","name":"KR Enoteca 3","operator":"ABG srl","phone":"+39 02 3656 1221","shop":"wine"}}},{"type":"Feature","id":"node/2665001080","geometry":{"type":"Point","coordinates":[13.31709,45.8328]},"properties":{"osm_type":"node","osm_id":2665001080,"category":"wine_shop","name":"Tenuta Ca'Bolani","tags":{"addr:city":"Cervignano del Friuli","addr:housenumber":"2","addr:postcode":"33052","name":"Tenuta Ca'Bolani","shop":"wine","website":"https://www.cabolani.it/"}}},{"type":"Feature","id":"node/2670550450","geometry":{"type":"Point","coordinates":[12.01579,45.88548]},"properties":{"osm_type":"node","osm_id":2670550450,"category":"wine_shop","name":"Azienda Agricola Cepol","tags":{"addr:city":"Valdobbiadene","addr:country":"IT","addr:housenumber":"28","addr:postcode":"31049","addr:street":"Via Rocat e Ferrari","name":"Azienda Agricola Cepol","shop":"wine"}}},{"type":"Feature","id":"node/2682416973","geometry":{"type":"Point","coordinates":[11.65276,45.31178]},"properties":{"osm_type":"node","osm_id":2682416973,"category":"winery","name":"Cantina Massimo Mutta","tags":{"craft":"winery","name":"Cantina Massimo Mutta","website":"https://www.muttamassimo.it"}}},{"type":"Feature","id":"node/2682543356","geometry":{"type":"Point","coordinates":[9.27135,45.58431]},"properties":{"osm_type":"node","osm_id":2682543356,"category":"wine_shop","name":"Civico 13","tags":{"addr:city":"Monza","addr:country":"IT","addr:housenumber":"13","addr:postcode":"20900","addr:street":"Via Cortelonga","name":"Civico 13","opening_hours":"Tu-Fr 18:30-24:00; Sa,Su 12:00-15:00,18:30-24:00","shop":"wine"}}},{"type":"Feature","id":"node/2692275706","geometry":{"type":"Point","coordinates":[11.13466,46.19469]},"properties":{"osm_type":"node","osm_id":2692275706,"category":"winery","name":"Cantina Fondazione Edmund Mach","tags":{"addr:city":"San Michele all'Adige","addr:housenumber":"1","addr:postcode":"38010","addr:street":"Via Edmund Mach","craft":"winery","email":"cantina@fmach.it","name":"Cantina Fondazione Edmund Mach","opening_hours":"Mo-Fr 08:30-12:00,14:30-17:00; Sa 09:00-12:00","phone":"+39 0461 615252","shop":"wine","website":"https://www.fmach.it/Azienda-Agricola/Cantina"}}},{"type":"Feature","id":"node/2718122116","geometry":{"type":"Point","coordinates":[12.54378,44.05678]},"properties":{"osm_type":"node","osm_id":2718122116,"category":"wine_shop","name":"Amatori Maurizio","tags":{"addr:city":"Rimini","addr:country":"IT","addr:housenumber":"159a","addr:postcode":"47922","addr:street":"Via Marecchiese","name":"Amatori Maurizio","shop":"wine"}}},{"type":"Feature","id":"node/2718124578","geometry":{"type":"Point","coordinates":[12.57881,44.0585]},"properties":{"osm_type":"node","osm_id":2718124578,"category":"wine_shop","name":"Benvenuti Al Sud","tags":{"addr:city":"Rimini","addr:country":"IT","addr:housenumber":"165b","addr:postcode":"47923","addr:street":"Viale Tripoli","name":"Benvenuti Al Sud","shop":"wine"}}},{"type":"Feature","id":"node/2718179953","geometry":{"type":"Point","coordinates":[12.56473,44.06088]},"properties":{"osm_type":"node","osm_id":2718179953,"category":"wine_shop","name":"Osteria Dei Poeti","tags":{"addr:city":"Rimini","addr:country":"IT","addr:housenumber":"40","addr:postcode":"47923","addr:street":"Piazza Malatesta","name":"Osteria Dei Poeti","shop":"wine"}}},{"type":"Feature","id":"node/2718182893","geometry":{"type":"Point","coordinates":[12.57153,44.05405]},"properties":{"osm_type":"node","osm_id":2718182893,"category":"wine_shop","name":"La Cantéina de Borg","tags":{"addr:city":"Rimini","addr:country":"IT","addr:housenumber":"42b","addr:postcode":"47923","addr:street":"Via Circonvallazione Meridionale","name":"La Cantéina de Borg","phone":"+39 0541 90 1680","shop":"wine","website":"https://www.lacanteinadeborg.it/"}}},{"type":"Feature","id":"node/2718208355","geometry":{"type":"Point","coordinates":[12.57237,44.05528]},"properties":{"osm_type":"node","osm_id":2718208355,"category":"wine_shop","name":"Enoteca","tags":{"addr:city":"Rimini","addr:country":"IT","addr:housenumber":"84","addr:postcode":"47923","addr:street":"Via 20 settembre 1870","name":"Enoteca","shop":"wine","wheelchair":"yes"}}},{"type":"Feature","id":"node/2719663645","geometry":{"type":"Point","coordinates":[9.19034,45.49001]},"properties":{"osm_type":"node","osm_id":2719663645,"category":"wine_shop","name":"Cantine Milano","tags":{"addr:housenumber":"1","addr:street":"Via Traù","brand":"Wind","email":"reservation@cantinemilano.it","name":"Cantine Milano","opening_hours":"Mo-Su 12:30-14:30, 19:00-23:30","phone":"+390266802819","shop":"wine","website":"https://www.cantinemilano.com/","wheelchair":"no"}}},{"type":"Feature","id":"node/2723506902","geometry":{"type":"Point","coordinates":[9.11759,39.21126]},"properties":{"osm_type":"node","osm_id":2723506902,"category":"wine_shop","name":"Cronta","tags":{"addr:city":"Cagliari","addr:street":"Viale Armando Diaz","name":"Cronta","shop":"wine"}}},{"type":"Feature","id":"node/2728461364","geometry":{"type":"Point","coordinates":[7.04714,45.13552]},"properties":{"osm_type":"node","osm_id":2728461364,"category":"wine_shop","name":"Pietrini","tags":{"addr:city":"Susa","addr:housenumber":"3","addr:postcode":"10059","addr:street":"Via Palazzo di Città","name":"Pietrini","shop":"wine"}}},{"type":"Feature","id":"node/2734346243","geometry":{"type":"Point","coordinates":[8.48862,40.26228]},"properties":{"osm_type":"node","osm_id":2734346243,"category":"wine_shop","name":"Emidio Oggianu","tags":{"name":"Emidio Oggianu","shop":"wine"}}},{"type":"Feature","id":"node/2736137430","geometry":{"type":"Point","coordinates":[13.01644,43.8446]},"properties":{"osm_type":"node","osm_id":2736137430,"category":"wine_shop","name":"Vinoteca","tags":{"addr:city":"Fano","addr:housenumber":"16","addr:postcode":"61032","addr:street":"Piazza Andrea Costa","name":"Vinoteca","shop":"wine"}}},{"type":"Feature","id":"node/2736317261","geometry":{"type":"Point","coordinates":[8.79295,45.66045]},"properties":{"osm_type":"node","osm_id":2736317261,"category":"wine_shop","name":"Il Barbaresco","tags":{"addr:city":"Gallarate","addr:country":"IT","addr:housenumber":"6","addr:postcode":"21013","addr:street":"Via Giuseppe Verdi","amenity":"pub","email":"gallarate@barbarescoenopub.it","name":"Il Barbaresco","opening_hours":"Mo-Sa 00:00-02:00,10:00-24:00; Su 00:00-02:00,11:00-15:00,18:00-24:00","phone":"+39 0331 790016","shop":"wine","website":"http://www.barbarescoenopub.it","wheelchair":"yes"}}},{"type":"Feature","id":"node/2749580887","geometry":{"type":"Point","coordinates":[11.37173,46.50199]},"properties":{"osm_type":"node","osm_id":2749580887,"category":"winery","name":"Plonerhof","tags":{"addr:city":"Bolzano - Bozen","addr:housenumber":"29","addr:postcode":"39100","addr:street":"Santa Maddalena di Sotto - Untermagdalena","craft":"winery","email":"info@weingut-plonerhof.com","name":"Plonerhof","operator":"Simon Geier","phone":"+39 0471 975559","shop":"alcohol","website":"https://www.weingut-plonerhof.com/"}}},{"type":"Feature","id":"node/2749585760","geometry":{"type":"Point","coordinates":[11.35528,46.49572]},"properties":{"osm_type":"node","osm_id":2749585760,"category":"wine_shop","name":"Enoteca 1000 e un vino","tags":{"addr:city":"Bolzano - Bozen","addr:housenumber":"37","addr:postcode":"39100","addr:street":"Via Alto Adige - Südtiroler Straße","email":"info@1000eunvino.it","name":"Enoteca 1000 e un vino","opening_hours":"Mo-Sa 09:30-23:00","phone":"+39 0471 300 313","shop":"wine","website":"https://enoteca1000eunvino.com"}}},{"type":"Feature","id":"node/2749599344","geometry":{"type":"Point","coordinates":[11.37789,46.49749]},"properties":{"osm_type":"node","osm_id":2749599344,"category":"winery","name":"Griesbauer","tags":{"addr:city":"Bolzano - Bozen","addr:housenumber":"66","addr:postcode":"39100","addr:street":"Via Rencio - Rentschner Straße","craft":"winery","name":"Griesbauer","operator":"Fam. Mumelter"}}},{"type":"Feature","id":"node/2749599358","geometry":{"type":"Point","coordinates":[11.34541,46.49547]},"properties":{"osm_type":"node","osm_id":2749599358,"category":"wine_shop","name":"Carpe Diem","tags":{"addr:city":"Bolzano - Bozen","addr:housenumber":"66","addr:postcode":"39100","addr:street":"Viale Venezia - Venediger Straße","name":"Carpe Diem","shop":"wine"}}},{"type":"Feature","id":"node/2749631118","geometry":{"type":"Point","coordinates":[11.63489,46.69004]},"properties":{"osm_type":"node","osm_id":2749631118,"category":"wine_shop","name":"Kuenhof","tags":{"addr:city":"Brixen - Bressanone","addr:housenumber":"12","addr:postcode":"39042","addr:street":"Lahner - Via Lahner","email":"pliger.kuenhof@rolmail.net","name":"Kuenhof","operator":"Peter & Brigitte Pliger","phone":"+390472850546","shop":"wine"}}},{"type":"Feature","id":"node/2749773164","geometry":{"type":"Point","coordinates":[11.23929,46.41471]},"properties":{"osm_type":"node","osm_id":2749773164,"category":"winery","name":"Castell Sallegg","tags":{"addr:city":"Kaltern an der Weinstraße - Caldaro sulla Strada del Vino","addr:housenumber":"15","addr:postcode":"39052","addr:street":"Unterwinkel - Vicolo di Sotto","craft":"winery","name":"Castell Sallegg","website":"https://www.castelsallegg.it/"}}},{"type":"Feature","id":"node/2749773685","geometry":{"type":"Point","coordinates":[11.24066,46.4226]},"properties":{"osm_type":"node","osm_id":2749773685,"category":"winery","name":"Tröpfltalhof","tags":{"addr:city":"Kaltern an der Weinstraße - Caldaro sulla Strada del Vino","addr:housenumber":"17","addr:postcode":"39052","addr:street":"Garnellenweg - Via Garnellen","craft":"winery","name":"Tröpfltalhof","operator":"Andreas Dichristin","website":"https://www.bioweinhof.it"}}},{"type":"Feature","id":"node/2749774032","geometry":{"type":"Point","coordinates":[11.23792,46.41646]},"properties":{"osm_type":"node","osm_id":2749774032,"category":"winery","name":"Oberpreyhof","tags":{"addr:city":"Kaltern an der Weinstraße - Caldaro sulla Strada del Vino","addr:housenumber":"2","addr:postcode":"39052","addr:street":"Garnellenweg - Via Garnellen","craft":"winery","email":"info@oberpreyhof.it","name":"Oberpreyhof","operator":"Familie Seppi","website":"https://www.oberpreyhof.it/"}}},