{"type":"FeatureCollection","features":[{"type":"Feature","id":"node/252286907","geometry":{"type":"Point","coordinates":[15.6162915,46.6059762]},"properties":{"osm_type":"node","osm_id":252286907,"category":"wine_cellar","name":"Brunček","tags":{"addr:housenumber":"212","addr:street":"Rošpoh","name":"Brunček","tourism":"wine_cellar"}}},{"type":"Feature","id":"node/252292956","geometry":{"type":"Point","coordinates":[15.6013096,46.5985824]},"properties":{"osm_type":"node","osm_id":252292956,"category":"wine_cellar","name":"Sabnik","tags":{"name":"Sabnik","tourism":"wine_cellar"}}},{"type":"Feature","id":"node/290058441","geometry":{"type":"Point","coordinates":[15.4664736,45.8638755]},"properties":{"osm_type":"node","osm_id":290058441,"category":"wine_cellar","name":"Gadova peč","tags":{"name":"Gadova peč","tourism":"wine_cellar"}}},{"type":"Feature","id":"node/301238524","geometry":{"type":"Point","coordinates":[16.1212621,46.4890395]},"properties":{"osm_type":"node","osm_id":301238524,"category":"wine_shop","name":"Vinska klet Rošker","tags":{"name":"Vinska klet Rošker","shop":"wine"}}},{"type":"Feature","id":"node/360772245","geometry":{"type":"Point","coordinates":[15.5874555,46.6060894]},"properties":{"osm_type":"node","osm_id":360772245,"category":"wine_cellar","name":"Hlade","tags":{"name":"Hlade","tourism":"wine_cellar"}}},{"type":"Feature","id":"node/369589535","geometry":{"type":"Point","coordinates":[15.596598,46.6010068]},"properties":{"osm_type":"node","osm_id":369589535,"category":"wine_cellar","name":"Dobaj - Bobič","tags":{"addr:housenumber":"12","addr:street":"Šober","name":"Dobaj - Bobič","opening_hours":"Fr 15:00-22:00; Sa-Su 10:00-22:00","tourism":"wine_cellar"}}},{"type":"Feature","id":"node/933734475","geometry":{"type":"Point","coordinates":[15.63177,46.6314518]},"properties":{"osm_type":"node","osm_id":933734475,"category":"winery","name":"Doppler wine cellar","tags":{"craft":"winery","name":"Doppler wine cellar","shop":"winery"}}},{"type":"Feature","id":"node/1152480975","geometry":{"type":"Point","coordinates":[15.6053387,46.6038681]},"properties":{"osm_type":"node","osm_id":1152480975,"category":"winery","name":"Vinotoč Jošt","tags":{"addr:city":"Kamnica","addr:housenumber":"8","addr:postcode":"2351","addr:street":"Šober","craft":"winery","name":"Vinotoč Jošt","opening_hours":"Fr 15:00-24:00; Sa 11:30-24:00; Su 10:00-20:00","phone":"+386 2 623 10 01","tourism":"wine_cellar","website":"https://www.td-kamnica.si/vinotoc-jost/"}}},{"type":"Feature","id":"node/2958849453","geometry":{"type":"Point","coordinates":[13.5179418,45.9778098]},"properties":{"osm_type":"node","osm_id":2958849453,"category":"wine_shop","name":"Vinarstvo Simčič Marjan","tags":{"addr:city":"Dobrovo v Brdih","addr:housenumber":"3b","addr:postcode":"5212","addr:street":"Ceglo","name":"Vinarstvo Simčič Marjan","shop":"wine"}}},{"type":"Feature","id":"node/2958851941","geometry":{"type":"Point","coordinates":[13.5185392,45.9767912]},"properties":{"osm_type":"node","osm_id":2958851941,"category":"wine_shop","name":"Dolfo","tags":{"addr:city":"Dobrovo v Brdih","addr:housenumber":"3d","addr:postcode":"5212","addr:street":"Ceglo","name":"Dolfo","operator":"Skočaj Marko","shop":"wine","website":"https://www.dolfo.eu/"}}},{"type":"Feature","id":"node/3148780329","geometry":{"type":"Point","coordinates":[15.8703852,46.4202232]},"properties":{"osm_type":"node","osm_id":3148780329,"category":"wine_shop","name":"Vinoteka Kogl","tags":{"addr:city":"Ptuj","addr:housenumber":"8","addr:postcode":"2250","addr:street":"Slovenski trg","name":"Vinoteka Kogl","shop":"wine","website":"http://www.kogl.net/","wheelchair":"limited"}}},{"type":"Feature","id":"node/3159096661","geometry":{"type":"Point","coordinates":[15.8738305,46.4201039]},"properties":{"osm_type":"node","osm_id":3159096661,"category":"winery","name":"Ptujska klet","tags":{"addr:city":"Ptuj","addr:housenumber":"1","addr:postcode":"2250","addr:street":"Vinarski trg","craft":"winery","email":"info@ptujska-klet.si","name":"Ptujska klet","name:de":"Pettauer Weinkeller","operator":"Ptujska klet vinarstvo d.o.o.","phone":"+386 2 787 98 10","tourism":"attraction","website":"https://www.pullus.si/","wheelchair":"limited"}}},{"type":"Feature","id":"node/3439236491","geometry":{"type":"Point","coordinates":[13.5017239,45.9811382]},"properties":{"osm_type":"node","osm_id":3439236491,"category":"winery","name":"Costantini","tags":{"addr:city":"Dobrovo","addr:housenumber":"32","addr:postcode":"5212","addr:street":"Plešivo","craft":"winery","name":"Costantini","operator":"Dušan in Patricia Humar","website":"http://www.constantini.si"}}},{"type":"Feature","id":"node/3439241031","geometry":{"type":"Point","coordinates":[13.5021343,45.9806666]},"properties":{"osm_type":"node","osm_id":3439241031,"category":"winery","name":"Vina Blažič","tags":{"addr:city":"Dobrovo","addr:housenumber":"30","addr:postcode":"5212","addr:street":"Plešivo","craft":"winery","name":"Vina Blažič","website":"https://www.vina-blazic.si/"}}},{"type":"Feature","id":"node/3439296261","geometry":{"type":"Point","coordinates":[13.5342792,45.9977976]},"properties":{"osm_type":"node","osm_id":3439296261,"category":"winery","name":"Bjana","tags":{"addr:city":"Dobrovo v Brdih","addr:housenumber":"38","addr:postcode":"5212","addr:street":"Biljana","craft":"winery","name":"Bjana","operator":"Miran Sirk","website":"https://bjana.si/"}}},{"type":"Feature","id":"node/3439323804","geometry":{"type":"Point","coordinates":[13.5032532,46.0082428]},"properties":{"osm_type":"node","osm_id":3439323804,"category":"wine_shop","name":"Vinarstvo Šibav","tags":{"addr:city":"Dobrovo v Brdih","addr:housenumber":"45","addr:postcode":"5212","addr:street":"Neblo","name":"Vinarstvo Šibav","operator":"Miran & Danjela Šibav","phone":"+38641818163","shop":"wine","website":"https://vino-sibav.si/"}}},{"type":"Feature","id":"node/4017667174","geometry":{"type":"Point","coordinates":[14.5084669,46.0523652]},"properties":{"osm_type":"node","osm_id":4017667174,"category":"wine_shop","name":"Štorija","tags":{"addr:city":"Ljubljana","addr:housenumber":"17","addr:postcode":"1000","addr:street":"Trubarjeva cesta","name":"Štorija","shop":"wine"}}},{"type":"Feature","id":"node/4081854685","geometry":{"type":"Point","coordinates":[16.1956817,46.5187496]},"properties":{"osm_type":"node","osm_id":4081854685,"category":"wine_shop","name":"Enoteka Ljutomer","tags":{"name":"Enoteka Ljutomer","shop":"wine"}}},{"type":"Feature","id":"node/4098457662","geometry":{"type":"Point","coordinates":[13.9322047,45.8399123]},"properties":{"osm_type":"node","osm_id":4098457662,"category":"winery","name":"Vino Petrič","tags":{"addr:city":"Vipava","addr:housenumber":"53A","addr:postcode":"5271","addr:street":"Slap","craft":"winery","name":"Vino Petrič","operator":"Petrič Izidor","shop":"alcohol"}}},{"type":"Feature","id":"node/4098457663","geometry":{"type":"Point","coordinates":[13.9345097,45.8410135]},"properties":{"osm_type":"node","osm_id":4098457663,"category":"winery","name":"Vino Žorž","tags":{"addr:city":"Vipava","addr:housenumber":"13","addr:postcode":"5271","addr:street":"Slap","craft":"winery","name":"Vino Žorž","shop":"alcohol"}}},{"type":"Feature","id":"node/4098457664","geometry":{"type":"Point","coordinates":[13.9336139,45.8388585]},"properties":{"osm_type":"node","osm_id":4098457664,"category":"winery","name":"Kmetija Trošt","tags":{"addr:city":"Vipava","addr:housenumber":"72","addr:postcode":"5271","addr:street":"Slap","craft":"winery","name":"Kmetija Trošt","operator":"Stojan Trošt"}}},{"type":"Feature","id":"node/4513693474","geometry":{"type":"Point","coordinates":[13.7325634,45.8242027]},"properties":{"osm_type":"node","osm_id":4513693474,"category":"wine_shop","name":"Kmetija Besednjak","tags":{"addr:city":"Komen","addr:housenumber":"1a","addr:postcode":"6223","name":"Kmetija Besednjak","operator":"Stojan Besednjak","shop":"wine"}}},{"type":"Feature","id":"node/4832992816","geometry":{"type":"Point","coordinates":[13.6452981,45.4948098]},"properties":{"osm_type":"node","osm_id":4832992816,"category":"wine_shop","name":"Vinska Klet Robi & Dorjano Korenika","tags":{"addr:city":"Izola - Isola","addr:housenumber":"1a","addr:postcode":"6310","addr:street":"Korte","email":"dorjano.korenika@siol.net","name":"Vinska Klet Robi & Dorjano Korenika","name:it":"Cantina vinicola Robi & Dorjano Korenika","shop":"wine"}}},{"type":"Feature","id":"node/4838527108","geometry":{"type":"Point","coordinates":[13.7849859,45.7713887]},"properties":{"osm_type":"node","osm_id":4838527108,"category":"wine_shop","name":"Vina Vrabec","tags":{"addr:city":"Dutovlje","addr:housenumber":"6","addr:postcode":"6221","addr:street":"Pliskovica","email":"vrabec.vrabec@siol.net","name":"Vina Vrabec","shop":"wine"}}},{"type":"Feature","id":"node/4838527109","geometry":{"type":"Point","coordinates":[13.7844156,45.7715986]},"properties":{"osm_type":"node","osm_id":4838527109,"category":"wine_shop","name":"Domačija Vrabči","tags":{"addr:city":"Dutovlje","addr:housenumber":"12","addr:postcode":"6221","addr:street":"Pliskovica","name":"Domačija Vrabči","operator":"Darj & Ivo Šuc","shop":"wine","website":"https://www.vrabci.si"}}},{"type":"Feature","id":"node/4947039624","geometry":{"type":"Point","coordinates":[13.7365117,45.5351748]},"properties":{"osm_type":"node","osm_id":4947039624,"category":"wine_shop","tags":{"addr:housenumber":"1","addr:postcode":"6000","addr:street":"Šmarska cesta","phone":"+386 56 630100","shop":"wine"}}},{"type":"Feature","id":"node/4974208757","geometry":{"type":"Point","coordinates":[13.7062277,45.5037493]},"properties":{"osm_type":"node","osm_id":4974208757,"category":"wine_shop","name":"Santomas","tags":{"addr:city":"Šmarje","addr:housenumber":"10","addr:postcode":"6274","addr:street":"Šmarje","name":"Santomas","shop":"wine","website":"https://www.santomas.si/"}}},{"type":"Feature","id":"node/5031872220","geometry":{"type":"Point","coordinates":[13.5820689,45.9878646]},"properties":{"osm_type":"node","osm_id":5031872220,"category":"wine_shop","name":"Vino Simčič","tags":{"addr:city":"Kojsko","addr:housenumber":"8a","addr:postcode":"5211","addr:street":"Hum","name":"Vino Simčič","operator":"Simčič Karol & Igor & Marijan","shop":"wine","website":"https://www.vinosimcic.si/"}}},{"type":"Feature","id":"node/5045986400","geometry":{"type":"Point","coordinates":[13.8522026,45.8161682]},"properties":{"osm_type":"node","osm_id":5045986400,"category":"wine_shop","name":"Vina Kralj","tags":{"addr:city":"Štanjel","addr:housenumber":"22","addr:postcode":"6222","addr:street":"Kobdilj","email":"zdravko.kralj@siol.net","name":"Vina Kralj","shop":"wine"}}},{"type":"Feature","id":"node/5045994145","geometry":{"type":"Point","coordinates":[13.8283793,45.8103788]},"properties":{"osm_type":"node","osm_id":5045994145,"category":"wine_shop","name":"Vinogradništvo in Vinarstvo Derenda","tags":{"addr:city":"Štanjel","addr:housenumber":"23","addr:postcode":"6222","addr:street":"Hruševica","name":"Vinogradništvo in Vinarstvo Derenda","phone":"+38631622224","shop":"wine","website":"http://www.derenda.si/"}}},{"type":"Feature","id":"node/5050745015","geometry":{"type":"Point","coordinates":[15.5678564,46.6195358]},"properties":{"osm_type":"node","osm_id":5050745015,"category":"winery","name":"Ekološka kmetija in vinotoč Hauptman","tags":{"addr:city":"Bresternica","addr:housenumber":"3","addr:postcode":"2354","addr:street":"Šober","craft":"winery","name":"Ekološka kmetija in vinotoč Hauptman","opening_hours":"\"by appointment\"","operator":"Martin Hauptman","phone":"+386 41 277 723","shop":"farm","tourism":"wine_cellar"}}},{"type":"Feature","id":"node/5053100309","geometry":{"type":"Point","coordinates":[13.8323865,45.7556857]},"properties":{"osm_type":"node","osm_id":5053100309,"category":"wine_shop","name":"Vinarstvo Tavčar Marjan","tags":{"addr:city":"Dutovlje","addr:housenumber":"50","addr:postcode":"6221","name":"Vinarstvo Tavčar Marjan","shop":"wine","website":"http://www.vinarstvo-tavcar.com/"}}},{"type":"Feature","id":"node/5053100926","geometry":{"type":"Point","coordinates":[13.8328995,45.7551241]},"properties":{"osm_type":"node","osm_id":5053100926,"category":"wine_shop","name":"Renčel Wine","tags":{"addr:city":"Dutovlje","addr:housenumber":"24","addr:postcode":"6221","email":"rencelwine@gmail.com","name":"Renčel Wine","operator":"Joško Renčel","phone":"+386 31 370 561","shop":"wine","website":"https://www.rencel.si/"}}},{"type":"Feature","id":"node/5089407640","geometry":{"type":"Point","coordinates":[13.6775985,45.5387267]},"properties":{"osm_type":"node","osm_id":5089407640,"category":"wine_shop","name":"Vina Zaro 1348","tags":{"addr:city":"Izola – Isola","addr:housenumber":"12a","addr:postcode":"6310","addr:street":"Polje","name":"Vina Zaro 1348","operator":"Matej Zaro","shop":"wine","website":"http://www.vinozaro.com/"}}},{"type":"Feature","id":"node/5145481661","geometry":{"type":"Point","coordinates":[14.109515,46.3669744]},"properties":{"osm_type":"node","osm_id":5145481661,"category":"wine_shop","name":"Trgovina Vino Bled","tags":{"addr:city":"Bled","addr:housenumber":"4","addr:postcode":"4260","addr:street":"Ljubljanska cesta","name":"Trgovina Vino Bled","opening_hours":"Mo - Su 11:00 - 20:00","shop":"wine","website":"http://www.vinobled.si/"}}},{"type":"Feature","id":"node/5248348506","geometry":{"type":"Point","coordinates":[13.5035079,45.9866163]},"properties":{"osm_type":"node","osm_id":5248348506,"category":"wine_shop","name":"Kmetija Kristian Keber","tags":{"addr:city":"Dobrovo v Brdih","addr:housenumber":"11","addr:postcode":"5212","addr:street":"Plešivo","name":"Kmetija Kristian Keber","operator":"Kristian Keber","shop":"wine"}}},{"type":"Feature","id":"node/5484602226","geometry":{"type":"Point","coordinates":[13.8272489,45.8671649]},"properties":{"osm_type":"node","osm_id":5484602226,"category":"wine_shop","name":"Vinska klet Koron","tags":{"addr:city":"Dobravlje","addr:housenumber":"73a","addr:postcode":"5263","addr:street":"Brje","name":"Vinska klet Koron","operator":"Borut Koron","shop":"wine"}}},{"type":"Feature","id":"node/5499120164","geometry":{"type":"Point","coordinates":[15.6483695,46.5564147]},"properties":{"osm_type":"node","osm_id":5499120164,"category":"wine_shop","name":"Vinoteka Maribor","tags":{"addr:city":"Maribor","addr:housenumber":"10","addr:postcode":"2000","addr:street":"Usnjarska ulica","email":"info@vinotekamaribor.si","name":"Vinoteka Maribor","name:hu":"Vinotéka","phone":"+386 40 191 901","shop":"wine","website":"http://www.vinotekamaribor.si/","wheelchair":"no"}}},{"type":"Feature","id":"node/5623002675","geometry":{"type":"Point","coordinates":[13.9332215,45.840028]},"properties":{"osm_type":"node","osm_id":5623002675,"category":"winery","name":"Kmetija Pregeljc","tags":{"addr:city":"Vipava","addr:housenumber":"52","addr:postcode":"5271","addr:street":"Slap","craft":"winery","name":"Kmetija Pregeljc","shop":"alcohol"}}},{"type":"Feature","id":"node/5677975066","geometry":{"type":"Point","coordinates":[15.4071626,46.1958674]},"properties":{"osm_type":"node","osm_id":5677975066,"category":"wine_shop","name":"Biološko biodinamička kmetija Urbajs","tags":{"addr:city":"Šentjur","addr:housenumber":"44b","addr:postcode":"3230","addr:street":"Rifnik","name":"Biološko biodinamička kmetija Urbajs","shop":"wine","website":"https://www.info-urbajs.si/"}}},{"type":"Feature","id":"node/5687858162","geometry":{"type":"Point","coordinates":[13.8345043,45.7447555]},"properties":{"osm_type":"node","osm_id":5687858162,"category":"wine_shop","name":"Vinarstvo Emill in Ken Tavčar","tags":{"addr:city":"Dutovlje","addr:housenumber":"3","addr:postcode":"6221","addr:street":"Kreplje","email":"emil.tavcar@siol.net","name":"Vinarstvo Emill in Ken Tavčar","name:it":"Vinificazione Emill e Ken Tavčar","operator":"Emill & Ken Tavčar","shop":"wine"}}},{"type":"Feature","id":"node/5725075589","geometry":{"type":"Point","coordinates":[13.8241241,45.7278025]},"properties":{"osm_type":"node","osm_id":5725075589,"category":"wine_shop","name":"Čotova Klet","tags":{"addr:city":"Dutovlje","addr:housenumber":"14","addr:postcode":"6221","addr:street":"Vrhovlje","email":"cotovaklet@gmail.com","name":"Čotova Klet","name:it":"Cantina Čotova","shop":"wine"}}},{"type":"Feature","id":"node/6125372932","geometry":{"type":"Point","coordinates":[13.8283788,45.8108788]},"properties":{"osm_type":"node","osm_id":6125372932,"category":"wine_shop","name":"Grča Turizem","tags":{"addr:city":"Štanjel","addr:housenumber":"6","addr:postcode":"6222","addr:street":"Hruševica","name":"Grča Turizem","operator":"Pavla & Ivo Grča","shop":"wine","website":"http://www.grca.si/"}}},{"type":"Feature","id":"node/6358066219","geometry":{"type":"Point","coordinates":[13.7894878,45.5381502]},"properties":{"osm_type":"node","osm_id":6358066219,"category":"wine_shop","name":"Kmetiija Jogan Damijan","tags":{"addr:city":"Pobegi","addr:housenumber":"10","addr:postcode":"6276","addr:street":"Cikuti","email":"jogi.damjan@gmail.com","name":"Kmetiija Jogan Damijan","operator":"Damijan Jogan","shop":"wine"}}},{"type":"Feature","id":"node/6358071759","geometry":{"type":"Point","coordinates":[13.828224,45.5226898]},"properties":{"osm_type":"node","osm_id":6358071759,"category":"wine_shop","name":"Vinska Klet Markežič","tags":{"addr:city":"Pobegi","addr:housenumber":"16","addr:postcode":"6276","email":"denis.markezic@gmail.com","name":"Vinska Klet Markežič","operator":"Dean Markežič","shop":"wine"}}},{"type":"Feature","id":"node/6358094466","geometry":{"type":"Point","coordinates":[13.6849228,45.5422911]},"properties":{"osm_type":"node","osm_id":6358094466,"category":"wine_shop","name":"Vina Markovič","tags":{"addr:city":"Izola-Isola","addr:housenumber":"30b","addr:postcode":"6310","addr:street":"Polje","name":"Vina Markovič","shop":"wine","website":"https://www.vina-markovic.com/"}}},{"type":"Feature","id":"node/6358108811","geometry":{"type":"Point","coordinates":[13.6656717,45.5033382]},"properties":{"osm_type":"node","osm_id":6358108811,"category":"wine_shop","name":"Vina Steras","tags":{"addr:city":"Izola - Isola","addr:housenumber":"43","addr:postcode":"6310","addr:street":"Šared","name":"Vina Steras","operator":"Tilen Praprotnik","shop":"wine","website":"https://www.steras.com/"}}},{"type":"Feature","id":"node/6358184996","geometry":{"type":"Point","coordinates":[13.8215333,45.4970106]},"properties":{"osm_type":"node","osm_id":6358184996,"category":"wine_shop","name":"Rodica Ekološko vinogradništvo - Organic Winery","tags":{"name":"Rodica Ekološko vinogradništvo - Organic Winery","shop":"wine","website":"https://www.rodica.si/"}}},{"type":"Feature","id":"node/6358211839","geometry":{"type":"Point","coordinates":[13.6958892,45.5392948]},"properties":{"osm_type":"node","osm_id":6358211839,"category":"wine_shop","name":"Kmetija Prodan","tags":{"addr:city":"Koper - Capodistria","addr:housenumber":"51","addr:postcode":"6000","addr:street":"Semedela - Semedella","email":"dario.prodan@gmail.com","name":"Kmetija Prodan","operator":"Dario Prodan","shop":"wine"}}},{"type":"Feature","id":"node/6358278247","geometry":{"type":"Point","coordinates":[13.6677198,45.9032599]},"properties":{"osm_type":"node","osm_id":6358278247,"category":"wine_shop","name":"Vina Guštin","tags":{"addr:city":"Volčja Draga","addr:housenumber":"52","addr:postcode":"5293","email":"vinar.gustin@gmail.com","name":"Vina Guštin","operator":"Kerstin Žižmond","phone":"+38651626777","shop":"wine","website":"https://www.vinagustin.si/"}}},{"type":"Feature","id":"node/6358303806","geometry":{"type":"Point","coordinates":[13.9620748,45.8385002]},"properties":{"osm_type":"node","osm_id":6358303806,"category":"wine_shop","name":"Vipava 1894 d.o.o.","tags":{"addr:city":"Vipava","addr:housenumber":"5","addr:postcode":"5271","addr:street":"Vinarska cesta","name":"Vipava 1894 d.o.o.","shop":"wine","website":"https://www.vipava1894.si/"}}},{"type":"Feature","id":"node/6364347368","geometry":{"type":"Point","coordinates":[13.4898378,45.9970102]},"properties":{"osm_type":"node","osm_id":6364347368,"category":"wine_shop","name":"Atelier Kramar","tags":{"addr:city":"Dobrovo v Brdih","addr:housenumber":"12","addr:postcode":"5212","addr:street":"Barbana","name":"Atelier Kramar","operator":"Matjaž Kramar","shop":"wine","website":"https://www.atelier-kramar.si"}}},{"type":"Feature","id":"node/6364359099","geometry":{"type":"Point","coordinates":[13.5512079,46.0040301]},"properties":{"osm_type":"node","osm_id":6364359099,"category":"wine_shop","name":"Na Bregu","tags":{"addr:city":"Kojsko","addr:housenumber":"77","addr:postcode":"5211","addr:street":"Šmartno","name":"Na Bregu","operator":"Marinič","shop":"wine","website":"http://vinagisela.si/"}}},{"type":"Feature","id":"node/6364373642","geometry":{"type":"Point","coordinates":[13.5523341,46.0101606]},"properties":{"osm_type":"node","osm_id":6364373642,"category":"wine_shop","name":"Vina Fikfak","tags":{"addr:city":"Kojsko","addr:housenumber":"1B","addr:postcode":"5211","addr:street":"Imenje","name":"Vina Fikfak","shop":"wine","website":"https://www.fikfak.eu/"}}},{"type":"Feature","id":"node/6364377435","geometry":{"type":"Point","coordinates":[13.5305376,45.9738578]},"properties":{"osm_type":"node","osm_id":6364377435,"category":"wine_shop","name":"Vina Moro","tags":{"addr:housenumber":"62","addr:street":"Vipolže","name":"Vina Moro","shop":"wine"}}},{"type":"Feature","id":"node/6387471262","geometry":{"type":"Point","coordinates":[13.9662455,45.788635]},"properties":{"osm_type":"node","osm_id":6387471262,"category":"wine_shop","name":"Vina Moser","tags":{"addr:city":"Podnanos","addr:housenumber":"43","addr:postcode":"5272","addr:street":"Orehovica","name":"Vina Moser","operator":"Adam Žvanut","phone":"+386(0)59932165","shop":"wine"}}},{"type":"Feature","id":"node/6387478630","geometry":{"type":"Point","coordinates":[13.9638919,45.7876728]},"properties":{"osm_type":"node","osm_id":6387478630,"category":"wine_shop","name":"Posestvo Burja","tags":{"addr:city":"Podnanos","addr:housenumber":"46","addr:postcode":"5272","addr:street":"Orehovica","name":"Posestvo Burja","operator":"Primož Lavrenčič","shop":"wine","website":"http://www.burjaestate.com"}}},{"type":"Feature","id":"node/6387582479","geometry":{"type":"Point","coordinates":[13.7018478,45.9099244]},"properties":{"osm_type":"node","osm_id":6387582479,"category":"wine_shop","name":"Frlanova Kmetija","tags":{"addr:city":"Volčja Draga","addr:housenumber":"126","addr:postcode":"5293","name":"Frlanova Kmetija","shop":"wine","website":"http://www.frlanovakmetija.si"}}},{"type":"Feature","id":"node/6387596339","geometry":{"type":"Point","coordinates":[13.8232493,45.8651154]},"properties":{"osm_type":"node","osm_id":6387596339,"category":"wine_shop","name":"Vina San Mártin","tags":{"addr:city":"Dobravlje","addr:housenumber":"84","addr:postcode":"5263","addr:street":"Brje","name":"Vina San Mártin","operator":"Miran Kavčič","shop":"wine","website":"https://sanmartin-wines.com"}}},{"type":"Feature","id":"node/6387643957","geometry":{"type":"Point","coordinates":[13.8276294,45.8665271]},"properties":{"osm_type":"node","osm_id":6387643957,"category":"wine_shop","name":"Mansus","tags":{"addr:city":"Dobravlje","addr:housenumber":"79","addr:postcode":"5263","addr:street":"Brje","name":"Mansus","operator":"Makovec family","shop":"wine","website":"https://mansus.si"}}},{"type":"Feature","id":"node/6387699694","geometry":{"type":"Point","coordinates":[13.6708292,45.8875924]},"properties":{"osm_type":"node","osm_id":6387699694,"category":"wine_shop","name":"Vina Mozetič","tags":{"addr:city":"Renče","addr:housenumber":"13","addr:postcode":"5292","addr:street":"Tureli","name":"Vina Mozetič","operator":"Aldo Mozetič","shop":"wine"}}},{"type":"Feature","id":"node/6387720791","geometry":{"type":"Point","coordinates":[13.9663028,45.8354569]},"properties":{"osm_type":"node","osm_id":6387720791,"category":"wine_shop","name":"Vina Poljšak","tags":{"addr:city":"Vipava","addr:housenumber":"39a","addr:postcode":"5271","addr:street":"Gradišče pri Vipavi","name":"Vina Poljšak","shop":"wine","website":"https://vinapoljsak.com/"}}},{"type":"Feature","id":"node/6387730485","geometry":{"type":"Point","coordinates":[13.8332891,45.8918846]},"properties":{"osm_type":"node","osm_id":6387730485,"category":"wine_shop","name":"Tilia Estate","tags":{"addr:city":"Dobravlje","addr:housenumber":"41","addr:postcode":"5263","addr:street":"Potoče","name":"Tilia Estate","operator":"Melita & Matjaž Lemut","shop":"wine","website":"https://tiliaestate.si/"}}},{"type":"Feature","id":"node/6388036736","geometry":{"type":"Point","coordinates":[13.9098964,45.8308238]},"properties":{"osm_type":"node","osm_id":6388036736,"category":"wine_shop","name":"Vinarstvo Dora Erzelj","tags":{"addr:city":"Vipava","addr:housenumber":"7","addr:postcode":"5271","addr:street":"Erzelj","name":"Vinarstvo Dora Erzelj","operator":"Mitja Turk","phone":"+386 31 293 264","shop":"wine","website":"https://www.doraerzelj.com/"}}},{"type":"Feature","id":"node/6388054816","geometry":{"type":"Point","coordinates":[13.9111386,45.8546663]},"properties":{"osm_type":"node","osm_id":6388054816,"category":"wine_shop","name":"Posestvo Ferjančič","tags":{"addr:city":"Ajdovščina","addr:housenumber":"73","addr:postcode":"5270","addr:street":"Planina","name":"Posestvo Ferjančič","operator":"Anica & Peter Ferjančič","shop":"wine","website":"https://www.ferjancic.si/"}}},{"type":"Feature","id":"node/6388063790","geometry":{"type":"Point","coordinates":[13.9032931,45.8568433]},"properties":{"osm_type":"node","osm_id":6388063790,"category":"wine_shop","name":"Domačija Božič","tags":{"name":"Domačija Božič","operator":"Tomaž Božič","shop":"wine","website":"http://domacija-bozic.si"}}},{"type":"Feature","id":"node/6388078446","geometry":{"type":"Point","coordinates":[13.7476289,45.9290719]},"properties":{"osm_type":"node","osm_id":6388078446,"category":"wine_shop","name":"JNK Vinogradništvo in Vinarstvo (Kmetija Mervič)","tags":{"addr:city":"Šempas","addr:housenumber":"57c","addr:postcode":"5261","addr:street":"Šempas","name":"JNK Vinogradništvo in Vinarstvo (Kmetija Mervič)","operator":"Boleslav Mervič","shop":"wine","website":"https://www.jnk.si/"}}},{"type":"Feature","id":"node/6388088169","geometry":{"type":"Point","coordinates":[13.9616639,45.8671773]},"properties":{"osm_type":"node","osm_id":6388088169,"category":"wine_shop","name":"Vina Krapež","tags":{"addr:city":"Vipava","addr:housenumber":"95","addr:postcode":"5271","addr:street":"Vrhpolje","name":"Vina Krapež","operator":"Martin Krapež","shop":"wine","website":"http://www.vinakrapez.si/"}}},{"type":"Feature","id":"node/6388097619","geometry":{"type":"Point","coordinates":[13.9345328,45.840712]},"properties":{"osm_type":"node","osm_id":6388097619,"category":"winery","name":"Vino Marc","tags":{"addr:city":"Vipava","addr:housenumber":"24","addr:postcode":"5271","addr:street":"Slap","craft":"winery","name":"Vino Marc"}}},{"type":"Feature","id":"node/6388108457","geometry":{"type":"Point","coordinates":[13.9629425,45.8657259]},"properties":{"osm_type":"node","osm_id":6388108457,"category":"wine_shop","name":"Kmetija Tomažič","tags":{"addr:city":"Vipava","addr:housenumber":"77","addr:postcode":"5271","name":"Kmetija Tomažič","shop":"wine","website":"https://www.kmetija-tomazic.com/"}}},{"type":"Feature","id":"node/6388109487","geometry":{"type":"Point","coordinates":[13.969955,45.8336333]},"properties":{"osm_type":"node","osm_id":6388109487,"category":"wine_shop","name":"Vinarstvo Andlovic","tags":{"addr:city":"Vipava","addr:housenumber":"18","addr:postcode":"5271","addr:street":"Gradišče pri Vipavi","name":"Vinarstvo Andlovic","operator":"Rajko Andlovic","shop":"wine","website":"http://vinarstvo-andlovic.si"}}},{"type":"Feature","id":"node/6459465145","geometry":{"type":"Point","coordinates":[13.8237098,45.7730304]},"properties":{"osm_type":"node","osm_id":6459465145,"category":"winery","name":"Turistična Kmetija Živcovi","tags":{"craft":"winery","name":"Turistična Kmetija Živcovi"}}},{"type":"Feature","id":"node/6459465599","geometry":{"type":"Point","coordinates":[13.8251,45.7740925]},"properties":{"osm_type":"node","osm_id":6459465599,"category":"winery","name":"Kraška klet Krstan","tags":{"craft":"winery","name":"Kraška klet Krstan"}}},{"type":"Feature","id":"node/6459474633","geometry":{"type":"Point","coordinates":[13.8348348,45.7522077]},"properties":{"osm_type":"node","osm_id":6459474633,"category":"winery","name":"Vina Štok","tags":{"craft":"winery","name":"Vina Štok"}}},{"type":"Feature","id":"node/6467053516","geometry":{"type":"Point","coordinates":[13.5139918,46.0024679]},"properties":{"osm_type":"node","osm_id":6467053516,"category":"wine_shop","name":"Mavrič I&P","tags":{"addr:city":"Dobrovo v Brdih","addr:housenumber":"2","addr:postcode":"5212","addr:street":"Šlovrenc","name":"Mavrič I&P","shop":"wine"}}},{"type":"Feature","id":"node/6499673685","geometry":{"type":"Point","coordinates":[15.6925694,45.9690754]},"properties":{"osm_type":"node","osm_id":6499673685,"category":"wine_shop","name":"Penina Istenič","tags":{"addr:city":"Bizeljsko","addr:housenumber":"7","addr:postcode":"8259","addr:street":"Stara vas","name":"Penina Istenič","shop":"wine","website":"https://www.istenic.si"}}},{"type":"Feature","id":"node/6550011330","geometry":{"type":"Point","coordinates":[13.7514446,45.4627825]},"properties":{"osm_type":"node","osm_id":6550011330,"category":"wine_shop","name":"Posestvo Brič","tags":{"addr:city":"Šmarje","addr:housenumber":"1","addr:postcode":"6274","addr:street":"Brič","email":"dajana.vatovec@vinabric.si","name":"Posestvo Brič","phone":"+386 (0)5 6699 140","shop":"wine","website":"https://www.vinabric.si/domov1/?lang=sl"}}},{"type":"Feature","id":"node/6974390753","geometry":{"type":"Point","coordinates":[15.677665,46.5624874]},"properties":{"osm_type":"node","osm_id":6974390753,"category":"wine_shop","name":"Izletniška kmetija Kovačič","tags":{"addr:city":"Maribor","addr:housenumber":"41","addr:postcode":"2000","addr:street":"Meljski Hrib","name":"Izletniška kmetija Kovačič","shop":"wine"}}},{"type":"Feature","id":"node/7137445090","geometry":{"type":"Point","coordinates":[15.0419957,46.3336894]},"properties":{"osm_type":"node","osm_id":7137445090,"category":"winery","name":"Vinogradništvo Kugler","tags":{"addr:city":"Šmartno ob Paki","addr:housenumber":"63a","addr:postcode":"3327","addr:street":"Mali Vrh","craft":"winery","name":"Vinogradništvo Kugler","phone":"+386 31 422 948","website":"https://www.facebook.com/vino.kugler"}}},{"type":"Feature","id":"node/7194880639","geometry":{"type":"Point","coordinates":[16.1538091,46.4048637]},"properties":{"osm_type":"node","osm_id":7194880639,"category":"wine_shop","name":"Vinoteka Ormož","tags":{"addr:city":"Ormož","addr:housenumber":"11","addr:postcode":"2270","addr:street":"Kolodvorska cesta","name":"Vinoteka Ormož","operator":"Jeruzalem Ormož","shop":"wine"}}},{"type":"Feature","id":"node/7194880640","geometry":{"type":"Point","coordinates":[16.1561195,46.4045851]},"properties":{"osm_type":"node","osm_id":7194880640,"category":"winery","name":"Puklavec Family Wines","tags":{"addr:city":"Ormož","addr:housenumber":"11","addr:postcode":"2270","addr:street":"Kolodvorska cesta","craft":"winery","name":"Puklavec Family Wines","operator":"Jeruzalem Ormož"}}},{"type":"Feature","id":"node/7196724524","geometry":{"type":"Point","coordinates":[15.1966585,46.0012196]},"properties":{"osm_type":"node","osm_id":7196724524,"category":"winery","name":"Hiša vina Kamenško","tags":{"craft":"winery","name":"Hiša vina Kamenško","opening_hours":"on call only"}}},{"type":"Feature","id":"node/7242496607","geometry":{"type":"Point","coordinates":[15.8695769,46.4199977]},"properties":{"osm_type":"node","osm_id":7242496607,"category":"wine_shop","name":"Vinoteka Kobal Ptuj","tags":{"addr:city":"Ptuj","addr:housenumber":"4","addr:postcode":"2250","addr:street":"Prešernova ulica","name":"Vinoteka Kobal Ptuj","shop":"wine","website":"https://www.kobalwines.si/"}}},{"type":"Feature","id":"node/7477127283","geometry":{"type":"Point","coordinates":[13.8358335,45.7540748]},"properties":{"osm_type":"node","osm_id":7477127283,"category":"wine_shop","name":"Domačija Lisjak na Krasu","tags":{"addr:city":"Dutovlje","addr:housenumber":"31","addr:postcode":"6221","name":"Domačija Lisjak na Krasu","operator":"Boris Lisjak","shop":"wine","website":"http://www.lisjak.si/"}}},{"type":"Feature","id":"node/7477166364","geometry":{"type":"Point","coordinates":[13.8111357,45.8134062]},"properties":{"osm_type":"node","osm_id":7477166364,"category":"winery","name":"Vinska klet pri Andreju - Očarjevi","tags":{"addr:city":"Štanjel","addr:housenumber":"78","addr:postcode":"6222","addr:street":"Kobjeglava","craft":"winery","name":"Vinska klet pri Andreju - Očarjevi"}}},{"type":"Feature","id":"node/7477213212","geometry":{"type":"Point","coordinates":[13.8653221,45.7895347]},"properties":{"osm_type":"node","osm_id":7477213212,"category":"winery","name":"Vinarstvo Gec","tags":{"addr:city":"Sežana","addr:housenumber":"32","addr:postcode":"6210","addr:street":"Ponikve","craft":"winery","name":"Vinarstvo Gec","operator":"Svetlana Gec","website":"http://www.kraska-kmetija.si/"}}},{"type":"Feature","id":"node/7477227306","geometry":{"type":"Point","coordinates":[13.8656194,45.7435962]},"properties":{"osm_type":"node","osm_id":7477227306,"category":"wine_shop","name":"Vinska klet Tavčar \"Pri Starčih\"","tags":{"addr:city":"Sežana","addr:housenumber":"158","addr:postcode":"6210","addr:street":"Križ","name":"Vinska klet Tavčar \"Pri Starčih\"","operator":"Milena Starc & Bogdan Tavčar","shop":"wine","website":"https://www.tavcar.si/"}}},{"type":"Feature","id":"node/7488492553","geometry":{"type":"Point","coordinates":[13.8856501,45.8387266]},"properties":{"osm_type":"node","osm_id":7488492553,"category":"wine_shop","name":"Kmetija Hedele, Vinogradništvo in vinarstvo d.o.o.","tags":{"addr:city":"Štanjel","addr:housenumber":"30","addr:postcode":"6222","addr:street":"Gaberje","name":"Kmetija Hedele, Vinogradništvo in vinarstvo d.o.o.","shop":"wine","website":"https://www.hedele.si/"}}},{"type":"Feature","id":"node/7488884102","geometry":{"type":"Point","coordinates":[13.9654599,45.8361907]},"properties":{"osm_type":"node","osm_id":7488884102,"category":"wine_shop","name":"Vinarstvo Avin","tags":{"addr:city":"Vipava","addr:housenumber":"39","addr:postcode":"5271","addr:street":"Gradišče pri Vipavi","name":"Vinarstvo Avin","shop":"wine","website":"http://www.avin.si/"}}},{"type":"Feature","id":"node/7488931279","geometry":{"type":"Point","coordinates":[13.7765308,45.9079798]},"properties":{"osm_type":"node","osm_id":7488931279,"category":"wine_shop","name":"Vina Ušaj","tags":{"addr:city":"Črniče","addr:housenumber":"56","addr:postcode":"5262","addr:street":"Črniče","email":"ussai@siol.com","name":"Vina Ušaj","operator":"Ušaj family","phone":"+386 (0)5 366 60 75","shop":"wine"}}},{"type":"Feature","id":"node/7488950455","geometry":{"type":"Point","coordinates":[13.8127413,45.8605295]},"properties":{"osm_type":"node","osm_id":7488950455,"category":"wine_shop","name":"Vina Sveti Martin","tags":{"addr:city":"Dobravlje","addr:housenumber":"121","addr:postcode":"5263","addr:street":"Brje","name":"Vina Sveti Martin","shop":"wine","website":"https://vinasvetimartin.si/"}}},{"type":"Feature","id":"node/7489015087","geometry":{"type":"Point","coordinates":[13.8973817,45.8549058]},"properties":{"osm_type":"node","osm_id":7489015087,"category":"wine_shop","name":"Vina ŠtranCar","tags":{"addr:city":"Ajdovščina","addr:housenumber":"20a","addr:postcode":"5270","addr:street":"Planina","email":"strancar.maja@gmail.com","name":"Vina ŠtranCar","phone":"+386 (0)31 308 630","shop":"wine"}}},{"type":"Feature","id":"node/7489053588","geometry":{"type":"Point","coordinates":[13.7883877,45.8555496]},"properties":{"osm_type":"node","osm_id":7489053588,"category":"wine_shop","name":"Kmetija Bizjak","tags":{"addr:city":"Branik","addr:housenumber":"169","addr:postcode":"5295","addr:street":"Branik","email":"vinabizjak@siol.com","name":"Kmetija Bizjak","phone":"+386 (0)41 850 654","shop":"wine"}}},{"type":"Feature","id":"node/7489095845","geometry":{"type":"Point","coordinates":[13.7854104,45.8721231]},"properties":{"osm_type":"node","osm_id":7489095845,"category":"wine_shop","name":"Domačija Čebron","tags":{"addr:city":"Branik","addr:housenumber":"59","addr:postcode":"5295","addr:street":"Preserje","name":"Domačija Čebron","shop":"wine","website":"https://cebron.eu/vino/"}}},{"type":"Feature","id":"node/7489110556","geometry":{"type":"Point","coordinates":[13.756416,45.9257909]},"properties":{"osm_type":"node","osm_id":7489110556,"category":"wine_shop","name":"Turistična kmetija Malovščevo","tags":{"addr:city":"Šempas","addr:housenumber":"68","addr:postcode":"5261","addr:street":"Vitovlje","name":"Turistična kmetija Malovščevo","shop":"wine","website":"http://www.malovscevo.si"}}},{"type":"Feature","id":"node/7489171051","geometry":{"type":"Point","coordinates":[13.7584033,45.9229064]},"properties":{"osm_type":"node","osm_id":7489171051,"category":"wine_shop","name":"Lepa Vida winery","tags":{"addr:city":"Šempas","addr:housenumber":"4b","addr:postcode":"5261","addr:street":"Osek","name":"Lepa Vida winery","opening_hours":"Mo-Sa 13:00-21:00","operator":"Lepa Vida winery","shop":"wine","website":"https://lepavida.wine/"}}},{"type":"Feature","id":"node/7489344920","geometry":{"type":"Point","coordinates":[13.8259439,45.8448596]},"properties":{"osm_type":"node","osm_id":7489344920,"category":"wine_shop","name":"Vinarstvo Jejčič","tags":{"addr:city":"Branik","addr:housenumber":"12","addr:postcode":"5295","addr:street":"Spodnja Branica","email":"vino.jejcic@gmail.com","name":"Vinarstvo Jejčič","phone":"+386 (0)5 305 79 11","shop":"wine"}}},{"type":"Feature","id":"node/7489366365","geometry":{"type":"Point","coordinates":[13.799509,45.8620872]},"properties":{"osm_type":"node","osm_id":7489366365,"category":"wine_shop","name":"Vinska klet Vidmar","tags":{"addr:city":"Branik","addr:housenumber":"3","addr:postcode":"5295","addr:street":"Preserje","name":"Vinska klet Vidmar","shop":"wine"}}},{"type":"Feature","id":"node/7490064937","geometry":{"type":"Point","coordinates":[13.9381399,45.8208068]},"properties":{"osm_type":"node","osm_id":7490064937,"category":"wine_shop","name":"Vino Jamšek 1887","tags":{"addr:city":"Vipava","addr:housenumber":"5","addr:postcode":"5271","addr:street":"Manče","name":"Vino Jamšek 1887","opening_hours":"Mo-Su 08:00-17:00","phone":"+386 31 624 883","shop":"wine","website":"https://jamsek1887.ecwid.com/"}}},{"type":"Feature","id":"node/7490104233","geometry":{"type":"Point","coordinates":[13.9669824,45.7913923]},"properties":{"osm_type":"node","osm_id":7490104233,"category":"wine_shop","name":"Pri Nežnih","tags":{"addr:city":"Podnanos","addr:housenumber":"22","addr:postcode":"5272","addr:street":"Orehovica","email":"svetovanje.potocnik@siol.net","name":"Pri Nežnih","phone":"+386 (0)5 366 93 70","shop":"wine"}}},{"type":"Feature","id":"node/7490115812","geometry":{"type":"Point","coordinates":[13.9485153,45.8066329]},"properties":{"osm_type":"node","osm_id":7490115812,"category":"wine_shop","name":"Posestvo Cultus","tags":{"addr:city":"Podnanos","addr:housenumber":"67","addr:postcode":"5272","addr:street":"Podraga","name":"Posestvo Cultus","name:en":"Cultus Winery","name:it":"Cultus Winery","operator":"Matej Žvanut & Carolin Hoffmann","shop":"wine","website":"http://www.cultus.si"}}},{"type":"Feature","id":"node/7490118620","geometry":{"type":"Point","coordinates":[13.937906,45.8287166]},"properties":{"osm_type":"node","osm_id":7490118620,"category":"wine_shop","name":"Vinska klet Wipach","tags":{"addr:city":"Vipava","addr:housenumber":"18b","addr:postcode":"5271","addr:street":"Lože","name":"Vinska klet Wipach","shop":"wine","website":"http://www.wipach.si/"}}},{"type":"Feature","id":"node/7490160650","geometry":{"type":"Point","coordinates":[13.9375135,45.8284436]},"properties":{"osm_type":"node","osm_id":7490160650,"category":"wine_shop","name":"Vina Benčina","tags":{"addr:city":"Vipava","addr:housenumber":"18","addr:postcode":"5271","addr:street":"Lože","email":"markobencina3@gmail.com","name":"Vina Benčina","phone":"+386 41 650 662","shop":"wine","website":"https://www.vinabencina.si/"}}},{"type":"Feature","id":"node/7490161952","geometry":{"type":"Point","coordinates":[13.9008278,45.8354389]},"properties":{"osm_type":"node","osm_id":7490161952,"category":"wine_shop","name":"Vinska klet Miška","tags":{"addr:city":"Vipava","addr:housenumber":"22","addr:postcode":"5271","addr:street":"Erzelj","email":"miska.vina@gmail.com","name":"Vinska klet Miška","phone":"+386 41 583 955","shop":"wine","website":"http://www.miskawines.com/"}}},{"type":"Feature","id":"node/7490342395","geometry":{"type":"Point","coordinates":[13.9462236,45.8616639]},"properties":{"osm_type":"node","osm_id":7490342395,"category":"wine_shop","name":"Vina Monvi","tags":{"addr:city":"Vipava","addr:housenumber":"31","addr:postcode":"5271","name":"Vina Monvi","shop":"wine","website":"https://vina-monvi.weebly.com"}}},{"type":"Feature","id":"node/7490398143","geometry":{"type":"Point","coordinates":[13.8848129,45.8372697]},"properties":{"osm_type":"node","osm_id":7490398143,"category":"wine_shop","name":"Vina Čehovin","tags":{"addr:city":"Štanjel","addr:housenumber":"92","addr:postcode":"6222","addr:street":"Gaberje","name":"Vina Čehovin","shop":"wine","website":"http://www.vina-cehovin.si"}}},{"type":"Feature","id":"node/7492048200","geometry":{"type":"Point","coordinates":[13.8361713,45.8523291]},"properties":{"osm_type":"node","osm_id":7492048200,"category":"wine_shop","name":"Kmetija Furlan","tags":{"addr:city":"Branik","addr:housenumber":"33","addr:postcode":"5295","addr:street":"Zavino","email":"vina.furlan@gmail.com","name":"Kmetija Furlan","operator":"Branko Furlan & Ivan Černic","phone":"+386 (0)41 728 587","shop":"wine"}}},{"type":"Feature","id":"node/7492075427","geometry":{"type":"Point","coordinates":[13.9075304,45.8557676]},"properties":{"osm_type":"node","osm_id":7492075427,"category":"wine_shop","name":"Vinogradništvo in vinarstvo Pipan","tags":{"addr:city":"Ajdovščina","addr:housenumber":"62","addr:postcode":"5270","addr:street":"Planina","email":"pipan.marta@siol.com","name":"Vinogradništvo in vinarstvo Pipan","shop":"wine","website":"http://www.vas-planina.si/si/pipan"}}},{"type":"Feature","id":"node/7492075443","geometry":{"type":"Point","coordinates":[13.9063515,45.8557695]},"properties":{"osm_type":"node","osm_id":7492075443,"category":"wine_shop","name":"Kletarstvo Petrič","tags":{"addr:city":"Ajdovščina","addr:housenumber":"56B","addr:postcode":"5270","addr:street":"Planina","email":"kletarstvo.petric@gmail.com","name":"Kletarstvo Petrič","shop":"wine","website":"http://www.vas-planina.si/si/petric"}}},{"type":"Feature","id":"node/7492143300","geometry":{"type":"Point","coordinates":[13.9101704,45.8529735]},"properties":{"osm_type":"node","osm_id":7492143300,"category":"wine_shop","name":"Kmetija Martin Marc","tags":{"addr:city":"Ajdovščina","addr:housenumber":"82","addr:postcode":"5270","addr:street":"Planina","email":"marc.barbara1@gmail.com","name":"Kmetija Martin Marc","shop":"wine","website":"http://www.vas-planina.si/si/martin_marc"}}},{"type":"Feature","id":"node/7492215158","geometry":{"type":"Point","coordinates":[13.8888437,45.857575]},"properties":{"osm_type":"node","osm_id":7492215158,"category":"wine_shop","name":"Posestvo Štokelj","tags":{"addr:city":"Ajdovščina","addr:housenumber":"9","addr:postcode":"5270","name":"Posestvo Štokelj","shop":"wine","website":"http://www.stokelj.si/"}}},{"type":"Feature","id":"node/7492257593","geometry":{"type":"Point","coordinates":[13.7748116,45.9110457]},"properties":{"osm_type":"node","osm_id":7492257593,"category":"wine_shop","name":"Vinska klet Kosovel","tags":{"addr:city":"Črniče","addr:housenumber":"84a","addr:postcode":"5262","addr:street":"Črniče","email":"a.kosovel@siol.net","name":"Vinska klet Kosovel","phone":"+ 386 (0)5 36 66 148","shop":"wine","website":"https://www.kosovel.eu/"}}},{"type":"Feature","id":"node/7492313367","geometry":{"type":"Point","coordinates":[13.8965596,45.8546253]},"properties":{"osm_type":"node","osm_id":7492313367,"category":"wine_shop","name":"Vinska klet Trta 1949","tags":{"addr:city":"Ajdovščina","addr:housenumber":"23","addr:postcode":"5270","addr:street":"Planina","name":"Vinska klet Trta 1949","operator":"Srečko Trbižan","shop":"wine","website":"https://www.trta-trs.com/aktualno-trta.html"}}},{"type":"Feature","id":"node/7494204310","geometry":{"type":"Point","coordinates":[13.8387122,45.9010526]},"properties":{"osm_type":"node","osm_id":7494204310,"category":"wine_shop","name":"Posestvo Svetlik","tags":{"addr:city":"Dobravlje","addr:housenumber":"42b","addr:postcode":"5263","addr:street":"Kamnje","name":"Posestvo Svetlik","operator":"Edvard Svetlik","shop":"wine"}}},{"type":"Feature","id":"node/7494354730","geometry":{"type":"Point","coordinates":[14.0022384,45.7812805]},"properties":{"osm_type":"node","osm_id":7494354730,"category":"wine_shop","name":"Anima wine","tags":{"addr:city":"Podnanos","addr:housenumber":"24e","addr:postcode":"5272","addr:street":"Lozice","name":"Anima wine","operator":"Miran Žvanut","shop":"wine","website":"https://www.anima-wine.com/"}}},{"type":"Feature","id":"node/7707457282","geometry":{"type":"Point","coordinates":[13.5329677,45.9755078]},"properties":{"osm_type":"node","osm_id":7707457282,"category":"wine_shop","name":"Benedetič","tags":{"addr:city":"Dobrovo v Brdih","addr:housenumber":"65","addr:postcode":"5212","addr:street":"Vipolže","name":"Benedetič","shop":"wine","website":"https://www.benedetic.si/"}}},{"type":"Feature","id":"node/7707501141","geometry":{"type":"Point","coordinates":[13.5555631,46.0069974]},"properties":{"osm_type":"node","osm_id":7707501141,"category":"wine_shop","name":"Domačija Kumar - PriMar","tags":{"addr:city":"Kojsko","addr:housenumber":"1a","addr:postcode":"5211","addr:street":"Šmartno","name":"Domačija Kumar - PriMar","shop":"wine","website":"http://primar-vino-en.weebly.com/"}}},{"type":"Feature","id":"node/7726552747","geometry":{"type":"Point","coordinates":[13.5353757,45.9965171]},"properties":{"osm_type":"node","osm_id":7726552747,"category":"wine_shop","name":"Vina Marko Sirk","tags":{"addr:city":"Dobrovo v Brdih","addr:housenumber":"21","addr:postcode":"5212","addr:street":"Biljana","email":"vina.marko.sirk@gmail.com","name":"Vina Marko Sirk","opening_hours":"Mo-Sa 08:00-18:00","operator":"Marko Sirk","shop":"wine"}}},{"type":"Feature","id":"node/7778204785","geometry":{"type":"Point","coordinates":[16.1878904,46.4763955]},"properties":{"osm_type":"node","osm_id":7778204785,"category":"wine_shop","name":"Vinothek Jeruzalem","tags":{"name":"Vinothek Jeruzalem","shop":"wine"}}},{"type":"Feature","id":"node/7942847785","geometry":{"type":"Point","coordinates":[15.6464962,46.561499]},"properties":{"osm_type":"node","osm_id":7942847785,"category":"wine_shop","name":"POLEK","tags":{"name":"POLEK","shop":"wine"}}},{"type":"Feature","id":"node/8684988540","geometry":{"type":"Point","coordinates":[13.7459525,45.5865865]},"properties":{"osm_type":"node","osm_id":8684988540,"category":"wine_shop","name":"Gordia","tags":{"addr:city":"Ankaran - Ancarano","addr:housenumber":"13b","addr:postcode":"6280","addr:street":"Kolomban / Colombano","name":"Gordia","operator":"Andrej Cep","shop":"wine","website":"http://www.gordia.si"}}},{"type":"Feature","id":"node/8685202077","geometry":{"type":"Point","coordinates":[15.6399091,46.4671145]},"properties":{"osm_type":"node","osm_id":8685202077,"category":"wine_shop","name":"M - enostavno dobra vina","tags":{"addr:city":"Radizel","addr:housenumber":"70","addr:postcode":"2312","addr:street":"Vinogradniška cesta","name":"M - enostavno dobra vina","shop":"wine","website":"https://m-vina.si/"}}},{"type":"Feature","id":"node/8685484571","geometry":{"type":"Point","coordinates":[16.162078,46.4102304]},"properties":{"osm_type":"node","osm_id":8685484571,"category":"wine_shop","name":"Verus Vinogradi d.o.o.","tags":{"addr:city":"Ormož","addr:housenumber":"36","addr:postcode":"2270","addr:street":"Ljutomerska cesta","name":"Verus Vinogradi d.o.o.","shop":"wine","website":"https://www.verusvino.com"}}},{"type":"Feature","id":"node/8685514677","geometry":{"type":"Point","coordinates":[15.4770805,46.3015357]},"properties":{"osm_type":"node","osm_id":8685514677,"category":"wine_shop","name":"MEUM winery","tags":{"addr:city":"Loče","addr:housenumber":"16","addr:postcode":"3215","addr:street":"Klokočovnik","name":"MEUM winery","shop":"wine","website":"https://www.meumwinery.si/"}}},{"type":"Feature","id":"node/8686485009","geometry":{"type":"Point","coordinates":[15.2561764,45.9649287]},"properties":{"osm_type":"node","osm_id":8686485009,"category":"wine_shop","name":"Domaine Slapšak","tags":{"addr:city":"Tržišče","addr:housenumber":"5a","addr:postcode":"8295","addr:street":"Telče","name":"Domaine Slapšak","operator":"DS Penina d.o.o.","shop":"wine","website":"https://www.domaine-slapsak.com"}}},{"type":"Feature","id":"node/9162005683","geometry":{"type":"Point","coordinates":[13.8620295,45.880777]},"properties":{"osm_type":"node","osm_id":9162005683,"category":"wine_shop","name":"Darovi Vipavske, Wine bar and local shop","tags":{"addr:city":"Ajdovščina","addr:housenumber":"8","addr:postcode":"5270","amenity":"bar","name":"Darovi Vipavske, Wine bar and local shop","shop":"wine","tourism":"information"}}},{"type":"Feature","id":"node/9441813753","geometry":{"type":"Point","coordinates":[13.8029115,45.5096518]},"properties":{"osm_type":"node","osm_id":9441813753,"category":"wine_shop","name":"Vinska klet Vilij Bržan","tags":{"addr:city":"Marezige","addr:housenumber":"76","addr:postcode":"6273","addr:street":"Marezige","name":"Vinska klet Vilij Bržan","name:de":"Weinbau Vilij Bržan","operator":"Vilij Bržan","phone":"+38631480905","shop":"wine","website":"https://www.vilijbrzan.si"}}},{"type":"Feature","id":"node/9514523544","geometry":{"type":"Point","coordinates":[13.8129562,45.493052]},"properties":{"osm_type":"node","osm_id":9514523544,"category":"wine_shop","name":"Posestvo Polič","tags":{"addr:city":"Koper","addr:housenumber":"40","addr:postcode":"6273","addr:street":"Truške","name":"Posestvo Polič","name:en":"Polic Estate","name:it":"Podere Polič","shop":"wine","website":"https://www.polic.si/"}}},{"type":"Feature","id":"node/9573832612","geometry":{"type":"Point","coordinates":[13.4831762,46.0096695]},"properties":{"osm_type":"node","osm_id":9573832612,"category":"wine_shop","name":"Nebo Winery","tags":{"addr:city":"Brda","addr:housenumber":"17","addr:postcode":"5212","addr:street":"Neblo","name":"Nebo Winery","shop":"wine","website":"http://www.nebowinery.com/"}}},{"type":"Feature","id":"node/9890513253","geometry":{"type":"Point","coordinates":[15.9738037,46.4927019]},"properties":{"osm_type":"node","osm_id":9890513253,"category":"winery","name":"Herbersteinova klet","tags":{"addr:city":"Juršinci","addr:housenumber":"24","addr:postcode":"2256","addr:street":"Juršinci","craft":"winery","email":"info@herbersteinova-klet.si","name":"Herbersteinova klet","operator":"Vinogradništvo in kletarstvo Kaučič-Božič","phone":"+386 (0) 31 614 802","website":"https://herbersteinova-klet.si/"}}},{"type":"Feature","id":"node/9890513254","geometry":{"type":"Point","coordinates":[15.9734601,46.4927839]},"properties":{"osm_type":"node","osm_id":9890513254,"category":"winery","name":"Vinarstvo Šoštarič","tags":{"addr:city":"Juršinci","addr:housenumber":"24C","addr:postcode":"2256","addr:street":"Juršinci","craft":"winery","email":"milan@vinarstvosostaric.si","name":"Vinarstvo Šoštarič","operator":"Milan Šoštarič","phone":"+386 41 783 704","website":"https://vinarstvosostaric.si/"}}},{"type":"Feature","id":"node/9994462381","geometry":{"type":"Point","coordinates":[15.5851139,46.6572721]},"properties":{"osm_type":"node","osm_id":9994462381,"category":"wine_shop","name":"Opok27","tags":{"image":"https://opok27.b-cdn.net/wp-content/uploads/2022/07/Untitled.jpg","name":"Opok27","opening_hours":"Tu-Su 10:00-16:00","phone":"+386 31 249 985","shop":"wine"}}},{"type":"Feature","id":"node/10047334043","geometry":{"type":"Point","coordinates":[14.506077,46.048408]},"properties":{"osm_type":"node","osm_id":10047334043,"category":"wine_shop","name":"Vineria del Ponte","tags":{"name":"Vineria del Ponte","shop":"wine"}}},{"type":"Feature","id":"node/10106834877","geometry":{"type":"Point","coordinates":[13.5349523,45.9971146]},"properties":{"osm_type":"node","osm_id":10106834877,"category":"wine_shop","name":"Vina Anže","tags":{"addr:city":"Dobrovo v Brdih","addr:housenumber":"7","addr:postcode":"5212","addr:street":"Biljana","email":"anze.ivancic@gmail.com","name":"Vina Anže","operator":"Ivančič Anže","phone":"00386-31798215","shop":"wine"}}},{"type":"Feature","id":"node/10106957233","geometry":{"type":"Point","coordinates":[15.7408814,46.6442097]},"properties":{"osm_type":"node","osm_id":10106957233,"category":"wine_shop","name":"Kmetija Šumenjak","tags":{"addr:city":"Jakobski Dol","addr:postcode":"2222","addr:street":"Spodnje Hlapje","name":"Kmetija Šumenjak","shop":"wine","website":"https://www.sumenjak.si/"}}},{"type":"Feature","id":"node/10107005361","geometry":{"type":"Point","coordinates":[13.6974614,45.5180866]},"properties":{"osm_type":"node","osm_id":10107005361,"category":"wine_shop","name":"Vina Rojac","tags":{"addr:city":"Šmarje","addr:housenumber":"63a","addr:postcode":"6274","addr:street":"Gažon","name":"Vina Rojac","phone":"+386 41 794 770","shop":"wine","website":"https://www.rojac.eu/"}}},{"type":"Feature","id":"node/10555140851","geometry":{"type":"Point","coordinates":[15.6834246,45.9971042]},"properties":{"osm_type":"node","osm_id":10555140851,"category":"winery","name":"Klet Graben","tags":{"craft":"winery","name":"Klet Graben"}}},{"type":"Feature","id":"node/10555140882","geometry":{"type":"Point","coordinates":[15.6818622,45.9949026]},"properties":{"osm_type":"node","osm_id":10555140882,"category":"winery","name":"Vinska klet v pesku - Repnica","tags":{"craft":"winery","name":"Vinska klet v pesku - Repnica","operator":"Repnice in ribniki Kelher","phone":"031-862-115"}}},{"type":"Feature","id":"node/10982387212","geometry":{"type":"Point","coordinates":[14.1744776,46.3413619]},"properties":{"osm_type":"node","osm_id":10982387212,"category":"wine_shop","name":"Vinoteka Sodček","tags":{"name":"Vinoteka Sodček","operator":"Aleš Čebašek s.p.","shop":"wine","wheelchair":"limited"}}},{"type":"Feature","id":"node/11056099301","geometry":{"type":"Point","coordinates":[15.2558617,45.4595568]},"properties":{"osm_type":"node","osm_id":11056099301,"category":"winery","name":"Vinoteka Grad","tags":{"craft":"winery","name":"Vinoteka Grad","operator":"Grad"}}},{"type":"Feature","id":"node/11132378605","geometry":{"type":"Point","coordinates":[13.5780301,46.2479027]},"properties":{"osm_type":"node","osm_id":11132378605,"category":"wine_shop","name":"DrinkSloWine","tags":{"name":"DrinkSloWine","shop":"wine"}}},{"type":"Feature","id":"node/11451898964","geometry":{"type":"Point","coordinates":[15.3827001,45.8343764]},"properties":{"osm_type":"node","osm_id":11451898964,"category":"wine_shop","name":"Arret Wines","tags":{"addr:city":"Šentjernej","addr:housenumber":"48","addr:postcode":"8310","addr:street":"Brezje pri Šentjerneju","name":"Arret Wines","phone":"+386 31 226 820","shop":"wine","website":"https://arret.si"}}},{"type":"Feature","id":"node/11578280943","geometry":{"type":"Point","coordinates":[13.8415913,45.7537805]},"properties":{"osm_type":"node","osm_id":11578280943,"category":"winery","name":"Vinarstvo Domjo","tags":{"craft":"winery","name":"Vinarstvo Domjo"}}},{"type":"Feature","id":"node/11635709671","geometry":{"type":"Point","coordinates":[15.8738335,46.4197399]},"properties":{"osm_type":"node","osm_id":11635709671,"category":"wine_shop","name":"Pullus vinoteka","tags":{"addr:city":"Ptuj","addr:housenumber":"11","addr:postcode":"2250","email":"info@ptujska-klet.si","name":"Pullus vinoteka","operator":"Ptujska klet vinarstvo d.o.o.","phone":"+386 2 78 79 810","shop":"wine","website":"https://pullus-shop.com/"}}},{"type":"Feature","id":"node/11662568423","geometry":{"type":"Point","coordinates":[15.8680229,46.4211203]},"properties":{"osm_type":"node","osm_id":11662568423,"category":"wine_cellar","name":"Grajska vinska klet","tags":{"addr:city":"Ptuj","addr:housenumber":"1","addr:postcode":"2250","addr:street":"Na gradu","email":"info@kastali.si","name":"Grajska vinska klet","operator":"Zgodovinsko društvo Kastali","phone":"+386 41 684 910","tourism":"wine_cellar","website":"https://kastali.si/vinske-pokusine/"}}},{"type":"Feature","id":"node/11673281711","geometry":{"type":"Point","coordinates":[15.8628153,46.4573626]},"properties":{"osm_type":"node","osm_id":11673281711,"category":"winery","name":"Vinogradništvo Rebernišek","tags":{"addr:city":"Ptuj","addr:housenumber":"42B","addr:postcode":"2250","addr:street":"Mestni Vrh","craft":"winery","email":"andrej.rebernisek@kgz-ptuj.si","name":"Vinogradništvo Rebernišek","operator":"Andrej Rebernišek","phone":"+386 31 688 841"}}},{"type":"Feature","id":"node/11701111372","geometry":{"type":"Point","coordinates":[14.3093066,45.9786581]},"properties":{"osm_type":"node","osm_id":11701111372,"category":"wine_shop","name":"Vidrih","tags":{"addr:housenumber":"1a","addr:street":"Sinja Gorica","name":"Vidrih","name:sl":"Vinska klet \"Vidrih\"","opening_hours":"Mo-Tu 13:00-18:00; We-Fr 09:00-12:30,13:30-18:00; Sa 08:00-13:00; Su off","phone":"+386 5-368-70-50;+386 41-901-601","shop":"wine","website":"https://www.vinskakletvidrih.si/"}}},{"type":"Feature","id":"node/11801385253","geometry":{"type":"Point","coordinates":[13.8576263,45.5715748]},"properties":{"osm_type":"node","osm_id":11801385253,"category":"winery","name":"Šuber","tags":{"addr:housenumber":"17,18","craft":"winery","name":"Šuber","shop":"alcohol"}}},{"type":"Feature","id":"node/11934179530","geometry":{"type":"Point","coordinates":[13.8409531,45.756476]},"properties":{"osm_type":"node","osm_id":11934179530,"category":"wine_shop","name":"Vinska klet Širca Kodrič","tags":{"addr:city":"Dutovlje","addr:housenumber":"1b","addr:postcode":"6221","addr:street":"Dutovlje","email":"sirca.kodric@gmail.com","name":"Vinska klet Širca Kodrič","phone":"+386 31 808 329","shop":"wine","website":"https://sirca-kodric.si/"}}},{"type":"Feature","id":"node/11934195771","geometry":{"type":"Point","coordinates":[13.8645682,45.7435934]},"properties":{"osm_type":"node","osm_id":11934195771,"category":"wine_shop","name":"Vinogradništvo in vinarstvo Pipan","tags":{"addr:city":"Sežana","addr:housenumber":"159","addr:postcode":"6210","email":"vinapipan@gmail.com","name":"Vinogradništvo in vinarstvo Pipan","phone":"+386 40 506 435","shop":"wine"}}},{"type":"Feature","id":"node/11934198150","geometry":{"type":"Point","coordinates":[13.8542219,45.7542563]},"properties":{"osm_type":"node","osm_id":11934198150,"category":"wine_shop","name":"Vinarstvo Starc","tags":{"email":"bogomil.starc@gmail.com","name":"Vinarstvo Starc","shop":"wine"}}},{"type":"Feature","id":"node/11934204572","geometry":{"type":"Point","coordinates":[13.8510293,45.7548596]},"properties":{"osm_type":"node","osm_id":11934204572,"category":"wine_shop","name":"Domačija Pr' Cenetovih (Vina Štolfa)","tags":{"email":"ales.stolfa@gmail.com","name":"Domačija Pr' Cenetovih (Vina Štolfa)","phone":"+386 31 307 274","shop":"wine"}}},{"type":"Feature","id":"node/12063185669","geometry":{"type":"Point","coordinates":[14.1069484,46.3700368]},"properties":{"osm_type":"node","osm_id":12063185669,"category":"wine_shop","name":"vinoteka","tags":{"name":"vinoteka","shop":"wine"}}},{"type":"Feature","id":"node/12122879622","geometry":{"type":"Point","coordinates":[13.6487449,45.8954048]},"properties":{"osm_type":"node","osm_id":12122879622,"category":"wine_shop","name":"Vina Guštin","tags":{"addr:city":"Renče","addr:housenumber":"124","addr:postcode":"5292","addr:street":"Bilje","name":"Vina Guštin","phone":"+386 51 626 777","shop":"wine","website":"https://vinagustin.si"}}},{"type":"Feature","id":"node/12146110718","geometry":{"type":"Point","coordinates":[13.952829,45.8732492]},"properties":{"osm_type":"node","osm_id":12146110718,"category":"winery","name":"Vina Kodele","tags":{"craft":"winery","name":"Vina Kodele","phone":"+386 41 444 248","website":"https://vinakodele.si"}}},{"type":"Feature","id":"node/12201911702","geometry":{"type":"Point","coordinates":[15.4464989,45.976235]},"properties":{"osm_type":"node","osm_id":12201911702,"category":"winery","name":"Hiša frankinje","tags":{"addr:postcode":"8270","craft":"winery","name":"Hiša frankinje","website":"https://vina-kerin.si/"}}},{"type":"Feature","id":"node/12278146667","geometry":{"type":"Point","coordinates":[16.0351601,46.6197021]},"properties":{"osm_type":"node","osm_id":12278146667,"category":"wine_shop","name":"Vinska fontana Kapela","tags":{"addr:city":"Radenci","addr:housenumber":"91","addr:postcode":"9252","addr:street":"Kapelski Vrh","email":"vinskafontanakapela@gmail.com","name":"Vinska fontana Kapela","phone":"+386 51 328 611","shop":"wine"}}},{"type":"Feature","id":"node/12285843616","geometry":{"type":"Point","coordinates":[14.4116888,46.0233926]},"properties":{"osm_type":"node","osm_id":12285843616,"category":"wine_shop","name":"Koželj Wines Brezovica","tags":{"name":"Koželj Wines Brezovica","shop":"wine"}}},{"type":"Feature","id":"node/12389743028","geometry":{"type":"Point","coordinates":[15.4223017,46.3459875]},"properties":{"osm_type":"node","osm_id":12389743028,"category":"winery","name":"Zlati Grič","tags":{"craft":"winery","name":"Zlati Grič","opening_hours":"Mo-Fr 09:00-16:00; Sa 09:00-13:00","phone":"+38637580376","website":"http://www.zlati-gric.si/"}}},{"type":"Feature","id":"node/12444582245","geometry":{"type":"Point","coordinates":[15.3174327,45.6515348]},"properties":{"osm_type":"node","osm_id":12444582245,"category":"wine_shop","name":"Grajska klet Lidija Šturm s.p.","tags":{"addr:city":"Metlika","addr:housenumber":"4","addr:postcode":"8330","addr:street":"Trg svobode","name":"Grajska klet Lidija Šturm s.p.","shop":"wine"}}},{"type":"Feature","id":"node/12450646001","geometry":{"type":"Point","coordinates":[15.6604694,46.6752307]},"properties":{"osm_type":"node","osm_id":12450646001,"category":"winery","name":"Stara klet Lilek","tags":{"addr:postcode":"2212","craft":"winery","name":"Stara klet Lilek","phone":"+386 40 810 173"}}},{"type":"Feature","id":"node/12512500321","geometry":{"type":"Point","coordinates":[14.5114665,46.0528743]},"properties":{"osm_type":"node","osm_id":12512500321,"category":"wine_shop","name":"Klet Vica","tags":{"name":"Klet Vica","opening_hours":"Mo-Tu off; We,Su 15:00-22:00; Th-Sa 15:00-24:00","shop":"wine"}}},{"type":"Feature","id":"node/12588068440","geometry":{"type":"Point","coordinates":[13.8319129,45.7547844]},"properties":{"osm_type":"node","osm_id":12588068440,"category":"winery","name":"Tran Vovk","tags":{"craft":"winery","name":"Tran Vovk"}}},{"type":"Feature","id":"node/12588099657","geometry":{"type":"Point","coordinates":[13.8318252,45.7548024]},"properties":{"osm_type":"node","osm_id":12588099657,"category":"wine_shop","name":"Tran Vovk","tags":{"name":"Tran Vovk","opening_hours":"Mo-Su 07:00-21:00","shop":"wine"}}},{"type":"Feature","id":"node/12588126539","geometry":{"type":"Point","coordinates":[13.8292397,45.7553438]},"properties":{"osm_type":"node","osm_id":12588126539,"category":"winery","name":"Vinarstvo ŠUC","tags":{"craft":"winery","name":"Vinarstvo ŠUC","opening_hours":"Mo-Su 08:30-19:30"}}},{"type":"Feature","id":"node/12588127457","geometry":{"type":"Point","coordinates":[13.8357498,45.7540877]},"properties":{"osm_type":"node","osm_id":12588127457,"category":"winery","name":"Domačija Lisjak","tags":{"craft":"winery","name":"Domačija Lisjak"}}},{"type":"Feature","id":"node/12588127654","geometry":{"type":"Point","coordinates":[13.8504041,45.7560807]},"properties":{"osm_type":"node","osm_id":12588127654,"category":"winery","name":"Skerlj Wine Estate","tags":{"craft":"winery","name":"Skerlj Wine Estate"}}},{"type":"Feature","id":"node/12588139568","geometry":{"type":"Point","coordinates":[13.8299706,45.7553268]},"properties":{"osm_type":"node","osm_id":12588139568,"category":"winery","name":"Vinogradništvo, KMETIJA REŠKIČEVI","tags":{"craft":"winery","name":"Vinogradništvo, KMETIJA REŠKIČEVI"}}},{"type":"Feature","id":"node/12592651701","geometry":{"type":"Point","coordinates":[15.9880933,46.681131]},"properties":{"osm_type":"node","osm_id":12592651701,"category":"wine_shop","name":"Radgonske gorice d.o.o.","tags":{"addr:housenumber":"5","addr:postcode":"9250","addr:street":"Jurkovičeva ulica","name":"Radgonske gorice d.o.o.","opening_hours":"Mo-Sa 09:00-18:00; PH off","phone":"+386 2 564 8510","shop":"wine","website":"https://radgonske-gorice.si/"}}},{"type":"Feature","id":"node/12853017992","geometry":{"type":"Point","coordinates":[13.9632927,45.8451452]},"properties":{"osm_type":"node","osm_id":12853017992,"category":"wine_shop","name":"Lanthierijev hram","tags":{"name":"Lanthierijev hram","operator":"TIC Vipava","shop":"wine"}}},{"type":"Feature","id":"node/12961371749","geometry":{"type":"Point","coordinates":[13.5552844,46.0050673]},"properties":{"osm_type":"node","osm_id":12961371749,"category":"wine_shop","name":"Vinoteka Brda","tags":{"addr:housenumber":"26","addr:street":"Šmartno","email":"info@vinotekabrda.si","name":"Vinoteka Brda","phone":"+386 31342369","shop":"wine","website":"https://www.vinotekabrda.si/"}}},{"type":"Feature","id":"node/13256761619","geometry":{"type":"Point","coordinates":[14.1003863,46.3698876]},"properties":{"osm_type":"node","osm_id":13256761619,"category":"wine_shop","name":"Vinska klet","tags":{"addr:city":"Bled","addr:street":"Grajska cesta","name":"Vinska klet","shop":"wine"}}},{"type":"Feature","id":"way/121105900","geometry":{"type":"Point","coordinates":[14.3879134,46.2113489]},"properties":{"osm_type":"way","osm_id":121105900,"category":"wine_shop","name":"Malva trgovina in storitve","tags":{"addr:city":"Mavčiče","addr:housenumber":"11","addr:postcode":"4211","addr:street":"Breg ob Savi","building":"yes","name":"Malva trgovina in storitve","official_name":"Malva d.o.o.","opening_hours":"Mo-Fr 09:00-15:00","operator":"Malva d.o.o.","phone":"+38630457132","shop":"wine","start_date":"2021-12-01","website":"https://malva.si"}}},{"type":"Feature","id":"way/128384427","geometry":{"type":"Point","coordinates":[13.5224752,45.9984905]},"properties":{"osm_type":"way","osm_id":128384427,"category":"wine_cellar","name":"Vinska klet Goriška Brda","tags":{"addr:city":"Dobrovo v Brdih","addr:housenumber":"9","addr:postcode":"5212","addr:street":"Zadružna cesta","building":"yes","name":"Vinska klet Goriška Brda","name:it":"Cantina vinicola Goriška Brda","tourism":"wine_cellar"}}},{"type":"Feature","id":"way/143852929","geometry":{"type":"Point","coordinates":[13.9333419,45.8492502]},"properties":{"osm_type":"way","osm_id":143852929,"category":"winery","name":"Vinska klet Rouna","tags":{"addr:city":"Vipava","addr:housenumber":"15","addr:postcode":"5271","addr:street":"Slap","building":"yes","craft":"winery","email":"vinarstvo.rovna@gmail.com","image":"http://www.vina-rouna.si/foto/Rouna-Pavlo-Zorz.jpg","name":"Vinska klet Rouna","phone":"+386 5 3645783","shop":"alcohol","website":"https://vina-rouna.si/"}}},{"type":"Feature","id":"way/167053157","geometry":{"type":"Point","coordinates":[15.6067374,46.687358]},"properties":{"osm_type":"way","osm_id":167053157,"category":"vineyard","name":"Ciringa","tags":{"landuse":"vineyard","name":"Ciringa","operator":"Weingut Tement"}}},{"type":"Feature","id":"way/172265907","geometry":{"type":"Point","coordinates":[13.5210363,45.9846867]},"properties":{"osm_type":"way","osm_id":172265907,"category":"wine_cellar","name":"Ošterija Klinec","tags":{"addr:city":"Dobrovo v Brdih","addr:housenumber":"20","addr:postcode":"5212","addr:street":"Medana","amenity":"restaurant","building":"yes","cuisine":"regional","email":"klinec@klinec.si","name":"Ošterija Klinec","tourism":"wine_cellar","website":"http://www.klinec.si"}}},{"type":"Feature","id":"way/189496215","geometry":{"type":"Point","coordinates":[15.5502803,46.6683016]},"properties":{"osm_type":"way","osm_id":189496215,"category":"winery","name":"Vina Šerbinek","tags":{"addr:city":"Zgornja Kungota","addr:housenumber":"19","addr:postcode":"2201","addr:street":"Špičnik","building":"yes","craft":"winery","email":"info@vina-serbinek.si","name":"Vina Šerbinek","phone":"+386 2 65 64 901","website":"https://www.vina-serbinek.si/en/wine-from-the-heart/"}}},{"type":"Feature","id":"way/220093642","geometry":{"type":"Point","coordinates":[15.607321,46.5718307]},"properties":{"osm_type":"way","osm_id":220093642,"category":"wine_cellar","name":"Ravnjak","tags":{"addr:city":"Kamnica","addr:housenumber":"59","addr:postcode":"2351","addr:street":"Pod vinogradi","building":"yes","name":"Ravnjak","tourism":"wine_cellar"}}},{"type":"Feature","id":"way/230372371","geometry":{"type":"Point","coordinates":[13.6556261,45.9579611]},"properties":{"osm_type":"way","osm_id":230372371,"category":"wine_shop","name":"Trgovina Vipavka","tags":{"addr:housenumber":"1","addr:postcode":"5000","addr:street":"Kromberška cesta","building":"yes","name":"Trgovina Vipavka","opening_hours":"Mo-Fr 08:00-16:00; Sa 08:00-12:00","shop":"wine"}}},{"type":"Feature","id":"way/332172165","geometry":{"type":"Point","coordinates":[15.5886695,46.5486589]},"properties":{"osm_type":"way","osm_id":332172165,"category":"winery","name":"Hiša Somian","tags":{"addr:city":"Limbuš","addr:housenumber":"4","addr:postcode":"2341","addr:street":"Hrastje","building":"yes","craft":"winery","name":"Hiša Somian"}}},{"type":"Feature","id":"way/333872938","geometry":{"type":"Point","coordinates":[16.3381326,46.5730072]},"properties":{"osm_type":"way","osm_id":333872938,"category":"vineyard","name":"Trta","tags":{"landuse":"vineyard","name":"Trta"}}},{"type":"Feature","id":"way/338136285","geometry":{"type":"Point","coordinates":[13.9294278,45.8421812]},"properties":{"osm_type":"way","osm_id":338136285,"category":"wine_shop","name":"Majerija","wikidata":"Q112018714","tags":{"addr:city":"Vipava","addr:housenumber":"18","addr:postcode":"5271","addr:street":"Slap","amenity":"restaurant","building":"yes","cuisine":"regional","name":"Majerija","name:it":"Casale Majerija","name:sl":"Izletniška kmetija Majerija","opening_hours":"Th-Sa 12:00-15:00,18:00-22:00; Su 12:00-17:00","phone":"+386 5 3685010","shop":"wine","tourism":"guest_house","website":"https://www.majerija.si/","wikidata":"Q112018714"}}},{"type":"Feature","id":"way/352375381","geometry":{"type":"Point","coordinates":[13.5324902,45.9735861]},"properties":{"osm_type":"way","osm_id":352375381,"category":"vineyard","name":"Mulit - Chardonnay","tags":{"landuse":"vineyard","name":"Mulit - Chardonnay"}}},{"type":"Feature","id":"way/352375895","geometry":{"type":"Point","coordinates":[13.5325411,45.9734911]},"properties":{"osm_type":"way","osm_id":352375895,"category":"vineyard","name":"Mulit - Viogner","tags":{"landuse":"vineyard","name":"Mulit - Viogner"}}},{"type":"Feature","id":"way/352376672","geometry":{"type":"Point","coordinates":[13.5326309,45.9733363]},"properties":{"osm_type":"way","osm_id":352376672,"category":"vineyard","name":"Mulit - Sauvignon","tags":{"landuse":"vineyard","name":"Mulit - Sauvignon"}}},{"type":"Feature","id":"way/352376854","geometry":{"type":"Point","coordinates":[13.5327141,45.9732072]},"properties":{"osm_type":"way","osm_id":352376854,"category":"vineyard","name":"Mulit - Chardonnay","tags":{"landuse":"vineyard","name":"Mulit - Chardonnay"}}},{"type":"Feature","id":"way/353478027","geometry":{"type":"Point","coordinates":[13.8054341,45.509527]},"properties":{"osm_type":"way","osm_id":353478027,"category":"vineyard","name":"Hrib","tags":{"landuse":"vineyard","name":"Hrib","name:en":"Hill","operator":"Vinska klet Vilij Bržan"}}},{"type":"Feature","id":"way/353478521","geometry":{"type":"Point","coordinates":[13.8037524,45.5066751]},"properties":{"osm_type":"way","osm_id":353478521,"category":"vineyard","name":"Lunčavoc","tags":{"grape_variety":"refošk","landuse":"vineyard","name":"Lunčavoc","operator":"Vinska klet Vilij Bržan"}}},{"type":"Feature","id":"way/353481320","geometry":{"type":"Point","coordinates":[13.8094868,45.5072163]},"properties":{"osm_type":"way","osm_id":353481320,"category":"vineyard","name":"Pr Lagato","tags":{"grape_variety":"refošk","landuse":"vineyard","name":"Pr Lagato","operator":"Vinska klet Vilij Bržan"}}},{"type":"Feature","id":"way/355292189","geometry":{"type":"Point","coordinates":[13.5327426,45.9731067]},"properties":{"osm_type":"way","osm_id":355292189,"category":"vineyard","name":"Mulit - Rebula & Pika","tags":{"landuse":"vineyard","name":"Mulit - Rebula & Pika","website":"https://www.mulit.si/"}}},{"type":"Feature","id":"way/355558988","geometry":{"type":"Point","coordinates":[16.0007638,46.6655304]},"properties":{"osm_type":"way","osm_id":355558988,"category":"winery","name":"Omega","tags":{"addr:city":"Gornja Radgona","addr:housenumber":"41","addr:postcode":"9250","addr:street":"Ljutomerska cesta","building":"yes","craft":"winery","name":"Omega"}}},{"type":"Feature","id":"way/358469029","geometry":{"type":"Point","coordinates":[13.5327578,45.9730495]},"properties":{"osm_type":"way","osm_id":358469029,"category":"vineyard","name":"Mulit - Shiraz","tags":{"landuse":"vineyard","name":"Mulit - Shiraz","website":"https://www.mulit.si/"}}},{"type":"Feature","id":"way/358469056","geometry":{"type":"Point","coordinates":[13.5335382,45.9731125]},"properties":{"osm_type":"way","osm_id":358469056,"category":"vineyard","name":"Mulit","tags":{"landuse":"vineyard","name":"Mulit","website":"https://www.mulit.si/"}}},{"type":"Feature","id":"way/358469058","geometry":{"type":"Point","coordinates":[13.5332143,45.9729325]},"properties":{"osm_type":"way","osm_id":358469058,"category":"vineyard","name":"Mulit - Cabernet Sauvignon","tags":{"landuse":"vineyard","name":"Mulit - Cabernet Sauvignon","website":"https://www.mulit.si/"}}},{"type":"Feature","id":"way/358469133","geometry":{"type":"Point","coordinates":[13.5331064,45.9727056]},"properties":{"osm_type":"way","osm_id":358469133,"category":"vineyard","name":"Mulit - Merlot","tags":{"landuse":"vineyard","name":"Mulit - Merlot","website":"https://www.mulit.si/"}}},{"type":"Feature","id":"way/370451653","geometry":{"type":"Point","coordinates":[13.9240299,45.8221671]},"properties":{"osm_type":"way","osm_id":370451653,"category":"wine_shop","name":"Vina Kodre","tags":{"addr:city":"Vipava","addr:housenumber":"41","addr:postcode":"5271","addr:street":"Goče","building":"yes","name":"Vina Kodre","name:en":"Kodre wines","phone":"+386 40 382 838","shop":"wine","website":"https://www.kodre.eu/"}}},{"type":"Feature","id":"way/370525398","geometry":{"type":"Point","coordinates":[13.9232652,45.8201514]},"properties":{"osm_type":"way","osm_id":370525398,"category":"wine_shop","name":"Vinska klet Ferjančič","tags":{"building":"yes","name":"Vinska klet Ferjančič","phone":"+386 31 569 741;386 41 577 732","shop":"wine","website":"https://vinarstvo-ferjancic.si/"}}},{"type":"Feature","id":"way/377821311","geometry":{"type":"Point","coordinates":[16.0049552,46.7773163]},"properties":{"osm_type":"way","osm_id":377821311,"category":"winery","name":"Vina Gjerkeš","tags":{"building":"hotel","craft":"winery","name":"Vina Gjerkeš","operator":"Leon Gjerkeš","phone":"+38625588620","website":"http://www.vina-gjerkes.com"}}},{"type":"Feature","id":"way/393001976","geometry":{"type":"Point","coordinates":[15.9255992,46.6766191]},"properties":{"osm_type":"way","osm_id":393001976,"category":"winery","tags":{"building":"yes","craft":"winery","email":"steyer.vina@siol.net","phone":"+386 2 569 14 66","website":"http://www.steyer.si/index.php"}}},{"type":"Feature","id":"way/393025619","geometry":{"type":"Point","coordinates":[15.9634992,46.6741676]},"properties":{"osm_type":"way","osm_id":393025619,"category":"winery","name":"Hiša penin Frangež","tags":{"addr:city":"Gornja Radgona","addr:housenumber":"41a","addr:postcode":"9250","addr:street":"Hercegovščak","building":"yes","craft":"winery","email":"info@f-p.si","name":"Hiša penin Frangež"}}},{"type":"Feature","id":"way/395737605","geometry":{"type":"Point","coordinates":[15.6088362,46.6864594]},"properties":{"osm_type":"way","osm_id":395737605,"category":"vineyard","name":"WG Tement","tags":{"landuse":"vineyard","name":"WG Tement"}}},{"type":"Feature","id":"way/395738607","geometry":{"type":"Point","coordinates":[15.598604,46.6876908]},"properties":{"osm_type":"way","osm_id":395738607,"category":"vineyard","name":"Ciringa","tags":{"landuse":"vineyard","name":"Ciringa","operator":"Weingut Tement"}}},{"type":"Feature","id":"way/395739410","geometry":{"type":"Point","coordinates":[15.5953878,46.6833869]},"properties":{"osm_type":"way","osm_id":395739410,"category":"vineyard","name":"WG Tement","tags":{"landuse":"vineyard","name":"WG Tement"}}},{"type":"Feature","id":"way/395739411","geometry":{"type":"Point","coordinates":[15.5966216,46.6833096]},"properties":{"osm_type":"way","osm_id":395739411,"category":"vineyard","name":"Ciringa","tags":{"landuse":"vineyard","name":"Ciringa","operator":"Weingut Tement"}}},{"type":"Feature","id":"way/395740080","geometry":{"type":"Point","coordinates":[15.5991823,46.6824802]},"properties":{"osm_type":"way","osm_id":395740080,"category":"vineyard","name":"Ciringa","tags":{"landuse":"vineyard","name":"Ciringa","operator":"Weingut Tement"}}},{"type":"Feature","id":"way/395740600","geometry":{"type":"Point","coordinates":[15.5948301,46.6809363]},"properties":{"osm_type":"way","osm_id":395740600,"category":"vineyard","name":"Ciringa","tags":{"landuse":"vineyard","name":"Ciringa","operator":"Weingut Tement"}}},{"type":"Feature","id":"way/395740601","geometry":{"type":"Point","coordinates":[15.5938618,46.6822849]},"properties":{"osm_type":"way","osm_id":395740601,"category":"vineyard","name":"WG Tement","tags":{"landuse":"vineyard","name":"WG Tement"}}},{"type":"Feature","id":"way/395740602","geometry":{"type":"Point","coordinates":[15.5957155,46.6817228]},"properties":{"osm_type":"way","osm_id":395740602,"category":"vineyard","name":"Ciringa","tags":{"landuse":"vineyard","name":"Ciringa","operator":"Weingut Tement"}}},{"type":"Feature","id":"way/395740603","geometry":{"type":"Point","coordinates":[15.5945291,46.6827517]},"properties":{"osm_type":"way","osm_id":395740603,"category":"vineyard","name":"WG Tement","tags":{"landuse":"vineyard","name":"WG Tement"}}},{"type":"Feature","id":"way/395740604","geometry":{"type":"Point","coordinates":[15.596473,46.6824266]},"properties":{"osm_type":"way","osm_id":395740604,"category":"vineyard","name":"Ciringa","tags":{"landuse":"vineyard","name":"Ciringa","operator":"Weingut Tement"}}},{"type":"Feature","id":"way/395740720","geometry":{"type":"Point","coordinates":[15.595811,46.6871441]},"properties":{"osm_type":"way","osm_id":395740720,"category":"vineyard","name":"Ciringa","tags":{"landuse":"vineyard","name":"Ciringa","operator":"Weingut Tement"}}},{"type":"Feature","id":"way/395741008","geometry":{"type":"Point","coordinates":[15.601819,46.6789538]},"properties":{"osm_type":"way","osm_id":395741008,"category":"vineyard","name":"Ciringa","tags":{"landuse":"vineyard","name":"Ciringa","operator":"Weingut Tement"}}},{"type":"Feature","id":"way/395797990","geometry":{"type":"Point","coordinates":[15.5446933,46.6359933]},"properties":{"osm_type":"way","osm_id":395797990,"category":"vineyard","name":"WG Erwin Sabathi","tags":{"landuse":"vineyard","name":"WG Erwin Sabathi"}}},{"type":"Feature","id":"way/396571764","geometry":{"type":"Point","coordinates":[16.3233218,46.6649333]},"properties":{"osm_type":"way","osm_id":396571764,"category":"winery","name":"Tatjana & ViktorPivar","tags":{"building":"yes","craft":"winery","name":"Tatjana & ViktorPivar"}}},{"type":"Feature","id":"way/397707876","geometry":{"type":"Point","coordinates":[15.972907,46.4891587]},"properties":{"osm_type":"way","osm_id":397707876,"category":"winery","name":"Vinarstvo Toplak","tags":{"building":"yes","craft":"winery","name":"Vinarstvo Toplak"}}},{"type":"Feature","id":"way/413178588","geometry":{"type":"Point","coordinates":[16.0118619,46.804851]},"properties":{"osm_type":"way","osm_id":413178588,"category":"winery","name":"Vina Maric","tags":{"addr:city":"Rogašovci","addr:housenumber":"44","addr:postcode":"9262","building":"yes","craft":"winery","name":"Vina Maric"}}},{"type":"Feature","id":"way/449104408","geometry":{"type":"Point","coordinates":[15.2937225,46.0466962]},"properties":{"osm_type":"way","osm_id":449104408,"category":"winery","name":"Vinska klet Mastnak","tags":{"addr:city":"Sevnica","addr:country":"SI","addr:housenumber":"10","addr:postcode":"8290","addr:street":"Orešje nad Sevnico","building":"house","craft":"winery","name":"Vinska klet Mastnak","official_name":"Posestvo Krakovo - Vina Mastnak","tourism":"wine_cellar"}}},{"type":"Feature","id":"way/460137518","geometry":{"type":"Point","coordinates":[13.7455662,45.8888555]},"properties":{"osm_type":"way","osm_id":460137518,"category":"wine_shop","name":"Zaloščan vina De Adami","tags":{"addr:city":"Dornberk","addr:housenumber":"6a","addr:postcode":"5294","building":"house","name":"Zaloščan vina De Adami","name:en":"Zaloščan wines De Adami","shop":"wine"}}},{"type":"Feature","id":"way/462640466","geometry":{"type":"Point","coordinates":[16.2823727,46.5155656]},"properties":{"osm_type":"way","osm_id":462640466,"category":"winery","name":"Vinarija Kunčić","tags":{"addr:city":"Štrigova","addr:housenumber":"125","addr:street":"Banfi","building":"yes","craft":"winery","name":"Vinarija Kunčić","website":"https://www.vina-kuncic.hr/"}}},{"type":"Feature","id":"way/481342546","geometry":{"type":"Point","coordinates":[13.9604486,45.8610628]},"properties":{"osm_type":"way","osm_id":481342546,"category":"wine_shop","name":"Nafa","tags":{"addr:city":"Vipava","addr:housenumber":"1","addr:postcode":"5271","addr:street":"Vrhpolje","building":"yes","name":"Nafa","shop":"wine","website":"http://www.nafa.si"}}},{"type":"Feature","id":"way/486417032","geometry":{"type":"Point","coordinates":[15.6111244,46.6828694]},"properties":{"osm_type":"way","osm_id":486417032,"category":"vineyard","name":"Zieregg","tags":{"landuse":"vineyard","name":"Zieregg","operator":"Weingut Tement"}}},{"type":"Feature","id":"way/491151414","geometry":{"type":"Point","coordinates":[15.4465244,45.9762526]},"properties":{"osm_type":"way","osm_id":491151414,"category":"winery","name":"Hiša Frankinje","tags":{"addr:city":"Krško","addr:housenumber":"2","addr:postcode":"8270","addr:street":"Straža pri Krškem","building":"yes","craft":"winery","name":"Hiša Frankinje","operator":"Vina Kerin","phone":"+38631306053","website":"https://www.vina-kerin.com/"}}},{"type":"Feature","id":"way/492804548","geometry":{"type":"Point","coordinates":[13.8504019,45.7561066]},"properties":{"osm_type":"way","osm_id":492804548,"category":"wine_shop","name":"Vinska klet Škerlj","tags":{"addr:city":"Dutovlje","addr:housenumber":"46","addr:postcode":"6221","addr:street":"Tomaj","building":"yes","name":"Vinska klet Škerlj","operator":"Škerlj family","shop":"wine","website":"https://skerlj-teran.net"}}},{"type":"Feature","id":"way/493390106","geometry":{"type":"Point","coordinates":[15.6929566,46.5683341]},"properties":{"osm_type":"way","osm_id":493390106,"category":"winery","name":"Vinarstvo in vinotoč Mak","tags":{"addr:city":"Malečnik","addr:housenumber":"3","addr:postcode":"2229","addr:street":"Vodole","building":"yes","craft":"winery","name":"Vinarstvo in vinotoč Mak"}}},{"type":"Feature","id":"way/495713389","geometry":{"type":"Point","coordinates":[13.9293151,45.8750007]},"properties":{"osm_type":"way","osm_id":495713389,"category":"wine_shop","name":"Vina Davin","tags":{"addr:city":"Vipava","addr:housenumber":"2c","addr:postcode":"5271","addr:street":"Dolga Poljana","building":"yes","email":"davin.rustja@gmail.com","name":"Vina Davin","phone":"+386 (0)31 473 259","shop":"wine"}}},{"type":"Feature","id":"way/516980702","geometry":{"type":"Point","coordinates":[13.8388235,45.8212994]},"properties":{"osm_type":"way","osm_id":516980702,"category":"wine_shop","name":"Vina Švagelj","tags":{"addr:city":"Štanjel","addr:housenumber":"152","addr:postcode":"6222","addr:street":"Štanjel","building":"house","email":"ivo.svagelj@gmail.com","name":"Vina Švagelj","phone":"+38631317047","shop":"wine"}}},{"type":"Feature","id":"way/518782693","geometry":{"type":"Point","coordinates":[16.2692509,46.5559162]},"properties":{"osm_type":"way","osm_id":518782693,"category":"winery","name":"Vina Krampač","tags":{"addr:city":"Črenšovci","addr:housenumber":"148","addr:postcode":"9232","addr:street":"Gornja Bistrica","building":"yes","craft":"winery","name":"Vina Krampač","operator":"Egon Krampač"}}},{"type":"Feature","id":"way/533801476","geometry":{"type":"Point","coordinates":[14.5132162,46.0440007]},"properties":{"osm_type":"way","osm_id":533801476,"category":"vineyard","name":"Grajski vinograd Ljubljana","tags":{"grape_variety":"500_Belpin_(Belina_x_Pinot),_550_Rdečegrajec_(Rotburger,_Zweigelt)","landuse":"vineyard","name":"Grajski vinograd Ljubljana","operator":"Ljubljanski grad","start_date":"2016"}}},{"type":"Feature","id":"way/580238179","geometry":{"type":"Point","coordinates":[16.1748854,46.4701189]},"properties":{"osm_type":"way","osm_id":580238179,"category":"wine_shop","name":"Zidanica Malek, Puklavec & friends","tags":{"addr:city":"Ivanjkovci","addr:housenumber":"22","addr:postcode":"2259","addr:street":"Svetinje","building":"yes","email":"malek@pfwineries.com","name":"Zidanica Malek, Puklavec & friends","name:en":"Zidanica Malek, Wine shop, wine tasting","opening_hours":"Mo-Su 11:00-18:00","shop":"wine"}}},{"type":"Feature","id":"way/596985094","geometry":{"type":"Point","coordinates":[15.6132244,46.6825969]},"properties":{"osm_type":"way","osm_id":596985094,"category":"vineyard","name":"ZIERNICK","tags":{"grape_variety":"Sauvignon_Blanc","landuse":"vineyard","name":"ZIERNICK","name:de":"CIRINGA","operator":"Weingut PRIMUS"}}},{"type":"Feature","id":"way/596986347","geometry":{"type":"Point","coordinates":[15.6232735,46.6763936]},"properties":{"osm_type":"way","osm_id":596986347,"category":"vineyard","name":"Weingut Primus","tags":{"landuse":"vineyard","name":"Weingut Primus","operator":"Weingut Primus"}}},{"type":"Feature","id":"way/597373372","geometry":{"type":"Point","coordinates":[13.7342888,45.843546]},"properties":{"osm_type":"way","osm_id":597373372,"category":"winery","name":"Kmetija Buntovi","tags":{"addr:city":"Komen","addr:housenumber":"62","addr:postcode":"6223","building":"yes","craft":"winery","name":"Kmetija Buntovi","name:en":"Winery Buntovi","name:sl":"Kmetija Buntovi","phone":"+386 31 867 632","website":"https://www.buntovi.si"}}},{"type":"Feature","id":"way/621502087","geometry":{"type":"Point","coordinates":[15.8734938,46.4188829]},"properties":{"osm_type":"way","osm_id":621502087,"category":"winery","name":"Fürstova Hiša","tags":{"craft":"winery","name":"Fürstova Hiša"}}},{"type":"Feature","id":"way/621502088","geometry":{"type":"Point","coordinates":[15.87363,46.4200735]},"properties":{"osm_type":"way","osm_id":621502088,"category":"winery","name":"Ptujska klet","tags":{"addr:city":"Ptuj","addr:housenumber":"1","addr:postcode":"2250","addr:street":"Vinarski trg","craft":"winery","email":"info@ptujska-klet.si","name":"Ptujska klet","operator":"Ptujska klet vinarstvo d.o.o.","phone":"+386 2 787 98 10","website":"https://www.ptujska-klet.si/"}}},{"type":"Feature","id":"way/623447110","geometry":{"type":"Point","coordinates":[13.7323646,45.8863546]},"properties":{"osm_type":"way","osm_id":623447110,"category":"wine_shop","name":"Posestvo Berce","tags":{"addr:city":"Dornberk","addr:housenumber":"20a","addr:postcode":"5294","building":"yes","name":"Posestvo Berce","shop":"wine","website":"https://www.posestvo-berce.si/"}}},{"type":"Feature","id":"way/651787215","geometry":{"type":"Point","coordinates":[15.7285863,46.6445006]},"properties":{"osm_type":"way","osm_id":651787215,"category":"vineyard","name":"Vinograd pri Omi","tags":{"landuse":"vineyard","name":"Vinograd pri Omi"}}},{"type":"Feature","id":"way/651788020","geometry":{"type":"Point","coordinates":[15.7288866,46.6401209]},"properties":{"osm_type":"way","osm_id":651788020,"category":"vineyard","name":"Brumen's vineyard","tags":{"landuse":"vineyard","name":"Brumen's vineyard"}}},{"type":"Feature","id":"way/651788604","geometry":{"type":"Point","coordinates":[15.7306903,46.6428387]},"properties":{"osm_type":"way","osm_id":651788604,"category":"vineyard","name":"Vinograd pri Maneku","tags":{"landuse":"vineyard","name":"Vinograd pri Maneku"}}},{"type":"Feature","id":"way/671148372","geometry":{"type":"Point","coordinates":[13.8695581,45.751407]},"properties":{"osm_type":"way","osm_id":671148372,"category":"wine_shop","name":"Štemberger Wines","tags":{"addr:city":"Sežana","addr:housenumber":"6","addr:postcode":"6210","building":"house","name":"Štemberger Wines","operator":"Štemberger Sebastijan","shop":"wine","website":"https://www.stemberger.si/"}}},{"type":"Feature","id":"way/680752646","geometry":{"type":"Point","coordinates":[15.17725,45.6462743]},"properties":{"osm_type":"way","osm_id":680752646,"category":"wine_shop","name":"Vinoteka Samoel Malnarič Nampel","tags":{"addr:city":"semič","addr:housenumber":"40","addr:postcode":"8333","addr:street":"vavpča vas","building":"yes","name":"Vinoteka Samoel Malnarič Nampel","shop":"wine"}}},{"type":"Feature","id":"way/682084155","geometry":{"type":"Point","coordinates":[13.9394196,45.8094871]},"properties":{"osm_type":"way","osm_id":682084155,"category":"vineyard","name":"Ravno Brdo","tags":{"grape_variety":"Pinot_Noir;Franconier_noir;Malvazija;Italian_Riesling;Rebula","landuse":"vineyard","name":"Ravno Brdo","operator":"Posestvo Burja","website":"http://www.burjaestate.com"}}},{"type":"Feature","id":"way/682085682","geometry":{"type":"Point","coordinates":[13.9419026,45.8102192]},"properties":{"osm_type":"way","osm_id":682085682,"category":"vineyard","name":"Zadomajc","tags":{"grape_variety":"Pinot_Noir","landuse":"vineyard","name":"Zadomajc","operator":"Posestvo Burja","website":"http://www.burjaestate.com"}}},{"type":"Feature","id":"way/682099521","geometry":{"type":"Point","coordinates":[13.7445077,45.888005]},"properties":{"osm_type":"way","osm_id":682099521,"category":"wine_shop","name":"Domačija Lisjak 1956","tags":{"addr:city":"Dornberk","addr:housenumber":"40","addr:postcode":"5294","building":"yes","name":"Domačija Lisjak 1956","operator":"Solarjevi family","shop":"wine","website":"https://vinalisjak.si/"}}},{"type":"Feature","id":"way/682100970","geometry":{"type":"Point","coordinates":[13.7474984,45.8900359]},"properties":{"osm_type":"way","osm_id":682100970,"category":"wine_shop","name":"Vina Saksida","tags":{"addr:city":"Dornberk","addr:housenumber":"12A","addr:postcode":"5294","building":"yes","name":"Vina Saksida","shop":"wine","website":"https://www.vinasaksida.com/"}}},{"type":"Feature","id":"way/682104707","geometry":{"type":"Point","coordinates":[13.7481452,45.8875232]},"properties":{"osm_type":"way","osm_id":682104707,"category":"wine_shop","name":"Vina Dornberg","tags":{"addr:city":"Dornberk","addr:housenumber":"29d","addr:postcode":"5294","building":"yes","name":"Vina Dornberg","shop":"wine","website":"https://vinadornberg.si"}}},{"type":"Feature","id":"way/684294618","geometry":{"type":"Point","coordinates":[15.6921853,46.6456445]},"properties":{"osm_type":"way","osm_id":684294618,"category":"winery","tags":{"building":"yes","craft":"winery"}}},{"type":"Feature","id":"way/687618382","geometry":{"type":"Point","coordinates":[15.6498264,46.5609941]},"properties":{"osm_type":"way","osm_id":687618382,"category":"winery","name":"Vinska klet VINAG","tags":{"building":"yes","craft":"winery","name":"Vinska klet VINAG","name:de":"Weinkeller VINAG","name:en":"Wine Cellar VINAG","name:fr":"Chais VINAG","tourism":"attraction"}}},{"type":"Feature","id":"way/731881088","geometry":{"type":"Point","coordinates":[15.9801781,46.667124]},"properties":{"osm_type":"way","osm_id":731881088,"category":"winery","name":"Vinska klet Kolarič","tags":{"addr:city":"Gornja Radgona","addr:country":"SI","addr:housenumber":"35","addr:postcode":"9250","addr:street":"Norički Vrh","building":"yes","craft":"winery","name":"Vinska klet Kolarič","operator":"Kolarič"}}},{"type":"Feature","id":"way/783649924","geometry":{"type":"Point","coordinates":[15.7286934,46.6398104]},"properties":{"osm_type":"way","osm_id":783649924,"category":"vineyard","name":"Brumen's vineyard","tags":{"landuse":"vineyard","name":"Brumen's vineyard"}}},{"type":"Feature","id":"way/783650662","geometry":{"type":"Point","coordinates":[15.7288672,46.638695]},"properties":{"osm_type":"way","osm_id":783650662,"category":"vineyard","name":"Slamnjak vinogradi","tags":{"landuse":"vineyard","name":"Slamnjak vinogradi"}}},{"type":"Feature","id":"way/784000452","geometry":{"type":"Point","coordinates":[16.032115,46.621943]},"properties":{"osm_type":"way","osm_id":784000452,"category":"winery","name":"Vinogradniška Hiša","tags":{"addr:city":"Radenci","addr:country":"SI","addr:housenumber":"21","addr:postcode":"9252","addr:street":"Paričjak","building":"house","craft":"winery","name":"Vinogradniška Hiša"}}},{"type":"Feature","id":"way/800695638","geometry":{"type":"Point","coordinates":[13.7643207,45.8751789]},"properties":{"osm_type":"way","osm_id":800695638,"category":"wine_shop","name":"Vina Colja","tags":{"addr:city":"Branik","addr:housenumber":"11","addr:postcode":"5295","addr:street":"Steske","building":"house","name":"Vina Colja","operator":"Colja Davorin & Mitja","shop":"wine","website":"https://www.vinacolja.si/"}}},{"type":"Feature","id":"way/800701625","geometry":{"type":"Point","coordinates":[13.7489114,45.8858539]},"properties":{"osm_type":"way","osm_id":800701625,"category":"wine_shop","name":"Turistična kmetija Gregorič","tags":{"addr:city":"Dornberk","addr:housenumber":"30g","addr:postcode":"5294","building":"house","name":"Turistična kmetija Gregorič","shop":"wine","website":"http://www.tk-gregoric.si/"}}},{"type":"Feature","id":"way/800792325","geometry":{"type":"Point","coordinates":[13.9500124,45.8636709]},"properties":{"osm_type":"way","osm_id":800792325,"category":"wine_shop","name":"Posestvo Lavrenčič","tags":{"addr:city":"Vipava","addr:housenumber":"15a","addr:postcode":"5271","building":"house","name":"Posestvo Lavrenčič","shop":"wine","website":"http://lavrencic-estate.com/"}}},{"type":"Feature","id":"way/809906352","geometry":{"type":"Point","coordinates":[16.1128467,46.4259139]},"properties":{"osm_type":"way","osm_id":809906352,"category":"wine_shop","name":"Vinska klet Kogl","tags":{"addr:city":"Velika Nedelja","addr:country":"SI","addr:housenumber":"23","addr:postcode":"2274","addr:street":"Velika Nedelja","building":"yes","name":"Vinska klet Kogl","shop":"wine"}}},{"type":"Feature","id":"way/881229383","geometry":{"type":"Point","coordinates":[15.3171389,45.6474144]},"properties":{"osm_type":"way","osm_id":881229383,"category":"winery","name":"Klet KZ Metlika","tags":{"building":"yes","craft":"winery","name":"Klet KZ Metlika"}}},{"type":"Feature","id":"way/881229384","geometry":{"type":"Point","coordinates":[15.3166222,45.647282]},"properties":{"osm_type":"way","osm_id":881229384,"category":"winery","name":"Vinoteka","tags":{"addr:city":"Metlika","addr:country":"SI","addr:housenumber":"68","addr:postcode":"8330","addr:street":"Cesta bratstva in enotnosti","building":"yes","craft":"winery","name":"Vinoteka"}}},{"type":"Feature","id":"way/937390884","geometry":{"type":"Point","coordinates":[15.5882341,46.6828509]},"properties":{"osm_type":"way","osm_id":937390884,"category":"winery","name":"Ducal Wines","tags":{"building":"yes","craft":"winery","name":"Ducal Wines","website":"https://ducalwines.com/"}}},{"type":"Feature","id":"way/937513557","geometry":{"type":"Point","coordinates":[15.2924414,45.6664297]},"properties":{"osm_type":"way","osm_id":937513557,"category":"wine_shop","name":"Vinska klet & izletniška kmetija Šuklje","tags":{"addr:city":"Metlika","addr:country":"SI","addr:housenumber":"24","addr:postcode":"8330","addr:street":"Trnovec","building":"house","name":"Vinska klet & izletniška kmetija Šuklje","operator":"Matija Šuklje) & Katja Šuklje","shop":"wine","website":"https://suklje.com/"}}},{"type":"Feature","id":"way/955282853","geometry":{"type":"Point","coordinates":[13.9471179,45.8740625]},"properties":{"osm_type":"way","osm_id":955282853,"category":"wine_shop","name":"Kmetija Kobal","tags":{"addr:city":"Vipava","addr:housenumber":"30","addr:postcode":"5271","addr:street":"Budanje","building":"yes","name":"Kmetija Kobal","shop":"wine"}}},{"type":"Feature","id":"way/1050837399","geometry":{"type":"Point","coordinates":[16.2501078,46.4528593]},"properties":{"osm_type":"way","osm_id":1050837399,"category":"winery","name":"Roka winery","tags":{"addr:city":"Kog","addr:housenumber":"31","addr:postcode":"2276","addr:street":"Lačaves","building":"house","craft":"winery","name":"Roka winery","website":"https://www.rokawinery.com/","wheelchair":"no"}}},{"type":"Feature","id":"way/1132019400","geometry":{"type":"Point","coordinates":[15.6829844,45.9978921]},"properties":{"osm_type":"way","osm_id":1132019400,"category":"winery","name":"Repnica Najger","tags":{"addr:city":"Bizeljsko","addr:housenumber":"32","addr:postcode":"8259","addr:street":"Brezovica","building":"yes","craft":"winery","name":"Repnica Najger","phone":"+38641204876"}}},{"type":"Feature","id":"way/1132935591","geometry":{"type":"Point","coordinates":[15.943843,46.5681328]},"properties":{"osm_type":"way","osm_id":1132935591,"category":"vineyard","name":"Johanezova trta","tags":{"landuse":"vineyard","name":"Johanezova trta","tourism":"attraction"}}},{"type":"Feature","id":"way/1163940826","geometry":{"type":"Point","coordinates":[13.911611,45.8481595]},"properties":{"osm_type":"way","osm_id":1163940826,"category":"wine_shop","name":"Guerila wines","tags":{"addr:city":"Vipava","addr:housenumber":"100","addr:postcode":"5271","addr:street":"Slap","building":"yes","name":"Guerila wines","shop":"wine"}}},{"type":"Feature","id":"way/1205416350","geometry":{"type":"Point","coordinates":[15.5746301,46.6482409]},"properties":{"osm_type":"way","osm_id":1205416350,"category":"winery","name":"Vino Vračko","tags":{"addr:city":"Zgornja Kungota","addr:housenumber":"8","addr:postcode":"2201","addr:street":"Grušena","building":"yes","craft":"winery","name":"Vino Vračko"}}},{"type":"Feature","id":"way/1223039141","geometry":{"type":"Point","coordinates":[13.9230738,45.8204773]},"properties":{"osm_type":"way","osm_id":1223039141,"category":"wine_shop","name":"Vino Malik","tags":{"name":"Vino Malik","shop":"wine"}}},{"type":"Feature","id":"way/1227669856","geometry":{"type":"Point","coordinates":[16.321106,46.6676119]},"properties":{"osm_type":"way","osm_id":1227669856,"category":"winery","name":"Countess Emiliana","tags":{"building":"warehouse","craft":"winery","name":"Countess Emiliana","website":"https://www.countess-emiliana.com/"}}},{"type":"Feature","id":"way/1236033142","geometry":{"type":"Point","coordinates":[15.7401836,46.6451373]},