{"type":"FeatureCollection","features":[{"type":"Feature","id":"node/3512447260","geometry":{"type":"Point","coordinates":[-56.2248742,-34.7955221]},"properties":{"osm_type":"node","osm_id":3512447260,"category":"winery","name":"Bodega Santa Rosa","tags":{"addr:city":"Montevideo","addr:country":"UY","addr:housenumber":"2211","addr:street":"Ruta César Mayo Gutiérrez","craft":"winery","name":"Bodega Santa Rosa","shop":"wine"}}},{"type":"Feature","id":"node/4540042831","geometry":{"type":"Point","coordinates":[-56.4556747,-34.7501899]},"properties":{"osm_type":"node","osm_id":4540042831,"category":"wine_shop","tags":{"shop":"wine"}}},{"type":"Feature","id":"node/4543972143","geometry":{"type":"Point","coordinates":[-56.1298246,-34.8872411]},"properties":{"osm_type":"node","osm_id":4543972143,"category":"wine_shop","name":"Vudu","tags":{"addr:street":"Avenida Mariscal Francisco Solano López","name":"Vudu","shop":"wine"}}},{"type":"Feature","id":"node/5397358691","geometry":{"type":"Point","coordinates":[-58.2817,-33.9491332]},"properties":{"osm_type":"node","osm_id":5397358691,"category":"wine_shop","name":"Bodega Boutique El Legado","tags":{"addr:street":"Ramal Ruta 97","name":"Bodega Boutique El Legado","opening_hours":"Mo-Su 13:00-18:00","shop":"wine","wine":"yes"}}},{"type":"Feature","id":"node/5464878522","geometry":{"type":"Point","coordinates":[-56.270877,-34.7424796]},"properties":{"osm_type":"node","osm_id":5464878522,"category":"wine_shop","name":"Bodega H Stagnari","tags":{"name":"Bodega H Stagnari","shop":"wine"}}},{"type":"Feature","id":"node/5465626021","geometry":{"type":"Point","coordinates":[-55.8492913,-34.7149276]},"properties":{"osm_type":"node","osm_id":5465626021,"category":"wine_shop","name":"Bodega Bracco Bosca","tags":{"addr:country":"UY","addr:street":"Camino a Sosa Díaz","email":"fabracco@gmail.com","name":"Bodega Bracco Bosca","shop":"wine"}}},{"type":"Feature","id":"node/5469973621","geometry":{"type":"Point","coordinates":[-56.0384699,-34.726493]},"properties":{"osm_type":"node","osm_id":5469973621,"category":"wine_shop","name":"Bodega","tags":{"name":"Bodega","name:es":"Bodega Varela Zarranz - Camino de Olivos","shop":"wine"}}},{"type":"Feature","id":"node/5469974821","geometry":{"type":"Point","coordinates":[-56.1647451,-34.741367]},"properties":{"osm_type":"node","osm_id":5469974821,"category":"wine_shop","name":"Bodega Spinoglio","tags":{"addr:housenumber":"8238","addr:street":"Avenida Don Pedro Mendoza","name":"Bodega Spinoglio","opening_hours":"We-Su 10:30-15:00","phone":"+598 99 888182","shop":"wine","website":"https://bodegaspinoglio.com/"}}},{"type":"Feature","id":"node/5469979121","geometry":{"type":"Point","coordinates":[-56.0858175,-34.7844968]},"properties":{"osm_type":"node","osm_id":5469979121,"category":"wine_shop","name":"Agricultural Jackson winery","tags":{"addr:street":"Camino la Cruz del Sur","name":"Agricultural Jackson winery","name:es":"Agricultural Jackson Winery","shop":"wine"}}},{"type":"Feature","id":"node/6231068720","geometry":{"type":"Point","coordinates":[-54.6284137,-34.5685824]},"properties":{"osm_type":"node","osm_id":6231068720,"category":"winery","name":"Bodega Garzón","tags":{"craft":"winery","name":"Bodega Garzón"}}},{"type":"Feature","id":"node/7219740385","geometry":{"type":"Point","coordinates":[-56.170667,-34.9043672]},"properties":{"osm_type":"node","osm_id":7219740385,"category":"wine_shop","name":"MADIRÁN - almacén de vinos","tags":{"name":"MADIRÁN - almacén de vinos","shop":"wine"}}},{"type":"Feature","id":"node/9883390329","geometry":{"type":"Point","coordinates":[-55.1330557,-33.1055167]},"properties":{"osm_type":"node","osm_id":9883390329,"category":"wine_shop","name":"Distribudiora de vinos Toscanini","tags":{"name":"Distribudiora de vinos Toscanini","shop":"wine"}}},{"type":"Feature","id":"node/9883390365","geometry":{"type":"Point","coordinates":[-55.1381144,-33.1052651]},"properties":{"osm_type":"node","osm_id":9883390365,"category":"wine_shop","tags":{"shop":"wine"}}},{"type":"Feature","id":"node/9951275210","geometry":{"type":"Point","coordinates":[-56.1681371,-34.7153479]},"properties":{"osm_type":"node","osm_id":9951275210,"category":"winery","name":"Pizzorno","tags":{"addr:street":"Ruta 32, Km 23\nCont. Camino Mendoza","craft":"winery","name":"Pizzorno","opening_hours":"Mo-Sa 09:00-17:00; Su 10:00-17:00","phone":"+598 98 940444","website":"https://pizzornowines.com/"}}},{"type":"Feature","id":"node/11014743672","geometry":{"type":"Point","coordinates":[-56.1778275,-34.9064426]},"properties":{"osm_type":"node","osm_id":11014743672,"category":"wine_shop","name":"La Sacristía","tags":{"addr:city":"Montevideo","addr:housenumber":"1783","addr:street":"Constituyente","name":"La Sacristía","shop":"wine"}}},{"type":"Feature","id":"node/11033466397","geometry":{"type":"Point","coordinates":[-56.1723722,-34.9035035]},"properties":{"osm_type":"node","osm_id":11033466397,"category":"wine_shop","name":"Pepe Botella","tags":{"name":"Pepe Botella","shop":"wine"}}},{"type":"Feature","id":"node/11033522220","geometry":{"type":"Point","coordinates":[-56.1725207,-34.9035198]},"properties":{"osm_type":"node","osm_id":11033522220,"category":"wine_shop","name":"Pepe Botella","tags":{"name":"Pepe Botella","shop":"wine"}}},{"type":"Feature","id":"node/11156489179","geometry":{"type":"Point","coordinates":[-54.6649782,-34.6173557]},"properties":{"osm_type":"node","osm_id":11156489179,"category":"winery","name":"Los Horizontes de Garzon","tags":{"craft":"winery","name":"Los Horizontes de Garzon"}}},{"type":"Feature","id":"node/11260972989","geometry":{"type":"Point","coordinates":[-56.2770796,-34.7907967]},"properties":{"osm_type":"node","osm_id":11260972989,"category":"winery","name":"Bodega Bouza","wikidata":"Q120754748","tags":{"craft":"winery","name":"Bodega Bouza","wikidata":"Q120754748"}}},{"type":"Feature","id":"node/12316034496","geometry":{"type":"Point","coordinates":[-56.173396,-34.9063133]},"properties":{"osm_type":"node","osm_id":12316034496,"category":"wine_shop","name":"balbuena","tags":{"name":"balbuena","shop":"wine"}}},{"type":"Feature","id":"node/12895507922","geometry":{"type":"Point","coordinates":[-55.484916,-30.9518266]},"properties":{"osm_type":"node","osm_id":12895507922,"category":"winery","name":"Bodega 636","tags":{"craft":"winery","name":"Bodega 636","shop":"wine"}}},{"type":"Feature","id":"node/13254983101","geometry":{"type":"Point","coordinates":[-54.6484685,-34.7997445]},"properties":{"osm_type":"node","osm_id":13254983101,"category":"winery","name":"Luz wine lodge","tags":{"craft":"winery","name":"Luz wine lodge"}}},{"type":"Feature","id":"node/13256233001","geometry":{"type":"Point","coordinates":[-55.0403212,-34.6623534]},"properties":{"osm_type":"node","osm_id":13256233001,"category":"winery","name":"Viña Eden","tags":{"craft":"winery","name":"Viña Eden"}}},{"type":"Feature","id":"way/77488052","geometry":{"type":"Point","coordinates":[-55.7774711,-34.73148]},"properties":{"osm_type":"way","osm_id":77488052,"category":"vineyard","name":"Bodega Pablo Fallabrino y Viñedo Fallabrino Machado","tags":{"addr:city":"Municipio De Atlántida","addr:housenumber":"Km. 162","addr:street":"Ruta 11 José Batlle y Ordóñez","email":"bodegapablofallabrino@gmail.com","grape_variety":"Tannat;Gewürztraminer;Cabernet_Sauvignon;Arneis;Chardonnay;Traminer_Aromatico;Moscato_Bianco;Ruby_Cabernet;Nebbiolo;Barbera;Dolcetto","landuse":"vineyard","name":"Bodega Pablo Fallabrino y Viñedo Fallabrino Machado","operator":"Fallabrino hermanos ltda., Alejandro, Pablo y Federico Fallabrinos.","website":"www.bodegapablofallabrino.com"}}},{"type":"Feature","id":"way/187357962","geometry":{"type":"Point","coordinates":[-55.7734595,-34.7313806]},"properties":{"osm_type":"way","osm_id":187357962,"category":"wine_shop","name":"Bodega Pablo Fallabrino","tags":{"addr:city":"Municipio De Atlántida","addr:housenumber":"Km. 162","addr:street":"Ruta 11 José Batlle y Ordóñez","building":"yes","name":"Bodega Pablo Fallabrino","operator":"Fallabrino Hermanos Ltda.","shop":"wine","website":"www.bodegapablofallabrino.uy"}}},{"type":"Feature","id":"way/187357973","geometry":{"type":"Point","coordinates":[-55.7739587,-34.7304149]},"properties":{"osm_type":"way","osm_id":187357973,"category":"winery","name":"Bodega Pablo Fallabrino","tags":{"addr:city":"Municipio De Atlántida","addr:housenumber":"Km. 162","addr:street":"Ruta 11 José Batlle y Ordóñez","building":"yes","craft":"winery","name":"Bodega Pablo Fallabrino","operator":"Fallabrino Hermanos Ltda.","website":"www.bodegapablofallabrino.uy"}}},{"type":"Feature","id":"way/305422242","geometry":{"type":"Point","coordinates":[-56.3198498,-34.432575]},"properties":{"osm_type":"way","osm_id":305422242,"category":"vineyard","name":"Bodega Filgueira","tags":{"landuse":"vineyard","name":"Bodega Filgueira","shop":"wine","website":"https://bodegafilgueira.com/"}}},{"type":"Feature","id":"way/344509816","geometry":{"type":"Point","coordinates":[-56.2232082,-34.7878544]},"properties":{"osm_type":"way","osm_id":344509816,"category":"winery","name":"Bodegas Carrau","tags":{"addr:city":"Montevideo","addr:country":"UY","addr:housenumber":"2556","addr:street":"Ruta César Mayo Gutiérrez","craft":"winery","name":"Bodegas Carrau","shop":"wine","website":"https://www.bodegascarrau.com/"}}},{"type":"Feature","id":"way/456863674","geometry":{"type":"Point","coordinates":[-54.9373864,-34.9414042]},"properties":{"osm_type":"way","osm_id":456863674,"category":"winery","name":"Vinos de Mundo","tags":{"building":"yes","craft":"winery","name":"Vinos de Mundo","phone":"+598 4249 9897","website":"https://www.vinosdelmundo.com.uy/"}}},{"type":"Feature","id":"way/691890320","geometry":{"type":"Point","coordinates":[-57.79097,-34.4470643]},"properties":{"osm_type":"way","osm_id":691890320,"category":"winery","name":"Bodega Bernardi","tags":{"craft":"winery","name":"Bodega Bernardi"}}},{"type":"Feature","id":"way/694328178","geometry":{"type":"Point","coordinates":[-57.8656753,-34.4245835]},"properties":{"osm_type":"way","osm_id":694328178,"category":"winery","tags":{"craft":"winery"}}},{"type":"Feature","id":"way/694434166","geometry":{"type":"Point","coordinates":[-57.8817868,-34.418756]},"properties":{"osm_type":"way","osm_id":694434166,"category":"winery","tags":{"building":"yes","craft":"winery"}}},{"type":"Feature","id":"way/694447814","geometry":{"type":"Point","coordinates":[-57.8694416,-34.4134646]},"properties":{"osm_type":"way","osm_id":694447814,"category":"winery","tags":{"building":"yes","craft":"winery"}}},{"type":"Feature","id":"way/696673310","geometry":{"type":"Point","coordinates":[-57.7178582,-34.3828217]},"properties":{"osm_type":"way","osm_id":696673310,"category":"winery","tags":{"building":"yes","craft":"winery"}}},{"type":"Feature","id":"way/705377134","geometry":{"type":"Point","coordinates":[-57.873927,-34.407209]},"properties":{"osm_type":"way","osm_id":705377134,"category":"winery","name":"Bodega Caluva","tags":{"craft":"winery","landuse":"farmyard","name":"Bodega Caluva"}}},{"type":"Feature","id":"way/945594741","geometry":{"type":"Point","coordinates":[-58.2596848,-33.990596]},"properties":{"osm_type":"way","osm_id":945594741,"category":"wine_shop","name":"Bodega Familia Irurtia","tags":{"landuse":"industrial","name":"Bodega Familia Irurtia","opening_hours":"11:00-14:00","shop":"wine"}}},{"type":"Feature","id":"relation/2586112","geometry":{"type":"Point","coordinates":[-56.2546209,-34.5904071]},"properties":{"osm_type":"relation","osm_id":2586112,"category":"vineyard","name":"Establecimiento Juanicó","tags":{"landuse":"vineyard","name":"Establecimiento Juanicó"}}}]}