{"type":"FeatureCollection","features":[{"type":"Feature","id":"node/251859733","geometry":{"type":"Point","coordinates":[18.78277,-33.9745]},"properties":{"osm_type":"node","osm_id":251859733,"category":"winery","name":"Spier","wikidata":"Q7577117","wikipedia":"af:Spier-wynlandgoed","tags":{"alt_name":"Spier Wine Farm","craft":"winery","name":"Spier","website":"https://www.spier.co.za/","wikidata":"Q7577117","wikipedia":"af:Spier-wynlandgoed"}}},{"type":"Feature","id":"node/487919153","geometry":{"type":"Point","coordinates":[19.00804,-33.66112]},"properties":{"osm_type":"node","osm_id":487919153,"category":"winery","name":"Diemersfontein","tags":{"craft":"winery","name":"Diemersfontein","website":"https://www.diemersfontein.co.za/"}}},{"type":"Feature","id":"node/503850733","geometry":{"type":"Point","coordinates":[20.00262,-33.87528]},"properties":{"osm_type":"node","osm_id":503850733,"category":"winery","name":"Van Loveren","tags":{"craft":"winery","name":"Van Loveren","phone":"+27 236151505"}}},{"type":"Feature","id":"node/583974868","geometry":{"type":"Point","coordinates":[18.41633,-34.04231]},"properties":{"osm_type":"node","osm_id":583974868,"category":"winery","name":"Buitenverwachting","tags":{"craft":"winery","name":"Buitenverwachting","website":"https://buitenverwachting.com/"}}},{"type":"Feature","id":"node/711897732","geometry":{"type":"Point","coordinates":[19.95997,-33.84527]},"properties":{"osm_type":"node","osm_id":711897732,"category":"winery","name":"Bon Courage","tags":{"craft":"winery","name":"Bon Courage","phone":"+27 236264178"}}},{"type":"Feature","id":"node/714117490","geometry":{"type":"Point","coordinates":[18.59375,-33.83425]},"properties":{"osm_type":"node","osm_id":714117490,"category":"winery","name":"Nitida Winery","tags":{"craft":"winery","name":"Nitida Winery","shop":"alcohol","tourism":"attraction"}}},{"type":"Feature","id":"node/725593563","geometry":{"type":"Point","coordinates":[18.6094,-33.84306]},"properties":{"osm_type":"node","osm_id":725593563,"category":"winery","name":"D'Aria","wikidata":"Q131918577","tags":{"craft":"winery","name":"D'Aria","website":"https://www.dariawinery.co.za/","wikidata":"Q131918577"}}},{"type":"Feature","id":"node/762445902","geometry":{"type":"Point","coordinates":[29.97913,-29.29668]},"properties":{"osm_type":"node","osm_id":762445902,"category":"winery","name":"The Wine Cellar","tags":{"amenity":"bar","craft":"winery","name":"The Wine Cellar","phone":"+27 33 2677044","tourism":"wine_cellar","website":"https://thewinecellar.co.za/"}}},{"type":"Feature","id":"node/796042943","geometry":{"type":"Point","coordinates":[21.68401,-33.54025]},"properties":{"osm_type":"node","osm_id":796042943,"category":"winery","name":"De Krans","tags":{"craft":"winery","man_made":"cellar_entrance","name":"De Krans","name:en":"De Krans","phone":"+27 442133314","shop":"wine","website":"https://www.dekrans.co.za/"}}},{"type":"Feature","id":"node/808701500","geometry":{"type":"Point","coordinates":[18.84729,-34.00253]},"properties":{"osm_type":"node","osm_id":808701500,"category":"winery","name":"Alto","wikidata":"Q443396","wikipedia":"de:Alto Estate","tags":{"addr:street":"Annandale Road","craft":"winery","email":"info@alto.co.za","name":"Alto","opening_hours":"Mo-Fr 09:00-17:00;Sa 10:00-16:00; Su,PH off","phone":"+27 21 8813884","tourism":"wine_cellar","website":"https://www.alto.co.za/","wikidata":"Q443396","wikipedia":"de:Alto Estate"}}},{"type":"Feature","id":"node/1027802215","geometry":{"type":"Point","coordinates":[18.92271,-33.9218]},"properties":{"osm_type":"node","osm_id":1027802215,"category":"winery","name":"Delaire Graff Estate","tags":{"amenity":"restaurant","craft":"winery","name":"Delaire Graff Estate"}}},{"type":"Feature","id":"node/1168847484","geometry":{"type":"Point","coordinates":[18.86544,-33.9935]},"properties":{"osm_type":"node","osm_id":1168847484,"category":"winery","name":"Stellenzicht","tags":{"craft":"winery","name":"Stellenzicht","tourism":"wine_cellar"}}},{"type":"Feature","id":"node/1168848267","geometry":{"type":"Point","coordinates":[18.8733,-33.99498]},"properties":{"osm_type":"node","osm_id":1168848267,"category":"wine_cellar","name":"Kleinood","tags":{"name":"Kleinood","tourism":"wine_cellar"}}},{"type":"Feature","id":"node/1168848532","geometry":{"type":"Point","coordinates":[18.84707,-33.99127]},"properties":{"osm_type":"node","osm_id":1168848532,"category":"wine_cellar","name":"Stellenrust","tags":{"name":"Stellenrust","tourism":"wine_cellar"}}},{"type":"Feature","id":"node/1168893522","geometry":{"type":"Point","coordinates":[18.85983,-33.85533]},"properties":{"osm_type":"node","osm_id":1168893522,"category":"winery","name":"Kanonkop","tags":{"craft":"winery","name":"Kanonkop","website":"https://kanonkop.co.za/"}}},{"type":"Feature","id":"node/1168893579","geometry":{"type":"Point","coordinates":[18.86386,-33.85722]},"properties":{"osm_type":"node","osm_id":1168893579,"category":"winery","name":"Uitkyk","tags":{"craft":"winery","name":"Uitkyk","website":"https://www.uitkyk.co.za/"}}},{"type":"Feature","id":"node/1168893748","geometry":{"type":"Point","coordinates":[18.92289,-33.90848]},"properties":{"osm_type":"node","osm_id":1168893748,"category":"winery","name":"Thelema","tags":{"craft":"winery","name":"Thelema","name:en":"Thelema","website":"https://www.thelema.co.za/"}}},{"type":"Feature","id":"node/1168893806","geometry":{"type":"Point","coordinates":[18.89252,-33.89571]},"properties":{"osm_type":"node","osm_id":1168893806,"category":"winery","name":"Rustenberg Wines","tags":{"craft":"winery","name":"Rustenberg Wines","tourism":"wine_cellar"}}},{"type":"Feature","id":"node/1735308545","geometry":{"type":"Point","coordinates":[18.42461,-34.02679]},"properties":{"osm_type":"node","osm_id":1735308545,"category":"wine_shop","name":"Groot Constantia Winery","tags":{"addr:street":"Groot Constantia Road","name":"Groot Constantia Winery","shop":"wine","website":"https://www.grootconstantia.co.za"}}},{"type":"Feature","id":"node/2074675323","geometry":{"type":"Point","coordinates":[21.32366,-34.0556]},"properties":{"osm_type":"node","osm_id":2074675323,"category":"wine_cellar","name":"Edenberg","tags":{"name":"Edenberg","tourism":"wine_cellar"}}},{"type":"Feature","id":"node/2687528374","geometry":{"type":"Point","coordinates":[18.85619,-33.99873]},"properties":{"osm_type":"node","osm_id":2687528374,"category":"winery","name":"Rust en Vrede","tags":{"craft":"winery","name":"Rust en Vrede","phone":"+27 21 881 3881","tourism":"wine_cellar","website":"https://rustenvrede.com/"}}},{"type":"Feature","id":"node/2706874896","geometry":{"type":"Point","coordinates":[18.98201,-34.19301]},"properties":{"osm_type":"node","osm_id":2706874896,"category":"vineyard","name":"Lothian Vineyards","tags":{"landuse":"vineyard","name":"Lothian Vineyards"}}},{"type":"Feature","id":"node/3128013368","geometry":{"type":"Point","coordinates":[18.9681,-33.88531]},"properties":{"osm_type":"node","osm_id":3128013368,"category":"winery","name":"Boschendal","wikidata":"Q390505","wikipedia":"en:Boschendal","tags":{"craft":"winery","name":"Boschendal","website":"https://boschendalwines.com/","wikidata":"Q390505","wikipedia":"en:Boschendal"}}},{"type":"Feature","id":"node/3128013369","geometry":{"type":"Point","coordinates":[18.745,-33.943]},"properties":{"osm_type":"node","osm_id":3128013369,"category":"winery","name":"Jordan","tags":{"craft":"winery","name":"Jordan","website":"https://www.jordanwines.com/"}}},{"type":"Feature","id":"node/3185322964","geometry":{"type":"Point","coordinates":[18.4097,-33.48347]},"properties":{"osm_type":"node","osm_id":3185322964,"category":"winery","name":"Groote Post Wine Estate","tags":{"craft":"winery","email":"wine@grootepost.co.za","name":"Groote Post Wine Estate","opening_hours":"Mo-Su 10:00-16:00","phone":"+27 22 492 2825","shop":"wine"}}},{"type":"Feature","id":"node/3185466125","geometry":{"type":"Point","coordinates":[18.88895,-33.81199]},"properties":{"osm_type":"node","osm_id":3185466125,"category":"winery","name":"Anura","tags":{"craft":"winery","name":"Anura","website":"https://www.anura.co.za/"}}},{"type":"Feature","id":"node/3185474559","geometry":{"type":"Point","coordinates":[18.82547,-33.87003]},"properties":{"osm_type":"node","osm_id":3185474559,"category":"winery","name":"Simonsig Estate","tags":{"craft":"winery","name":"Simonsig Estate","tourism":"attraction"}}},{"type":"Feature","id":"node/3195675708","geometry":{"type":"Point","coordinates":[18.83526,-33.97077]},"properties":{"osm_type":"node","osm_id":3195675708,"category":"winery","name":"Kleine Zalze","tags":{"alt_name":"Kleine Zalze Wine Estate","craft":"winery","name":"Kleine Zalze","website":"https://www.kleinezalze.co.za/"}}},{"type":"Feature","id":"node/3264787496","geometry":{"type":"Point","coordinates":[22.46904,-33.86372]},"properties":{"osm_type":"node","osm_id":3264787496,"category":"winery","name":"Herold Wines","tags":{"craft":"winery","name":"Herold Wines","website":"https://heroldwines.co.za/"}}},{"type":"Feature","id":"node/3361042703","geometry":{"type":"Point","coordinates":[18.9416,-33.91474]},"properties":{"osm_type":"node","osm_id":3361042703,"category":"winery","name":"Molenvliet","tags":{"craft":"winery","name":"Molenvliet","website":"https://molenvliet.co.za/wine/"}}},{"type":"Feature","id":"node/3361042706","geometry":{"type":"Point","coordinates":[18.93552,-33.91302]},"properties":{"osm_type":"node","osm_id":3361042706,"category":"winery","name":"Zorgvliet","tags":{"craft":"winery","name":"Zorgvliet","website":"https://zorgvliet.com/about-our-wines/"}}},{"type":"Feature","id":"node/3361042707","geometry":{"type":"Point","coordinates":[18.92853,-33.9187]},"properties":{"osm_type":"node","osm_id":3361042707,"category":"winery","name":"Le Pommier","tags":{"craft":"winery","name":"Le Pommier","website":"https://www.lepommier.co.za/"}}},{"type":"Feature","id":"node/3361042710","geometry":{"type":"Point","coordinates":[18.93065,-33.91835]},"properties":{"osm_type":"node","osm_id":3361042710,"category":"winery","name":"Bartinney Private Cellar","tags":{"craft":"winery","name":"Bartinney Private Cellar"}}},{"type":"Feature","id":"node/3361042711","geometry":{"type":"Point","coordinates":[18.93226,-33.91896]},"properties":{"osm_type":"node","osm_id":3361042711,"category":"winery","name":"Camberley Wines","tags":{"craft":"winery","name":"Camberley Wines"}}},{"type":"Feature","id":"node/3609215644","geometry":{"type":"Point","coordinates":[18.85065,-33.93517]},"properties":{"osm_type":"node","osm_id":3609215644,"category":"wine_shop","name":"De Bergkelder","tags":{"name":"De Bergkelder","shop":"wine"}}},{"type":"Feature","id":"node/4071126082","geometry":{"type":"Point","coordinates":[19.87848,-33.80887]},"properties":{"osm_type":"node","osm_id":4071126082,"category":"wine_shop","name":"La Verne","tags":{"addr:street":"Voortrekker Avenue","name":"La Verne","phone":"+27236264314","shop":"wine","website":"https://www.lavernewines.co.za/"}}},{"type":"Feature","id":"node/4072892011","geometry":{"type":"Point","coordinates":[19.87953,-33.80898]},"properties":{"osm_type":"node","osm_id":4072892011,"category":"winery","name":"Roodezandt","tags":{"addr:city":"Robertson","addr:postcode":"6705","addr:street":"Voortrekker Avenue","craft":"winery","name":"Roodezandt"}}},{"type":"Feature","id":"node/4072892012","geometry":{"type":"Point","coordinates":[19.88073,-33.8102]},"properties":{"osm_type":"node","osm_id":4072892012,"category":"winery","name":"Robertson","tags":{"addr:city":"Robertson","addr:postcode":"6705","addr:street":"Voortrekker Avenue","craft":"winery","name":"Robertson"}}},{"type":"Feature","id":"node/4087697601","geometry":{"type":"Point","coordinates":[19.91571,-33.83695]},"properties":{"osm_type":"node","osm_id":4087697601,"category":"winery","name":"Springfield","tags":{"addr:city":"Robertson","addr:postcode":"6705","alt_name":"Springfield Estate","craft":"winery","name":"Springfield","phone":"+27 236263661","website":"https://springfieldestate.com/"}}},{"type":"Feature","id":"node/4087697603","geometry":{"type":"Point","coordinates":[19.96717,-33.83829]},"properties":{"osm_type":"node","osm_id":4087697603,"category":"winery","name":"Rietvallei","tags":{"addr:city":"Robertson","addr:postcode":"6705","craft":"winery","name":"Rietvallei","phone":"+27 236263596"}}},{"type":"Feature","id":"node/4087697604","geometry":{"type":"Point","coordinates":[19.98622,-33.86885]},"properties":{"osm_type":"node","osm_id":4087697604,"category":"winery","name":"Viljoensdrift","tags":{"addr:city":"Robertson","addr:postcode":"6705","craft":"winery","name":"Viljoensdrift","phone":"+27 236261901"}}},{"type":"Feature","id":"node/4087697607","geometry":{"type":"Point","coordinates":[20.00968,-33.87755]},"properties":{"osm_type":"node","osm_id":4087697607,"category":"winery","name":"De Wetshof","tags":{"addr:city":"Robertson","addr:postcode":"6705","craft":"winery","name":"De Wetshof"}}},{"type":"Feature","id":"node/4087697610","geometry":{"type":"Point","coordinates":[20.0081,-33.85608]},"properties":{"osm_type":"node","osm_id":4087697610,"category":"winery","name":"Excelsior","tags":{"addr:city":"Robertson","addr:postcode":"6705","craft":"winery","name":"Excelsior","phone":"+27 236261980"}}},{"type":"Feature","id":"node/4087697627","geometry":{"type":"Point","coordinates":[20.10194,-33.9578]},"properties":{"osm_type":"node","osm_id":4087697627,"category":"winery","name":"Bonnievale","tags":{"addr:city":"Bonnievale","craft":"winery","name":"Bonnievale"}}},{"type":"Feature","id":"node/4087697629","geometry":{"type":"Point","coordinates":[20.10954,-33.9378]},"properties":{"osm_type":"node","osm_id":4087697629,"category":"wine_shop","name":"Timjan","tags":{"addr:city":"Bonnievale","name":"Timjan","shop":"wine"}}},{"type":"Feature","id":"node/4087697630","geometry":{"type":"Point","coordinates":[20.10627,-33.93857]},"properties":{"osm_type":"node","osm_id":4087697630,"category":"winery","name":"Van Zylshof","tags":{"addr:city":"Bonnievale","craft":"winery","name":"Van Zylshof"}}},{"type":"Feature","id":"node/4087987947","geometry":{"type":"Point","coordinates":[19.87409,-33.80628]},"properties":{"osm_type":"node","osm_id":4087987947,"category":"wine_shop","name":"KWV","tags":{"addr:city":"Robertson","addr:postcode":"6705","name":"KWV","shop":"wine"}}},{"type":"Feature","id":"node/4142785801","geometry":{"type":"Point","coordinates":[18.89173,-33.73946]},"properties":{"osm_type":"node","osm_id":4142785801,"category":"wine_cellar","name":"Black Pearl","tags":{"name":"Black Pearl","tourism":"wine_cellar"}}},{"type":"Feature","id":"node/4142785802","geometry":{"type":"Point","coordinates":[18.95523,-33.68873]},"properties":{"osm_type":"node","osm_id":4142785802,"category":"wine_cellar","name":"Boland Kelder","tags":{"name":"Boland Kelder","tourism":"wine_cellar"}}},{"type":"Feature","id":"node/4142785804","geometry":{"type":"Point","coordinates":[18.94999,-33.69127]},"properties":{"osm_type":"node","osm_id":4142785804,"category":"wine_cellar","name":"Eureka","tags":{"name":"Eureka","tourism":"wine_cellar"}}},{"type":"Feature","id":"node/4142785807","geometry":{"type":"Point","coordinates":[18.9476,-33.84937]},"properties":{"osm_type":"node","osm_id":4142785807,"category":"wine_cellar","name":"Plaisir de Merle","tags":{"name":"Plaisir de Merle","tourism":"wine_cellar"}}},{"type":"Feature","id":"node/4227032753","geometry":{"type":"Point","coordinates":[19.19508,-33.51916]},"properties":{"osm_type":"node","osm_id":4227032753,"category":"winery","name":"Bergsig","tags":{"craft":"winery","name":"Bergsig","website":"https://bergsig.co.za/"}}},{"type":"Feature","id":"node/4230413893","geometry":{"type":"Point","coordinates":[19.06376,-33.88142]},"properties":{"osm_type":"node","osm_id":4230413893,"category":"winery","name":"Eikehof","tags":{"craft":"winery","name":"Eikehof","website":"https://eikehof.com/"}}},{"type":"Feature","id":"node/4321272427","geometry":{"type":"Point","coordinates":[18.86421,-33.84054]},"properties":{"osm_type":"node","osm_id":4321272427,"category":"winery","name":"Warwick","tags":{"craft":"winery","name":"Warwick","website":"https://www.warwickwine.com/"}}},{"type":"Feature","id":"node/4342431996","geometry":{"type":"Point","coordinates":[18.90204,-33.68678]},"properties":{"osm_type":"node","osm_id":4342431996,"category":"wine_cellar","name":"Crows Nest","tags":{"name":"Crows Nest","tourism":"wine_cellar"}}},{"type":"Feature","id":"node/4352361399","geometry":{"type":"Point","coordinates":[18.79188,-33.89873]},"properties":{"osm_type":"node","osm_id":4352361399,"category":"wine_shop","name":"Hartenberg Estate","tags":{"name":"Hartenberg Estate","shop":"wine"}}},{"type":"Feature","id":"node/4381866912","geometry":{"type":"Point","coordinates":[19.99885,-33.79841]},"properties":{"osm_type":"node","osm_id":4381866912,"category":"winery","name":"Kranskop","tags":{"craft":"winery","name":"Kranskop","operator":"Kranskop","phone":"+27 236263200","website":"www.kraskopwines.co.za"}}},{"type":"Feature","id":"node/4381896220","geometry":{"type":"Point","coordinates":[20.00478,-33.92049]},"properties":{"osm_type":"node","osm_id":4381896220,"category":"winery","name":"Goedverwacht","tags":{"craft":"winery","name":"Goedverwacht","operator":"Goedverwacht","phone":"+27 236163430","website":"https://www.goedverwacht.co.za/"}}},{"type":"Feature","id":"node/4381896222","geometry":{"type":"Point","coordinates":[20.05196,-33.94182]},"properties":{"osm_type":"node","osm_id":4381896222,"category":"winery","name":"Weltevrede","tags":{"craft":"winery","name":"Weltevrede","operator":"Weltevrede","phone":"+27 236162141","website":"https://www.weltevrede.com/"}}},{"type":"Feature","id":"node/4382961798","geometry":{"type":"Point","coordinates":[20.0304,-33.83672]},"properties":{"osm_type":"node","osm_id":4382961798,"category":"winery","name":"Ashton","tags":{"alt_name":"Ashton Winery","craft":"winery","name":"Ashton","phone":"+27 236151135","website":"https://www.ashtonwinery.com/"}}},{"type":"Feature","id":"node/4492238121","geometry":{"type":"Point","coordinates":[18.51677,-31.65266]},"properties":{"osm_type":"node","osm_id":4492238121,"category":"winery","name":"Vredendal Keldery","tags":{"craft":"winery","name":"Vredendal Keldery"}}},{"type":"Feature","id":"node/4519278192","geometry":{"type":"Point","coordinates":[18.84962,-33.99796]},"properties":{"osm_type":"node","osm_id":4519278192,"category":"winery","name":"Bilton Wineries","tags":{"craft":"winery","name":"Bilton Wineries"}}},{"type":"Feature","id":"node/4608590820","geometry":{"type":"Point","coordinates":[19.22815,-33.63882]},"properties":{"osm_type":"node","osm_id":4608590820,"category":"winery","name":"Opstal","tags":{"craft":"winery","name":"Opstal","name:en":"Opstal","opening_hours":"Mo-Fr 09:00-17:00; Sa 11:00-16:00; Su 12:00-15:00","website":"https://opstal.co.za/"}}},{"type":"Feature","id":"node/4608590893","geometry":{"type":"Point","coordinates":[19.22844,-33.66488]},"properties":{"osm_type":"node","osm_id":4608590893,"category":"winery","name":"Jason's Hill","tags":{"craft":"winery","name":"Jason's Hill","name:en":"Jason's Hill","website":"https://www.jasonshill.co.za/"}}},{"type":"Feature","id":"node/4689665795","geometry":{"type":"Point","coordinates":[18.45487,-33.9275]},"properties":{"osm_type":"node","osm_id":4689665795,"category":"wine_shop","name":"What If The World","tags":{"addr:housenumber":"1","addr:postcode":"7915","addr:street":"Argyle Street","name":"What If The World","name:en":"What If The World","opening_hours":"Tu-Fr 09:30-17:00; Sa 09:30-14:00","shop":"wine"}}},{"type":"Feature","id":"node/4696794792","geometry":{"type":"Point","coordinates":[21.68667,-33.53931]},"properties":{"osm_type":"node","osm_id":4696794792,"category":"wine_shop","name":"Calitzdorp Cellar","tags":{"name":"Calitzdorp Cellar","name:en":"Calitzdorp Cellar","shop":"wine"}}},{"type":"Feature","id":"node/4753933822","geometry":{"type":"Point","coordinates":[28.06856,-26.13367]},"properties":{"osm_type":"node","osm_id":4753933822,"category":"wine_shop","name":"winesense","tags":{"name":"winesense","name:en":"winesense","shop":"wine"}}},{"type":"Feature","id":"node/4790890843","geometry":{"type":"Point","coordinates":[19.48264,-34.56603]},"properties":{"osm_type":"node","osm_id":4790890843,"category":"winery","name":"Lomond Wines","tags":{"craft":"winery","name":"Lomond Wines"}}},{"type":"Feature","id":"node/4791948434","geometry":{"type":"Point","coordinates":[19.45744,-33.63577]},"properties":{"osm_type":"node","osm_id":4791948434,"category":"winery","name":"Cape Winelands","tags":{"craft":"winery","name":"Cape Winelands"}}},{"type":"Feature","id":"node/4796944221","geometry":{"type":"Point","coordinates":[19.03133,-34.2123]},"properties":{"osm_type":"node","osm_id":4796944221,"category":"wine_shop","name":"Almenkerk Wine Estate","tags":{"name":"Almenkerk Wine Estate","name:en":"Almenkerk Wine Estate","shop":"wine"}}},{"type":"Feature","id":"node/4803070321","geometry":{"type":"Point","coordinates":[19.32669,-34.33102]},"properties":{"osm_type":"node","osm_id":4803070321,"category":"wine_shop","name":"Creations Vinery","tags":{"name":"Creations Vinery","name:en":"Creations Vinery","shop":"wine"}}},{"type":"Feature","id":"node/4984691021","geometry":{"type":"Point","coordinates":[19.25524,-34.36751]},"properties":{"osm_type":"node","osm_id":4984691021,"category":"wine_shop","name":"Suma Ridge Winery","tags":{"name":"Suma Ridge Winery","name:en":"Suma Ridge Winery","shop":"wine"}}},{"type":"Feature","id":"node/5053553978","geometry":{"type":"Point","coordinates":[19.26885,-33.66117]},"properties":{"osm_type":"node","osm_id":5053553978,"category":"winery","name":"Badsberg","tags":{"craft":"winery","name":"Badsberg","phone":"+27 233443021","website":"https://www.badsberg.co.za/"}}},{"type":"Feature","id":"node/5091655455","geometry":{"type":"Point","coordinates":[18.97877,-33.7575]},"properties":{"osm_type":"node","osm_id":5091655455,"category":"winery","name":"Kaapse Familie Winery","tags":{"craft":"winery","name":"Kaapse Familie Winery"}}},{"type":"Feature","id":"node/5103544422","geometry":{"type":"Point","coordinates":[18.80085,-33.9602]},"properties":{"osm_type":"node","osm_id":5103544422,"category":"winery","name":"Stellenbosch Hills Winery","tags":{"addr:street":"Vlottenburg Road","craft":"winery","name":"Stellenbosch Hills Winery","website":"https://stellenbosch-hills.co.za/"}}},{"type":"Feature","id":"node/5110672222","geometry":{"type":"Point","coordinates":[18.76857,-33.99166]},"properties":{"osm_type":"node","osm_id":5110672222,"category":"winery","name":"Stellenbosch Vinyards","tags":{"addr:street":"Baden Powell Drive","craft":"winery","name":"Stellenbosch Vinyards","website":"https://stellenboschvineyards.co.za/"}}},{"type":"Feature","id":"node/5116500825","geometry":{"type":"Point","coordinates":[19.24318,-34.3906]},"properties":{"osm_type":"node","osm_id":5116500825,"category":"winery","name":"Hamilton Russel","tags":{"craft":"winery","name":"Hamilton Russel","website":"https://hamiltonrussellvineyards.com/"}}},{"type":"Feature","id":"node/5306268426","geometry":{"type":"Point","coordinates":[19.12854,-33.91425]},"properties":{"osm_type":"node","osm_id":5306268426,"category":"winery","name":"Le Lude","tags":{"craft":"winery","name":"Le Lude","website":"https://lelude.co.za/"}}},{"type":"Feature","id":"node/5323445424","geometry":{"type":"Point","coordinates":[19.62413,-34.39858]},"properties":{"osm_type":"node","osm_id":5323445424,"category":"winery","name":"Raka","tags":{"alt_name":"Raka Winery","craft":"winery","name":"Raka","phone":"+27 283410676","website":"http://www.rakawine.co.za"}}},{"type":"Feature","id":"node/5350688843","geometry":{"type":"Point","coordinates":[21.69569,-33.53073]},"properties":{"osm_type":"node","osm_id":5350688843,"category":"wine_shop","name":"TTT Cellar","tags":{"man_made":"cellar_entrance","name":"TTT Cellar","shop":"wine"}}},{"type":"Feature","id":"node/5488238100","geometry":{"type":"Point","coordinates":[20.01048,-33.84091]},"properties":{"osm_type":"node","osm_id":5488238100,"category":"winery","name":"Arabella","tags":{"craft":"winery","name":"Arabella"}}},{"type":"Feature","id":"node/5585143038","geometry":{"type":"Point","coordinates":[18.82347,-34.01283]},"properties":{"osm_type":"node","osm_id":5585143038,"category":"winery","name":"Eikendal Winery","tags":{"craft":"winery","name":"Eikendal Winery"}}},{"type":"Feature","id":"node/5672169621","geometry":{"type":"Point","coordinates":[18.80222,-33.94085]},"properties":{"osm_type":"node","osm_id":5672169621,"category":"winery","name":"Neethlingshof","tags":{"craft":"winery","name":"Neethlingshof","website":"https://www.neethlingshof.co.za/"}}},{"type":"Feature","id":"node/5784211593","geometry":{"type":"Point","coordinates":[18.42898,-34.19301]},"properties":{"osm_type":"node","osm_id":5784211593,"category":"wine_shop","name":"The Lord Nelson Cellars","tags":{"name":"The Lord Nelson Cellars","shop":"wine"}}},{"type":"Feature","id":"node/5854059085","geometry":{"type":"Point","coordinates":[18.75704,-34.01699]},"properties":{"osm_type":"node","osm_id":5854059085,"category":"winery","name":"Meerlust","tags":{"alt_name":"Meerlust Wine Estate","craft":"winery","name":"Meerlust","shop":"wine","website":"https://www.meerlust.co.za/"}}},{"type":"Feature","id":"node/5942405416","geometry":{"type":"Point","coordinates":[19.11326,-33.23816]},"properties":{"osm_type":"node","osm_id":5942405416,"category":"winery","name":"Krone Twee Jonge Gezellen","tags":{"craft":"winery","name":"Krone Twee Jonge Gezellen"}}},{"type":"Feature","id":"node/5942406665","geometry":{"type":"Point","coordinates":[19.11737,-33.24632]},"properties":{"osm_type":"node","osm_id":5942406665,"category":"winery","name":"Saronsberg Winery","tags":{"craft":"winery","name":"Saronsberg Winery"}}},{"type":"Feature","id":"node/5942517516","geometry":{"type":"Point","coordinates":[19.10678,-33.30235]},"properties":{"osm_type":"node","osm_id":5942517516,"category":"winery","name":"Lemberg Wine Estate","tags":{"craft":"winery","name":"Lemberg Wine Estate"}}},{"type":"Feature","id":"node/6049446285","geometry":{"type":"Point","coordinates":[18.83913,-34.00032]},"properties":{"osm_type":"node","osm_id":6049446285,"category":"wine_shop","name":"Peter Falke wine tastery","tags":{"name":"Peter Falke wine tastery","shop":"wine"}}},{"type":"Feature","id":"node/6071265285","geometry":{"type":"Point","coordinates":[19.13634,-33.91453]},"properties":{"osm_type":"node","osm_id":6071265285,"category":"winery","name":"Haute Cabrière","tags":{"addr:street":"Lambrechts Road","craft":"winery","name":"Haute Cabrière","name:en":"Haute Cabriere","phone":"+27 21 876 8500","website":"https://cabriere.co.za"}}},{"type":"Feature","id":"node/6074061485","geometry":{"type":"Point","coordinates":[19.11426,-33.93776]},"properties":{"osm_type":"node","osm_id":6074061485,"category":"winery","name":"Holden Manz","tags":{"craft":"winery","name":"Holden Manz","website":"https://holdenmanz.com/"}}},{"type":"Feature","id":"node/6075772685","geometry":{"type":"Point","coordinates":[18.7424,-33.94223]},"properties":{"osm_type":"node","osm_id":6075772685,"category":"wine_shop","name":"Jordan Wine Estate","tags":{"name":"Jordan Wine Estate","shop":"wine"}}},{"type":"Feature","id":"node/6077417985","geometry":{"type":"Point","coordinates":[18.93233,-33.91879]},"properties":{"osm_type":"node","osm_id":6077417985,"category":"wine_shop","name":"Camber","tags":{"name":"Camber","name:en":"Camberley Wines","shop":"wine"}}},{"type":"Feature","id":"node/6113994085","geometry":{"type":"Point","coordinates":[19.05906,-33.87878]},"properties":{"osm_type":"node","osm_id":6113994085,"category":"winery","name":"Paserene","tags":{"craft":"winery","name":"Paserene","name:en":"Paserene","website":"https://paserene.com/"}}},{"type":"Feature","id":"node/6113994086","geometry":{"type":"Point","coordinates":[19.05611,-34.23829]},"properties":{"osm_type":"node","osm_id":6113994086,"category":"wine_shop","name":"Spioenkop Winery","tags":{"name":"Spioenkop Winery","shop":"wine"}}},{"type":"Feature","id":"node/6113994087","geometry":{"type":"Point","coordinates":[19.07844,-34.23733]},"properties":{"osm_type":"node","osm_id":6113994087,"category":"wine_shop","name":"Charles Fox Cap Classique","tags":{"name":"Charles Fox Cap Classique","shop":"wine"}}},{"type":"Feature","id":"node/6116701685","geometry":{"type":"Point","coordinates":[18.89028,-33.39423]},"properties":{"osm_type":"node","osm_id":6116701685,"category":"wine_shop","name":"Kloovenburg Wine & Olive Estate","tags":{"name":"Kloovenburg Wine & Olive Estate","name:af":"kloovenburg wyn & olyf plaats","phone":"+27 22 448 1635","shop":"wine","website":"https://kloovenburg.com/"}}},{"type":"Feature","id":"node/6122012685","geometry":{"type":"Point","coordinates":[19.12152,-33.90195]},"properties":{"osm_type":"node","osm_id":6122012685,"category":"wine_shop","name":"Black Elephant Vintners","tags":{"name":"Black Elephant Vintners","shop":"wine"}}},{"type":"Feature","id":"node/6123168426","geometry":{"type":"Point","coordinates":[19.10619,-33.30233]},"properties":{"osm_type":"node","osm_id":6123168426,"category":"wine_shop","name":"Lemberg","tags":{"name":"Lemberg","shop":"wine"}}},{"type":"Feature","id":"node/6169972125","geometry":{"type":"Point","coordinates":[28.01681,-26.12817]},"properties":{"osm_type":"node","osm_id":6169972125,"category":"winery","name":"Gerakaris Family WInes","tags":{"craft":"winery","name":"Gerakaris Family WInes"}}},{"type":"Feature","id":"node/6222432285","geometry":{"type":"Point","coordinates":[19.10961,-33.93255]},"properties":{"osm_type":"node","osm_id":6222432285,"category":"wine_shop","name":"La Bri","tags":{"name":"La Bri","shop":"wine"}}},{"type":"Feature","id":"node/6466260785","geometry":{"type":"Point","coordinates":[18.35648,-33.37237]},"properties":{"osm_type":"node","osm_id":6466260785,"category":"wine_shop","name":"Olive Wine Shop and Tasting","tags":{"name":"Olive Wine Shop and Tasting","shop":"wine"}}},{"type":"Feature","id":"node/6472234374","geometry":{"type":"Point","coordinates":[19.78893,-33.74251]},"properties":{"osm_type":"node","osm_id":6472234374,"category":"winery","name":"Orange Grove Farm Reception Office","tags":{"addr:city":"Robertson","addr:postcode":"6705","addr:street":"Noree","craft":"winery","email":"reservations@ogf1812.co.za","name":"Orange Grove Farm Reception Office","website":"https://www.orangegrovefarm.co.za/"}}},{"type":"Feature","id":"node/6551100393","geometry":{"type":"Point","coordinates":[19.4653,-34.43817]},"properties":{"osm_type":"node","osm_id":6551100393,"category":"winery","name":"Walker Bay","tags":{"craft":"winery","name":"Walker Bay"}}},{"type":"Feature","id":"node/6562432574","geometry":{"type":"Point","coordinates":[18.98595,-33.85876]},"properties":{"osm_type":"node","osm_id":6562432574,"category":"winery","name":"Allee Bleue Estate","tags":{"addr:city":"Groot Drakenstein","addr:postcode":"7680","addr:street":"Allée Bleue Avenue","craft":"winery","name":"Allee Bleue Estate"}}},{"type":"Feature","id":"node/6562500977","geometry":{"type":"Point","coordinates":[18.98648,-33.85863]},"properties":{"osm_type":"node","osm_id":6562500977,"category":"wine_shop","name":"Tasting room","tags":{"name":"Tasting room","shop":"wine"}}},{"type":"Feature","id":"node/6690722599","geometry":{"type":"Point","coordinates":[18.80784,-33.8876]},"properties":{"osm_type":"node","osm_id":6690722599,"category":"winery","name":"Casa Mori","tags":{"addr:city":"Stellenbosch","addr:postcode":"7605","addr:street":"Blumberg Drive, Devonvale","craft":"winery","email":"casamoricucina@gmail.com","name":"Casa Mori","website":"https://casamori.co.za/"}}},{"type":"Feature","id":"node/6976791285","geometry":{"type":"Point","coordinates":[18.7929,-33.83707]},"properties":{"osm_type":"node","osm_id":6976791285,"category":"wine_shop","name":"Villiera wines","tags":{"name":"Villiera wines","shop":"wine"}}},{"type":"Feature","id":"node/7016692385","geometry":{"type":"Point","coordinates":[19.1178,-33.92211]},"properties":{"osm_type":"node","osm_id":7016692385,"category":"winery","name":"La Bri","tags":{"craft":"winery","name":"La Bri","website":"https://labri.co.za/"}}},{"type":"Feature","id":"node/7016692386","geometry":{"type":"Point","coordinates":[19.08151,-33.91609]},"properties":{"osm_type":"node","osm_id":7016692386,"category":"winery","name":"Glenwood","tags":{"craft":"winery","name":"Glenwood","website":"https://www.glenwoodvineyards.co.za/"}}},{"type":"Feature","id":"node/7016692485","geometry":{"type":"Point","coordinates":[19.11996,-33.92573]},"properties":{"osm_type":"node","osm_id":7016692485,"category":"winery","name":"Deux Lions","tags":{"craft":"winery","name":"Deux Lions","website":"https://deuxlions.za.com/"}}},{"type":"Feature","id":"node/7058665478","geometry":{"type":"Point","coordinates":[19.58888,-33.68547]},"properties":{"osm_type":"node","osm_id":7058665478,"category":"winery","name":"Nuy Winery","tags":{"craft":"winery","name":"Nuy Winery"}}},{"type":"Feature","id":"node/7058665479","geometry":{"type":"Point","coordinates":[19.73955,-33.76111]},"properties":{"osm_type":"node","osm_id":7058665479,"category":"winery","name":"Le Roux & Fourie Vignerons","tags":{"craft":"winery","name":"Le Roux & Fourie Vignerons"}}},{"type":"Feature","id":"node/7138919686","geometry":{"type":"Point","coordinates":[21.71876,-33.98554]},"properties":{"osm_type":"node","osm_id":7138919686,"category":"winery","name":"Jakkalsvlei","tags":{"craft":"winery","email":"info@jakkalsvlei.co.za","name":"Jakkalsvlei","website":"https://jakkalsvlei.co.za/"}}},{"type":"Feature","id":"node/7314725884","geometry":{"type":"Point","coordinates":[18.8058,-33.89452]},"properties":{"osm_type":"node","osm_id":7314725884,"category":"winery","name":"Kunjani Wines","tags":{"amenity":"restaurant","craft":"winery","name":"Kunjani Wines","website":"https://kunjaniwines.co.za/"}}},{"type":"Feature","id":"node/8058363605","geometry":{"type":"Point","coordinates":[18.86684,-33.87818]},"properties":{"osm_type":"node","osm_id":8058363605,"category":"winery","name":"Quoin Rock","tags":{"addr:city":"Stellenbosch","addr:postcode":"7600","addr:street":"Knorhoek road","craft":"winery","name":"Quoin Rock","opening_hours":"Mo-Su 09:00-18:00","phone":"+27218884740","website":"https://www.quoinrock.co.za/"}}},{"type":"Feature","id":"node/8058363607","geometry":{"type":"Point","coordinates":[18.87179,-33.87911]},"properties":{"osm_type":"node","osm_id":8058363607,"category":"winery","name":"Knorhoek","tags":{"craft":"winery","name":"Knorhoek","website":"https://www.knorhoek.co.za/"}}},{"type":"Feature","id":"node/8227906538","geometry":{"type":"Point","coordinates":[19.10721,-33.91513]},"properties":{"osm_type":"node","osm_id":8227906538,"category":"winery","name":"Mont Rochelle","tags":{"craft":"winery","name":"Mont Rochelle","website":"https://www.virginlimitededition.com/mont-rochelle/the-winery/"}}},{"type":"Feature","id":"node/8658930400","geometry":{"type":"Point","coordinates":[18.8055,-33.52512]},"properties":{"osm_type":"node","osm_id":8658930400,"category":"wine_shop","name":"Lammershoek Winery","tags":{"name":"Lammershoek Winery","opening_hours":"Mo-Fr 09:00-16:30","phone":"+27 22 48 22 835","shop":"wine","website":"https://www.lammershoek.co.za/"}}},{"type":"Feature","id":"node/8685624660","geometry":{"type":"Point","coordinates":[19.23009,-33.52844]},"properties":{"osm_type":"node","osm_id":8685624660,"category":"winery","name":"Seven Oaks","tags":{"craft":"winery","name":"Seven Oaks","opening_hours":"We-Fr 10:00-15:00; Sa 10:00-14:00; Su 10:00-13:00","phone":"+27 83 639 0405","website":"https://sevenoaks.co.za"}}},{"type":"Feature","id":"node/8809683219","geometry":{"type":"Point","coordinates":[19.02424,-33.88187]},"properties":{"osm_type":"node","osm_id":8809683219,"category":"wine_shop","name":"Anthonij Rupert Winery","tags":{"name":"Anthonij Rupert Winery","shop":"wine"}}},{"type":"Feature","id":"node/9074159477","geometry":{"type":"Point","coordinates":[19.21737,-34.39925]},"properties":{"osm_type":"node","osm_id":9074159477,"category":"winery","name":"Bartho Eksteen","tags":{"craft":"winery","name":"Bartho Eksteen","opening_hours":"Mo-Sa 10:00-16:00","website":"https://barthoeksteen.co.za/"}}},{"type":"Feature","id":"node/9482060164","geometry":{"type":"Point","coordinates":[18.23306,-31.8163]},"properties":{"osm_type":"node","osm_id":9482060164,"category":"winery","name":"Fryer's Cove Vineyard","tags":{"craft":"winery","name":"Fryer's Cove Vineyard"}}},{"type":"Feature","id":"node/9500128417","geometry":{"type":"Point","coordinates":[18.89623,-33.38355]},"properties":{"osm_type":"node","osm_id":9500128417,"category":"wine_shop","name":"The Wine Collective","tags":{"name":"The Wine Collective","shop":"wine"}}},{"type":"Feature","id":"node/9575558216","geometry":{"type":"Point","coordinates":[18.45857,-33.93175]},"properties":{"osm_type":"node","osm_id":9575558216,"category":"wine_shop","name":"Cultivate","tags":{"addr:street":"Yew Street","name":"Cultivate","shop":"wine","website":"https://cultivatecollective.co.za/"}}},{"type":"Feature","id":"node/11127595005","geometry":{"type":"Point","coordinates":[18.93246,-33.92623]},"properties":{"osm_type":"node","osm_id":11127595005,"category":"wine_shop","name":"Bartinney","tags":{"name":"Bartinney","shop":"wine"}}},{"type":"Feature","id":"node/11277015324","geometry":{"type":"Point","coordinates":[20.00841,-33.85614]},"properties":{"osm_type":"node","osm_id":11277015324,"category":"wine_shop","name":"Taste@Excelsior","tags":{"name":"Taste@Excelsior","shop":"wine"}}},{"type":"Feature","id":"node/11450026069","geometry":{"type":"Point","coordinates":[19.0463,-34.15475]},"properties":{"osm_type":"node","osm_id":11450026069,"category":"wine_shop","tags":{"name:nl":"Oak Valley Wine Estate","shop":"wine"}}},{"type":"Feature","id":"node/11627048694","geometry":{"type":"Point","coordinates":[18.73336,-33.44916]},"properties":{"osm_type":"node","osm_id":11627048694,"category":"winery","name":"Renosterbos winery","tags":{"craft":"winery","name":"Renosterbos winery"}}},{"type":"Feature","id":"node/11754844170","geometry":{"type":"Point","coordinates":[18.89359,-33.8329]},"properties":{"osm_type":"node","osm_id":11754844170,"category":"winery","name":"Marianne","tags":{"craft":"winery","name":"Marianne","website":"http://www.mariannewines.com/"}}},{"type":"Feature","id":"node/11765598454","geometry":{"type":"Point","coordinates":[18.88866,-34.07176]},"properties":{"osm_type":"node","osm_id":11765598454,"category":"winery","name":"Lourensford Wine Estate","tags":{"addr:city":"Somerset West","addr:postcode":"7130","addr:street":"Lourensford Road","craft":"winery","name":"Lourensford Wine Estate","phone":"+27 21 847 2300","website":"https://lourensford.co.za/"}}},{"type":"Feature","id":"node/11909716174","geometry":{"type":"Point","coordinates":[18.86819,-33.93828]},"properties":{"osm_type":"node","osm_id":11909716174,"category":"wine_shop","name":"Saltare","tags":{"name":"Saltare","shop":"wine","website":"https://www.saltare.online/"}}},{"type":"Feature","id":"node/12031045871","geometry":{"type":"Point","coordinates":[18.88913,-34.09893]},"properties":{"osm_type":"node","osm_id":12031045871,"category":"winery","name":"Waterkloof Wine Estate","tags":{"craft":"winery","email":"sales@waterkloofwines.co.za","name":"Waterkloof Wine Estate","phone":"+27 21 858 1292","website":"https://www.waterkloofwines.co.za"}}},{"type":"Feature","id":"node/12091947717","geometry":{"type":"Point","coordinates":[18.81026,-34.02847]},"properties":{"osm_type":"node","osm_id":12091947717,"category":"winery","name":"Waterhof","tags":{"craft":"winery","name":"Waterhof"}}},{"type":"Feature","id":"node/12091947718","geometry":{"type":"Point","coordinates":[18.80561,-34.02952]},"properties":{"osm_type":"node","osm_id":12091947718,"category":"winery","name":"Helderberg Wijnmakerij","tags":{"craft":"winery","name":"Helderberg Wijnmakerij","phone":"+27 21 842 2371"}}},{"type":"Feature","id":"node/12098770525","geometry":{"type":"Point","coordinates":[22.38256,-33.95864]},"properties":{"osm_type":"node","osm_id":12098770525,"category":"winery","name":"Booplaas Wine & Whiskey","tags":{"craft":"winery","name":"Booplaas Wine & Whiskey"}}},{"type":"Feature","id":"node/12105816984","geometry":{"type":"Point","coordinates":[18.879,-33.91792]},"properties":{"osm_type":"node","osm_id":12105816984,"category":"winery","name":"Glenelly Estate","tags":{"craft":"winery","name":"Glenelly Estate","website":"https://glenellyestate.com/"}}},{"type":"Feature","id":"node/12139776195","geometry":{"type":"Point","coordinates":[18.5744,-33.81852]},"properties":{"osm_type":"node","osm_id":12139776195,"category":"winery","name":"Klein Roosboom","tags":{"addr:city":"Durbanville, Cape Town","addr:postcode":"7551","addr:street":"Tygerberg Valley Road","craft":"winery","name":"Klein Roosboom","operator":"Klein Roosbom Boutique Winery","website":"https://kleinroosboom.co.za/"}}},{"type":"Feature","id":"node/12177957901","geometry":{"type":"Point","coordinates":[18.79771,-33.83493]},"properties":{"osm_type":"node","osm_id":12177957901,"category":"winery","name":"Koelenhof Winery","tags":{"craft":"winery","name":"Koelenhof Winery"}}},{"type":"Feature","id":"node/12177959901","geometry":{"type":"Point","coordinates":[18.79549,-33.83423]},"properties":{"osm_type":"node","osm_id":12177959901,"category":"winery","name":"Villiera Wines","tags":{"craft":"winery","name":"Villiera Wines"}}},{"type":"Feature","id":"node/12252832401","geometry":{"type":"Point","coordinates":[18.87746,-33.87007]},"properties":{"osm_type":"node","osm_id":12252832401,"category":"winery","name":"Muratie","tags":{"craft":"winery","name":"Muratie","website":"https://www.muratie.co.za/"}}},{"type":"Feature","id":"node/12384959647","geometry":{"type":"Point","coordinates":[19.31971,-33.69386]},"properties":{"osm_type":"node","osm_id":12384959647,"category":"winery","name":"Goudini Wine","tags":{"craft":"winery","name":"Goudini Wine"}}},{"type":"Feature","id":"node/12430661117","geometry":{"type":"Point","coordinates":[18.90024,-33.8317]},"properties":{"osm_type":"node","osm_id":12430661117,"category":"winery","name":"Neil Joubert Wines","tags":{"craft":"winery","name":"Neil Joubert Wines","shop":"wine"}}},{"type":"Feature","id":"node/12430849001","geometry":{"type":"Point","coordinates":[18.84189,-34.00596]},"properties":{"osm_type":"node","osm_id":12430849001,"category":"winery","name":"Webersburg Estate","tags":{"craft":"winery","name":"Webersburg Estate"}}},{"type":"Feature","id":"node/12443717936","geometry":{"type":"Point","coordinates":[19.59419,-34.57559]},"properties":{"osm_type":"node","osm_id":12443717936,"category":"winery","name":"The Giant Periwinkle","tags":{"craft":"winery","name":"The Giant Periwinkle"}}},{"type":"Feature","id":"node/12533908667","geometry":{"type":"Point","coordinates":[18.95373,-33.83768]},"properties":{"osm_type":"node","osm_id":12533908667,"category":"winery","name":"Vrede en Lust","wikidata":"Q5617424","tags":{"craft":"winery","name":"Vrede en Lust","website":"https://www.vnl.co.za/","wikidata":"Q5617424"}}},{"type":"Feature","id":"node/12534721622","geometry":{"type":"Point","coordinates":[18.63992,-33.80189]},"properties":{"osm_type":"node","osm_id":12534721622,"category":"winery","name":"Diemersdal","tags":{"craft":"winery","name":"Diemersdal","opening_hours":"Mo-Fr 09:00-17:00; Sa 09:00-17:00; Su 10:00-15:00","operator":"Diemersdal","phone":"+27 21 976 3361","website":"https://www.diemersdal.co.za/"}}},{"type":"Feature","id":"node/12534787403","geometry":{"type":"Point","coordinates":[19.04742,-33.62447]},"properties":{"osm_type":"node","osm_id":12534787403,"category":"winery","name":"Val Du Charron","tags":{"craft":"winery","name":"Val Du Charron","website":"https://vdcwines.co.za/drink/"}}},{"type":"Feature","id":"node/12535061492","geometry":{"type":"Point","coordinates":[18.89348,-33.93718]},"properties":{"osm_type":"node","osm_id":12535061492,"category":"winery","name":"Lanzerac","tags":{"craft":"winery","name":"Lanzerac","website":"https://lanzerac.co.za/our-wine-range/"}}},{"type":"Feature","id":"node/12535106895","geometry":{"type":"Point","coordinates":[18.40896,-34.01555]},"properties":{"osm_type":"node","osm_id":12535106895,"category":"winery","name":"Constantia Glen","tags":{"addr:postcode":"7806","addr:street":"Constantia Main Road","craft":"winery","name":"Constantia Glen","opening_hours":"Su-Th 10:30-18:00; Fr,Sa 10:30-21:00","operator":"Wine Estate","phone":"+27 21 795 5639","website":"https://constantiaglen.com/"}}},{"type":"Feature","id":"node/12535191961","geometry":{"type":"Point","coordinates":[18.79207,-33.8982]},"properties":{"osm_type":"node","osm_id":12535191961,"category":"winery","name":"Hartenberg","tags":{"craft":"winery","name":"Hartenberg","website":"https://hartenbergestate.com/"}}},{"type":"Feature","id":"node/12536100274","geometry":{"type":"Point","coordinates":[18.60106,-33.84025]},"properties":{"osm_type":"node","osm_id":12536100274,"category":"winery","name":"Bloemendal","wikidata":"Q131918629","tags":{"craft":"winery","name":"Bloemendal","website":"https://bloemendalestate.co.za/","wikidata":"Q131918629"}}},{"type":"Feature","id":"node/12537802201","geometry":{"type":"Point","coordinates":[18.41765,-34.03038]},"properties":{"osm_type":"node","osm_id":12537802201,"category":"winery","name":"Groot Constantia","wikidata":"Q2487774","wikipedia":"en:Groot Constantia","tags":{"addr:postcode":"7806","addr:street":"Groot Constantia Road","craft":"winery","name":"Groot Constantia","opening_hours":"Mo-Su 09:00-17:00","phone":"+27217945128","website":"https://grootconstantia.co.za/","wikidata":"Q2487774","wikipedia":"en:Groot Constantia"}}},{"type":"Feature","id":"node/12537874209","geometry":{"type":"Point","coordinates":[18.80889,-33.94247]},"properties":{"osm_type":"node","osm_id":12537874209,"category":"winery","name":"Asara","tags":{"craft":"winery","name":"Asara","website":"https://www.asara.co.za/"}}},{"type":"Feature","id":"node/12537903482","geometry":{"type":"Point","coordinates":[18.94735,-33.83741]},"properties":{"osm_type":"node","osm_id":12537903482,"category":"winery","name":"Rupert & Rothchild Vignerons","tags":{"craft":"winery","name":"Rupert & Rothchild Vignerons","website":"https://rupert-rothschildvignerons.com/"}}},{"type":"Feature","id":"node/12537996504","geometry":{"type":"Point","coordinates":[18.80806,-33.96079]},"properties":{"osm_type":"node","osm_id":12537996504,"category":"winery","name":"Vredenheim","tags":{"craft":"winery","name":"Vredenheim","website":"https://vredenheim.co.za/"}}},{"type":"Feature","id":"node/12538680178","geometry":{"type":"Point","coordinates":[18.76614,-33.94157]},"properties":{"osm_type":"node","osm_id":12538680178,"category":"winery","name":"De Waal","tags":{"craft":"winery","name":"De Waal","website":"https://www.dewaal.co.za/"}}},{"type":"Feature","id":"node/12538680180","geometry":{"type":"Point","coordinates":[18.79313,-33.94778]},"properties":{"osm_type":"node","osm_id":12538680180,"category":"winery","name":"Overgaauw","tags":{"craft":"winery","name":"Overgaauw","website":"https://overgaauw.co.za/"}}},{"type":"Feature","id":"node/12538680181","geometry":{"type":"Point","coordinates":[18.80037,-33.9512]},"properties":{"osm_type":"node","osm_id":12538680181,"category":"winery","name":"Lovane","tags":{"craft":"winery","name":"Lovane","website":"https://www.lovane.co.za/"}}},{"type":"Feature","id":"node/12538712358","geometry":{"type":"Point","coordinates":[18.75009,-33.93927]},"properties":{"osm_type":"node","osm_id":12538712358,"category":"winery","name":"DeMorgenzon","tags":{"craft":"winery","name":"DeMorgenzon","website":"https://demorgenzon.com/"}}},{"type":"Feature","id":"node/12538719282","geometry":{"type":"Point","coordinates":[18.86732,-33.97131]},"properties":{"osm_type":"node","osm_id":12538719282,"category":"winery","name":"Vriesenhof","tags":{"craft":"winery","name":"Vriesenhof","website":"https://www.vriesenhof.co.za/"}}},{"type":"Feature","id":"node/12538729683","geometry":{"type":"Point","coordinates":[18.83225,-33.92764]},"properties":{"osm_type":"node","osm_id":12538729683,"category":"winery","name":"Middelvlei","tags":{"craft":"winery","name":"Middelvlei","website":"https://middelvlei.co.za/"}}},{"type":"Feature","id":"node/12538780179","geometry":{"type":"Point","coordinates":[18.84696,-33.94066]},"properties":{"osm_type":"node","osm_id":12538780179,"category":"winery","name":"Villafonté","tags":{"alt_name":"Vilafonté Wines","craft":"winery","name":"Villafonté","website":"https://www.vilafonte.com/"}}},{"type":"Feature","id":"node/12538780180","geometry":{"type":"Point","coordinates":[18.84635,-33.94092]},"properties":{"osm_type":"node","osm_id":12538780180,"category":"winery","name":"Stellakaya","tags":{"alt_name":"Stellakaya Winery","craft":"winery","name":"Stellakaya","website":"https://www.stellekaya.com/"}}},{"type":"Feature","id":"node/12538785963","geometry":{"type":"Point","coordinates":[18.72505,-33.93091]},"properties":{"osm_type":"node","osm_id":12538785963,"category":"winery","name":"Zevenwacht","tags":{"craft":"winery","name":"Zevenwacht","website":"https://zevenwacht.co.za/"}}},{"type":"Feature","id":"node/12538808651","geometry":{"type":"Point","coordinates":[19.20002,-34.41026]},"properties":{"osm_type":"node","osm_id":12538808651,"category":"winery","name":"Whalehaven","tags":{"alt_name":"Whalehaven Winery","craft":"winery","name":"Whalehaven","website":"https://www.whalehaven.co.za/"}}},{"type":"Feature","id":"node/12538813467","geometry":{"type":"Point","coordinates":[18.84974,-33.93472]},"properties":{"osm_type":"node","osm_id":12538813467,"category":"winery","name":"Fluer du Cap","tags":{"craft":"winery","name":"Fluer du Cap","website":"https://www.fleurducap.co.za/"}}},{"type":"Feature","id":"node/12541177813","geometry":{"type":"Point","coordinates":[18.7387,-34.03386]},"properties":{"osm_type":"node","osm_id":12541177813,"category":"winery","name":"Vergenoegd Löw","tags":{"craft":"winery","name":"Vergenoegd Löw","website":"https://vergenoegd.co.za/"}}},{"type":"Feature","id":"node/12541204376","geometry":{"type":"Point","coordinates":[18.74159,-33.90798]},"properties":{"osm_type":"node","osm_id":12541204376,"category":"winery","name":"Friesland","tags":{"craft":"winery","name":"Friesland","website":"https://frieslandwines.com"}}},{"type":"Feature","id":"node/12541253581","geometry":{"type":"Point","coordinates":[18.91066,-34.08713]},"properties":{"osm_type":"node","osm_id":12541253581,"category":"winery","name":"Vergelegen","wikidata":"Q787543","wikipedia":"en:Vergelegen","tags":{"craft":"winery","name":"Vergelegen","website":"https://vergelegen.co.za/","wikidata":"Q787543","wikipedia":"en:Vergelegen"}}},{"type":"Feature","id":"node/12549130003","geometry":{"type":"Point","coordinates":[19.11122,-33.27398]},"properties":{"osm_type":"node","osm_id":12549130003,"category":"winery","name":"Montepellier de Tulbagh","tags":{"craft":"winery","name":"Montepellier de Tulbagh"}}},{"type":"Feature","id":"node/12559238428","geometry":{"type":"Point","coordinates":[18.8138,-33.90994]},"properties":{"osm_type":"node","osm_id":12559238428,"category":"winery","name":"Clos Malverne","tags":{"craft":"winery","name":"Clos Malverne","website":"https://closmalverne.co.za/"}}},{"type":"Feature","id":"node/12559300697","geometry":{"type":"Point","coordinates":[18.80663,-33.9089]},"properties":{"osm_type":"node","osm_id":12559300697,"category":"winery","name":"Louisvale","tags":{"craft":"winery","name":"Louisvale","website":"https://www.louisvale.com/"}}},{"type":"Feature","id":"node/12563434533","geometry":{"type":"Point","coordinates":[19.0022,-33.72199]},"properties":{"osm_type":"node","osm_id":12563434533,"category":"winery","name":"Nederburg","wikidata":"Q121078024","wikipedia":"af:Nederburg","tags":{"craft":"winery","name":"Nederburg","website":"https://www.nederburg.com/","wikidata":"Q121078024","wikipedia":"af:Nederburg"}}},{"type":"Feature","id":"node/12565470672","geometry":{"type":"Point","coordinates":[18.81854,-33.88956]},"properties":{"osm_type":"node","osm_id":12565470672,"category":"winery","name":"Kanu","tags":{"craft":"winery","name":"Kanu","website":"https://kanu.co.za/"}}},{"type":"Feature","id":"node/12565470802","geometry":{"type":"Point","coordinates":[18.823,-33.89112]},"properties":{"osm_type":"node","osm_id":12565470802,"category":"winery","name":"Beyerskloof","tags":{"craft":"winery","name":"Beyerskloof","website":"https://beyerskloof.co.za/"}}},{"type":"Feature","id":"node/12587336711","geometry":{"type":"Point","coordinates":[18.99222,-33.86094]},"properties":{"osm_type":"node","osm_id":12587336711,"category":"winery","name":"Solms Delta","tags":{"craft":"winery","name":"Solms Delta","website":"https://solmsdelta.co/"}}},{"type":"Feature","id":"node/12587470775","geometry":{"type":"Point","coordinates":[18.94461,-33.84686]},"properties":{"osm_type":"node","osm_id":12587470775,"category":"winery","name":"Plaisir","tags":{"craft":"winery","name":"Plaisir","website":"https://plaisir.co.za/"}}},{"type":"Feature","id":"node/12587619644","geometry":{"type":"Point","coordinates":[18.90753,-33.75285]},"properties":{"osm_type":"node","osm_id":12587619644,"category":"winery","name":"Vrymansfontein","tags":{"craft":"winery","name":"Vrymansfontein","website":"https://vrymansfontein.co.za/"}}},{"type":"Feature","id":"node/12587631517","geometry":{"type":"Point","coordinates":[18.91618,-33.76036]},"properties":{"osm_type":"node","osm_id":12587631517,"category":"winery","name":"Landskroon","tags":{"craft":"winery","name":"Landskroon","website":"https://www.landskroonwines.com/"}}},{"type":"Feature","id":"node/12587657706","geometry":{"type":"Point","coordinates":[18.92423,-33.77176]},"properties":{"osm_type":"node","osm_id":12587657706,"category":"winery","name":"Fairview","tags":{"craft":"winery","name":"Fairview","website":"https://www.fairview.co.za/"}}},{"type":"Feature","id":"node/12595362698","geometry":{"type":"Point","coordinates":[19.28257,-33.69366]},"properties":{"osm_type":"node","osm_id":12595362698,"category":"winery","name":"Du Preez Estate","tags":{"craft":"winery","name":"Du Preez Estate","website":"https://dupreezestate.co.za/"}}},{"type":"Feature","id":"node/12595378512","geometry":{"type":"Point","coordinates":[19.26897,-33.70269]},"properties":{"osm_type":"node","osm_id":12595378512,"category":"winery","name":"Du Toitskloof","tags":{"addr:street":"R101","craft":"winery","name":"Du Toitskloof","website":"https://www.dtkwines.com/du-toitskloof"}}},{"type":"Feature","id":"node/12595378561","geometry":{"type":"Point","coordinates":[19.30471,-33.69158]},"properties":{"osm_type":"node","osm_id":12595378561,"category":"winery","name":"Deetlefs","tags":{"craft":"winery","name":"Deetlefs","website":"https://deetlefs.com/"}}},{"type":"Feature","id":"node/12597971777","geometry":{"type":"Point","coordinates":[19.23046,-33.6504]},"properties":{"osm_type":"node","osm_id":12597971777,"category":"winery","name":"Slanghoek","tags":{"craft":"winery","name":"Slanghoek","website":"https://slanghoek.co.za/"}}},{"type":"Feature","id":"node/12597971778","geometry":{"type":"Point","coordinates":[19.22798,-33.65063]},"properties":{"osm_type":"node","osm_id":12597971778,"category":"winery","name":"Marais Family Wines","tags":{"alt_name":"Breëland","craft":"winery","name":"Marais Family Wines","website":"https://maraiswines.co.za/"}}},{"type":"Feature","id":"node/12597973466","geometry":{"type":"Point","coordinates":[19.25654,-33.56637]},"properties":{"osm_type":"node","osm_id":12597973466,"category":"winery","name":"Botha","tags":{"alt_name":"Botha Kelder","craft":"winery","name":"Botha","website":"https://bothakelder.co.za/"}}},{"type":"Feature","id":"node/12598005329","geometry":{"type":"Point","coordinates":[19.20978,-33.52889]},"properties":{"osm_type":"node","osm_id":12598005329,"category":"winery","name":"Waboomsrivier","tags":{"craft":"winery","name":"Waboomsrivier","website":"https://www.wabooms.com/"}}},{"type":"Feature","id":"node/12598017778","geometry":{"type":"Point","coordinates":[19.18643,-33.51456]},"properties":{"osm_type":"node","osm_id":12598017778,"category":"winery","name":"Lateganskop","tags":{"craft":"winery","name":"Lateganskop"}}},{"type":"Feature","id":"node/12598646292","geometry":{"type":"Point","coordinates":[18.8913,-33.92512]},"properties":{"osm_type":"node","osm_id":12598646292,"category":"winery","name":"Neil Ellis","tags":{"alt_name":"Neil Ellis Wines","craft":"winery","name":"Neil Ellis","website":"https://neilellis.com/"}}},{"type":"Feature","id":"node/12598677826","geometry":{"type":"Point","coordinates":[18.92013,-33.9178]},"properties":{"osm_type":"node","osm_id":12598677826,"category":"winery","name":"Tokara","tags":{"craft":"winery","name":"Tokara","website":"https://www.tokara.com/"}}},{"type":"Feature","id":"node/12598690907","geometry":{"type":"Point","coordinates":[18.92668,-33.91753]},"properties":{"osm_type":"node","osm_id":12598690907,"category":"winery","name":"Alluvia","tags":{"craft":"winery","name":"Alluvia","website":"https://www.alluvia.co.za/"}}},{"type":"Feature","id":"node/12603601964","geometry":{"type":"Point","coordinates":[23.47968,-33.95754]},"properties":{"osm_type":"node","osm_id":12603601964,"category":"winery","name":"Bramon","tags":{"craft":"winery","name":"Bramon","operator":"Bramon Wine Estate","website":"https://www.bramonwines.co.za/"}}},{"type":"Feature","id":"node/12604082071","geometry":{"type":"Point","coordinates":[20.59464,-33.92412]},"properties":{"osm_type":"node","osm_id":12604082071,"category":"winery","name":"Joubert Tradauw","tags":{"craft":"winery","name":"Joubert Tradauw","website":"https://www.joubert-tradauw.com/"}}},{"type":"Feature","id":"node/12604090700","geometry":{"type":"Point","coordinates":[19.297,-33.98648]},"properties":{"osm_type":"node","osm_id":12604090700,"category":"winery","name":"Villiersdorp Winery","tags":{"craft":"winery","name":"Villiersdorp Winery","website":"https://www.villiersdorpwinery.co.za/"}}},{"type":"Feature","id":"node/12604134087","geometry":{"type":"Point","coordinates":[19.41897,-33.84045]},"properties":{"osm_type":"node","osm_id":12604134087,"category":"winery","name":"Eagle’s Cliff","tags":{"craft":"winery","name":"Eagle’s Cliff","website":"https://eaglescliff.co.za/"}}},{"type":"Feature","id":"node/12604135936","geometry":{"type":"Point","coordinates":[19.36721,-33.87073]},"properties":{"osm_type":"node","osm_id":12604135936,"category":"winery","name":"Stettyn","tags":{"craft":"winery","name":"Stettyn","website":"https://www.stettyncellar.co.za/"}}},{"type":"Feature","id":"node/12604155025","geometry":{"type":"Point","coordinates":[19.46952,-33.80487]},"properties":{"osm_type":"node","osm_id":12604155025,"category":"winery","name":"BC Wines","tags":{"craft":"winery","name":"BC Wines","website":"https://bcwines.co.za/"}}},{"type":"Feature","id":"node/12606503325","geometry":{"type":"Point","coordinates":[19.22137,-34.40369]},"properties":{"osm_type":"node","osm_id":12606503325,"category":"winery","name":"Southern Right","tags":{"craft":"winery","name":"Southern Right","website":"https://southernright.co.za/"}}},{"type":"Feature","id":"node/12606578700","geometry":{"type":"Point","coordinates":[19.24186,-34.38196]},"properties":{"osm_type":"node","osm_id":12606578700,"category":"winery","name":"Bouchard Finlayson","tags":{"craft":"winery","name":"Bouchard Finlayson","website":"https://bouchardfinlayson.co.za/"}}},{"type":"Feature","id":"node/12612599553","geometry":{"type":"Point","coordinates":[19.09182,-33.89383]},"properties":{"osm_type":"node","osm_id":12612599553,"category":"winery","name":"La Provence","tags":{"craft":"winery","name":"La Provence","name:etymology":"Provence","name:etymology:wikidata":"Q101081","name:etymology:wikipedia":"en:Provence","website":"https://laprovencevineyards.com/"}}},{"type":"Feature","id":"node/12615359410","geometry":{"type":"Point","coordinates":[19.0203,-33.88346]},"properties":{"osm_type":"node","osm_id":12615359410,"category":"winery","name":"Bellingham","tags":{"craft":"winery","name":"Bellingham","website":"https://www.bellinghamwines.com/"}}},{"type":"Feature","id":"node/12615389153","geometry":{"type":"Point","coordinates":[19.07406,-33.88037]},"properties":{"osm_type":"node","osm_id":12615389153,"category":"winery","name":"La Motte","tags":{"craft":"winery","name":"La Motte","name:etymology":"La Motte, commune in Var, France","name:etymology:wikidata":"Q338721","name:etymology:wikipedia":"en:La Motte, Var","website":"https://la-motte.com/"}}},{"type":"Feature","id":"node/12621437688","geometry":{"type":"Point","coordinates":[19.10221,-33.90461]},"properties":{"osm_type":"node","osm_id":12621437688,"category":"winery","name":"Grande Provence","tags":{"craft":"winery","name":"Grande Provence","website":"https://www.grandeprovence.co.za/collections/wine/"}}},{"type":"Feature","id":"node/12625203948","geometry":{"type":"Point","coordinates":[19.12667,-33.89967]},"properties":{"osm_type":"node","osm_id":12625203948,"category":"winery","name":"Chamonix","tags":{"craft":"winery","name":"Chamonix","website":"https://chamonixestate.co.za/collection/all-wines/"}}},{"type":"Feature","id":"node/12625276401","geometry":{"type":"Point","coordinates":[19.12931,-33.89549]},"properties":{"osm_type":"node","osm_id":12625276401,"category":"winery","name":"Dieu Donné","tags":{"craft":"winery","name":"Dieu Donné","website":"https://dieudonnevineyards.com/"}}},{"type":"Feature","id":"node/12626432263","geometry":{"type":"Point","coordinates":[19.10734,-33.94266]},"properties":{"osm_type":"node","osm_id":12626432263,"category":"winery","name":"Boekenhoutskloof","tags":{"craft":"winery","name":"Boekenhoutskloof","website":"https://www.boekenhoutskloof.co.za/boekenhoutskloof/"}}},{"type":"Feature","id":"node/12626467688","geometry":{"type":"Point","coordinates":[19.10576,-33.9401]},"properties":{"osm_type":"node","osm_id":12626467688,"category":"winery","name":"Haut Espoir","tags":{"craft":"winery","name":"Haut Espoir","website":"https://www.hautespoir.com/"}}},{"type":"Feature","id":"node/12629032140","geometry":{"type":"Point","coordinates":[19.12279,-33.94015]},"properties":{"osm_type":"node","osm_id":12629032140,"category":"winery","name":"Stony Brook","tags":{"craft":"winery","name":"Stony Brook","website":"https://www.stonybrook.co.za/"}}},{"type":"Feature","id":"node/12629137955","geometry":{"type":"Point","coordinates":[19.11147,-33.90561]},"properties":{"osm_type":"node","osm_id":12629137955,"category":"winery","name":"Franschoek Cellar","tags":{"craft":"winery","name":"Franschoek Cellar","website":"https://www.franschhoekcellar.co.za/"}}},{"type":"Feature","id":"node/12629162238","geometry":{"type":"Point","coordinates":[19.1275,-33.92338]},"properties":{"osm_type":"node","osm_id":12629162238,"category":"winery","name":"Colmant","tags":{"craft":"winery","name":"Colmant","website":"https://colmant.co.za/"}}},{"type":"Feature","id":"node/12629951337","geometry":{"type":"Point","coordinates":[19.10486,-33.90973]},"properties":{"osm_type":"node","osm_id":12629951337,"category":"winery","name":"Leeu Passant","tags":{"craft":"winery","name":"Leeu Passant","website":"https://mlfwines.com/discover-leeu-passant/"}}},{"type":"Feature","id":"node/12638337528","geometry":{"type":"Point","coordinates":[19.07642,-33.88588]},"properties":{"osm_type":"node","osm_id":12638337528,"category":"winery","name":"Maison","tags":{"craft":"winery","name":"Maison","website":"https://www.maisonestate.com/"}}},{"type":"Feature","id":"node/12640343473","geometry":{"type":"Point","coordinates":[19.03736,-33.86278]},"properties":{"osm_type":"node","osm_id":12640343473,"category":"winery","name":"Lynx","tags":{"craft":"winery","name":"Lynx","website":"https://www.lynx-collection.com/en/wine/"}}},{"type":"Feature","id":"node/12642994937","geometry":{"type":"Point","coordinates":[18.927,-33.80324]},"properties":{"osm_type":"node","osm_id":12642994937,"category":"winery","name":"Bacco","tags":{"craft":"winery","name":"Bacco","website":"https://www.baccoestate.co.za/"}}},{"type":"Feature","id":"node/12646531037","geometry":{"type":"Point","coordinates":[19.09084,-33.89851]},"properties":{"osm_type":"node","osm_id":12646531037,"category":"winery","name":"Rickety Bridge","tags":{"craft":"winery","name":"Rickety Bridge","website":"https://www.ricketybridge.com/"}}},{"type":"Feature","id":"node/12649412353","geometry":{"type":"Point","coordinates":[18.92487,-33.82356]},"properties":{"osm_type":"node","osm_id":12649412353,"category":"winery","name":"Babylonstoren","tags":{"craft":"winery","name":"Babylonstoren","website":"https://babylonstoren.com/"}}},{"type":"Feature","id":"node/12649433336","geometry":{"type":"Point","coordinates":[18.90444,-33.81234]},"properties":{"osm_type":"node","osm_id":12649433336,"category":"winery","name":"Glen Carlou","tags":{"craft":"winery","name":"Glen Carlou","website":"https://glencarlou.com/"}}},{"type":"Feature","id":"node/12649452288","geometry":{"type":"Point","coordinates":[18.93639,-33.82723]},"properties":{"osm_type":"node","osm_id":12649452288,"category":"winery","name":"Noble Hill","tags":{"craft":"winery","name":"Noble Hill","website":"https://www.noblehill.com/"}}},{"type":"Feature","id":"node/12655684989","geometry":{"type":"Point","coordinates":[18.86246,-33.82376]},"properties":{"osm_type":"node","osm_id":12655684989,"category":"winery","name":"Arra","tags":{"craft":"winery","name":"Arra","website":"https://arravineyards.com/"}}},{"type":"Feature","id":"node/12676687700","geometry":{"type":"Point","coordinates":[18.87639,-33.84139]},"properties":{"osm_type":"node","osm_id":12676687700,"category":"winery","name":"Lievland","tags":{"craft":"winery","name":"Lievland","website":"https://lievland.co.za/"}}},{"type":"Feature","id":"node/12676704031","geometry":{"type":"Point","coordinates":[18.87867,-33.83979]},"properties":{"osm_type":"node","osm_id":12676704031,"category":"winery","name":"MAN Family Wines","tags":{"craft":"winery","name":"MAN Family Wines","website":"https://manwines.com/"}}},{"type":"Feature","id":"node/12683929856","geometry":{"type":"Point","coordinates":[18.89106,-33.83289]},"properties":{"osm_type":"node","osm_id":12683929856,"category":"winery","name":"Mont Destin","tags":{"craft":"winery","name":"Mont Destin","website":"https://www.destinyshiraz.co.za/"}}},{"type":"Feature","id":"node/12686564084","geometry":{"type":"Point","coordinates":[18.86377,-33.84321]},"properties":{"osm_type":"node","osm_id":12686564084,"category":"winery","name":"Marklew","tags":{"craft":"winery","name":"Marklew","website":"https://www.marklew.co.za/"}}},{"type":"Feature","id":"node/12686564124","geometry":{"type":"Point","coordinates":[18.86212,-33.84542]},"properties":{"osm_type":"node","osm_id":12686564124,"category":"winery","name":"Ladybird","tags":{"craft":"winery","name":"Ladybird","website":"https://ladybirdvineyards.co.za/"}}},{"type":"Feature","id":"node/12701796901","geometry":{"type":"Point","coordinates":[18.84732,-33.86508]},"properties":{"osm_type":"node","osm_id":12701796901,"category":"winery","name":"La Boucher","tags":{"craft":"winery","name":"La Boucher","website":"https://laboucherwines.co.za/"}}},{"type":"Feature","id":"node/12722407913","geometry":{"type":"Point","coordinates":[18.88603,-33.86891]},"properties":{"osm_type":"node","osm_id":12722407913,"category":"winery","name":"Delheim","tags":{"craft":"winery","name":"Delheim","website":"https://delheim.com/"}}},{"type":"Feature","id":"node/12728669985","geometry":{"type":"Point","coordinates":[18.84563,-33.88082]},"properties":{"osm_type":"node","osm_id":12728669985,"category":"winery","name":"Deux Frères","tags":{"craft":"winery","name":"Deux Frères","website":"https://dfwines.co.za/"}}},{"type":"Feature","id":"node/12816486141","geometry":{"type":"Point","coordinates":[18.85089,-33.88447]},"properties":{"osm_type":"node","osm_id":12816486141,"category":"winery","name":"Remhoogte","tags":{"craft":"winery","name":"Remhoogte","website":"https://remhoogte.co.za/"}}},{"type":"Feature","id":"node/12816498565","geometry":{"type":"Point","coordinates":[18.8614,-33.89347]},"properties":{"osm_type":"node","osm_id":12816498565,"category":"winery","name":"Morgenhof","tags":{"craft":"winery","name":"Morgenhof","website":"https://morgenhof.com/"}}},{"type":"Feature","id":"node/13072209901","geometry":{"type":"Point","coordinates":[19.79956,-33.80165]},"properties":{"osm_type":"node","osm_id":13072209901,"category":"wine_shop","name":"Graham Beck Estate","tags":{"name:en":"Graham Beck Estate","shop":"wine"}}},{"type":"Feature","id":"node/13296917701","geometry":{"type":"Point","coordinates":[18.8269,-33.54503]},"properties":{"osm_type":"node","osm_id":13296917701,"category":"winery","name":"David & Nadia (Wine of origin Swartland)","tags":{"craft":"winery","name":"David & Nadia (Wine of origin Swartland)"}}},{"type":"Feature","id":"node/13418590412","geometry":{"type":"Point","coordinates":[19.08988,-33.88963]},"properties":{"osm_type":"node","osm_id":13418590412,"category":"winery","name":"Klein Goederust","tags":{"craft":"winery","name":"Klein Goederust","website":"https://kleingoederust.co.za/"}}},{"type":"Feature","id":"node/13418590414","geometry":{"type":"Point","coordinates":[19.11032,-33.90385]},"properties":{"osm_type":"node","osm_id":13418590414,"category":"wine_shop","name":"Old Road Wine Co.","tags":{"name":"Old Road Wine Co.","shop":"wine"}}},{"type":"Feature","id":"node/13426804156","geometry":{"type":"Point","coordinates":[18.59719,-33.96972]},"properties":{"osm_type":"node","osm_id":13426804156,"category":"wine_shop","name":"Wine Boutique","tags":{"name":"Wine Boutique","shop":"wine"}}},{"type":"Feature","id":"node/13580146701","geometry":{"type":"Point","coordinates":[24.53381,-32.25143]},"properties":{"osm_type":"node","osm_id":13580146701,"category":"wine_shop","name":"Afrikanis Rum","tags":{"addr:housenumber":"52","addr:postcode":"6280","addr:street":"Somerset Street","email":"info@akrikanis.co.za","name":"Afrikanis Rum","phone":"+27 83 538 2865","shop":"wine"}}},{"type":"Feature","id":"way/42125322","geometry":{"type":"Polygon","coordinates":[[[18.41609,-33.94377],[18.41607,-33.94391],[18.41631,-33.94396],[18.41631,-33.94402],[18.41652,-33.94405],[18.41655,-33.94385],[18.41632,-33.9438],[18.41609,-33.94377]]]},"properties":{"osm_type":"way","osm_id":42125322,"category":"vineyard","name":"Clos d'Oranje","tags":{"crop":"grape","grape_variety":"syrah","landuse":"vineyard","name":"Clos d'Oranje","operator":"Signal Hill"}}},{"type":"Feature","id":"way/49195205","geometry":{"type":"Polygon","coordinates":[[[19.98276,-33.81121],[19.98328,-33.81125],[19.98323,-33.81168],[19.9827,-33.81164],[19.98276,-33.81121]]]},"properties":{"osm_type":"way","osm_id":49195205,"category":"wine_shop","name":"Rusticus","tags":{"building":"yes","name":"Rusticus","shop":"wine"}}},{"type":"Feature","id":"way/61836649","geometry":{"type":"Polygon","coordinates":[[[18.41289,-34.03905],[18.41273,-34.03891],[18.4128,-34.03886],[18.41293,-34.0387],[18.41293,-34.03867],[18.41283,-34.03857],[18.41312,-34.03835],[18.41327,-34.03848],[18.41317,-34.03856],[18.41335,-34.03872],[18.41289,-34.03905]]]},"properties":{"osm_type":"way","osm_id":61836649,"category":"winery","name":"Klein Constantia Winery","tags":{"building":"yes","craft":"winery","name":"Klein Constantia Winery"}}},{"type":"Feature","id":"way/95537477","geometry":{"type":"Polygon","coordinates":[[[19.86827,-33.92413],[19.86898,-33.9239],[19.86904,-33.92397],[19.86914,-33.92395],[19.86949,-33.92475],[19.86917,-33.92492],[19.8693,-33.92527],[19.86887,-33.92531],[19.86851,-33.92477],[19.86827,-33.92413]]]},"properties":{"osm_type":"way","osm_id":95537477,"category":"vineyard","name":"Tanagra","tags":{"crop":"grape","landuse":"vineyard","name":"Tanagra"}}},{"type":"Feature","id":"way/95537603","geometry":{"type":"Polygon","coordinates":[[[19.86911,-33.92386],[19.86914,-33.92395],[19.86949,-33.92475],[19.86962,-33.92479],[19.87021,-33.92458],[19.86979,-33.92364],[19.86911,-33.92386]]]},"properties":{"osm_type":"way","osm_id":95537603,"category":"vineyard","name":"Tanagra","tags":{"crop":"grape","landuse":"vineyard","name":"Tanagra"}}},{"type":"Feature","id":"way/95537607","geometry":{"type":"Polygon","coordinates":[[[19.87021,-33.92458],[19.87086,-33.92436],[19.87044,-33.92343],[19.86979,-33.92364],[19.87021,-33.92458]]]},"properties":{"osm_type":"way","osm_id":95537607,"category":"vineyard","name":"Tanagra","tags":{"crop":"grape","landuse":"vineyard","name":"Tanagra"}}},{"type":"Feature","id":"way/122676305","geometry":{"type":"Polygon","coordinates":[[[18.37415,-33.38093],[18.37385,-33.38146],[18.37405,-33.38153],[18.37406,-33.3816],[18.37382,-33.38205],[18.37433,-33.38225],[18.37461,-33.38177],[18.3744,-33.38146],[18.37435,-33.38142],[18.37435,-33.38138],[18.37451,-33.38109],[18.37415,-33.38093]]]},"properties":{"osm_type":"way","osm_id":122676305,"category":"vineyard","name":"Ormonde Wine Farm","tags":{"landuse":"vineyard","name":"Ormonde Wine Farm"}}},{"type":"Feature","id":"way/182723091","geometry":{"type":"Polygon","coordinates":[[[18.57483,-33.84791],[18.57397,-33.84651],[18.57347,-33.84576],[18.57336,-33.84575],[18.5725,-33.84408],[18.56962,-33.84447],[18.56992,-33.84519],[18.56793,-33.84564],[18.56877,-33.84812],[18.56978,-33.85085],[18.57025,-33.8507],[18.5706,-33.85072],[18.57217,-33.85009],[18.57253,-33.85077],[18.57252,-33.85105],[18.57246,-33.85118],[18.5723,-33.85164],[18.57248,-33.85189],[18.57329,-33.85215],[18.57336,-33.85223],[18.5741,-33.85267],[18.57374,-33.85369],[18.57412,-33.85445],[18.57782,-33.85285],[18.5772,-33.85172],[18.57682,-33.85151],[18.57636,-33.8507],[18.57647,-33.85054],[18.57473,-33.84806],[18.57483,-33.84791]]]},"properties":{"osm_type":"way","osm_id":182723091,"category":"vineyard","name":"De Grendel","tags":{"landuse":"vineyard","name":"De Grendel"}}},{"type":"Feature","id":"way/228423848","geometry":{"type":"Polygon","coordinates":[[[18.95488,-33.7545],[18.95971,-33.75437],[18.95971,-33.75481],[18.96129,-33.75489],[18.9613,-33.7557],[18.96146,-33.75571],[18.96145,-33.75634],[18.96129,-33.75635],[18.96127,-33.75665],[18.96204,-33.75667],[18.96195,-33.75771],[18.9618,-33.7589],[18.95906,-33.75912],[18.95514,-33.75943],[18.95528,-33.75772],[18.95554,-33.7572],[18.95625,-33.75735],[18.9578,-33.7572],[18.95784,-33.75686],[18.95748,-33.75678],[18.95731,-33.75626],[18.9562,-33.75604],[18.95473,-33.75592],[18.95483,-33.75557],[18.95461,-33.75553],[18.95488,-33.7545]]]},"properties":{"osm_type":"way","osm_id":228423848,"category":"vineyard","name":"De Hoop","tags":{"crop":"grape","landuse":"vineyard","name":"De Hoop"}}},{"type":"Feature","id":"way/261540933","geometry":{"type":"Polygon","coordinates":[[[19.78816,-34.66028],[19.78817,-34.66014],[19.7884,-34.66015],[19.7884,-34.66029],[19.78816,-34.66028]]]},"properties":{"osm_type":"way","osm_id":261540933,"category":"wine_shop","name":"Strandveld Vineyards","tags":{"building":"yes","name":"Strandveld Vineyards","shop":"wine"}}},{"type":"Feature","id":"way/263131249","geometry":{"type":"Polygon","coordinates":[[[18.89925,-34.01261],[18.89923,-34.0124],[18.89907,-34.01241],[18.89908,-34.01252],[18.89916,-34.01251],[18.89917,-34.01261],[18.89925,-34.01261]]]},"properties":{"osm_type":"way","osm_id":263131249,"category":"wine_cellar","name":"De Trafford Winery","tags":{"building":"yes","name":"De Trafford Winery","opening_hours":"Fr-Sa 10:00-13:00","tourism":"wine_cellar"}}},{"type":"Feature","id":"way/319933390","geometry":{"type":"Polygon","coordinates":[[[18.88501,-34.08381],[18.88516,-34.08378],[18.88518,-34.08386],[18.88525,-34.08384],[18.88528,-34.08394],[18.88523,-34.08395],[18.8853,-34.08419],[18.88568,-34.0841],[18.88561,-34.08387],[18.88555,-34.08388],[18.88552,-34.08378],[18.88559,-34.08377],[18.88556,-34.08369],[18.88571,-34.08366],[18.88573,-34.08374],[18.88575,-34.08373],[18.8859,-34.0842],[18.88517,-34.08436],[18.88502,-34.08389],[18.88504,-34.08389],[18.88501,-34.08381]]]},"properties":{"osm_type":"way","osm_id":319933390,"category":"winery","name":"Morgenster Estate","wikidata":"Q121091990","tags":{"building":"yes","craft":"winery","email":"tastingroom@morgenster.co.za","name":"Morgenster Estate","phone":"+27 21 852 1738","website":"https://morgensterestate.co.za/","wikidata":"Q121091990"}}},{"type":"Feature","id":"way/332563045","geometry":{"type":"Polygon","coordinates":[[[19.25786,-32.50344],[19.25785,-32.50352],[19.25785,-32.50358],[19.25786,-32.50364],[19.25787,-32.50368],[19.25788,-32.50387],[19.25759,-32.50388],[19.25759,-32.50384],[19.25751,-32.50384],[19.25751,-32.50389],[19.25706,-32.50392],[19.25705,-32.5037],[19.25705,-32.50367],[19.25704,-32.5036],[19.25704,-32.50357],[19.25704,-32.50356],[19.25709,-32.50355],[19.25709,-32.5035],[19.25703,-32.5035],[19.25703,-32.50348],[19.25703,-32.50344],[19.25703,-32.50341],[19.25706,-32.50339],[19.25708,-32.50337],[19.2571,-32.50335],[19.25712,-32.50333],[19.25712,-32.50332],[19.25745,-32.50329],[19.25784,-32.50327],[19.25786,-32.50344]]]},"properties":{"osm_type":"way","osm_id":332563045,"category":"winery","name":"Cederberg Wines","tags":{"building":"yes","craft":"winery","name":"Cederberg Wines"}}},{"type":"Feature","id":"way/381003243","geometry":{"type":"Polygon","coordinates":[[[18.66502,-34.02233],[18.66502,-34.02233],[18.66506,-34.02229],[18.66509,-34.02232],[18.66509,-34.02233],[18.66507,-34.02235],[18.66506,-34.02236],[18.66504,-34.02234],[18.66502,-34.02233]]]},"properties":{"osm_type":"way","osm_id":381003243,"category":"wine_shop","tags":{"building":"yes","shop":"wine"}}},{"type":"Feature","id":"way/384846130","geometry":{"type":"Polygon","coordinates":[[[18.87208,-33.99239],[18.87192,-33.99225],[18.87177,-33.9921],[18.87185,-33.99204],[18.87182,-33.99201],[18.87189,-33.99196],[18.87192,-33.99198],[18.87206,-33.99188],[18.87217,-33.99198],[18.87198,-33.99213],[18.87202,-33.99217],[18.87208,-33.99222],[18.87227,-33.99207],[18.87238,-33.99217],[18.87208,-33.99239]]]},"properties":{"osm_type":"way","osm_id":384846130,"category":"wine_cellar","name":"Dornier Wine Estate","tags":{"building":"yes","name":"Dornier Wine Estate","tourism":"wine_cellar","website":"https://www.dornier.co.za/"}}},{"type":"Feature","id":"way/387844513","geometry":{"type":"Polygon","coordinates":[[[22.47138,-33.86858],[22.47284,-33.87009],[22.47361,-33.86959],[22.47261,-33.8686],[22.47242,-33.86871],[22.47188,-33.86825],[22.47138,-33.86858]]]},"properties":{"osm_type":"way","osm_id":387844513,"category":"vineyard","name":"Herhold Wines","tags":{"landuse":"vineyard","name":"Herhold Wines"}}},{"type":"Feature","id":"way/387844514","geometry":{"type":"Polygon","coordinates":[[[22.47302,-33.87043],[22.47043,-33.87221],[22.46912,-33.87094],[22.46938,-33.87075],[22.46846,-33.86979],[22.47073,-33.8683],[22.47107,-33.86864],[22.47121,-33.86867],[22.47302,-33.87043]]]},"properties":{"osm_type":"way","osm_id":387844514,"category":"vineyard","name":"Herhold Wines","tags":{"landuse":"vineyard","name":"Herhold Wines"}}},{"type":"Feature","id":"way/464380023","geometry":{"type":"Polygon","coordinates":[[[19.4895,-33.69612],[19.49069,-33.69697],[19.49053,-33.69712],[19.49052,-33.69716],[19.49062,-33.69723],[19.49047,-33.69737],[19.49023,-33.69759],[19.48971,-33.69725],[19.48937,-33.69702],[19.48916,-33.69722],[19.48931,-33.69735],[19.48918,-33.69747],[19.48909,-33.69756],[19.48902,-33.69762],[19.48886,-33.6975],[19.48894,-33.6974],[19.48881,-33.69731],[19.48922,-33.69693],[19.48888,-33.69665],[19.4895,-33.69612]]]},"properties":{"osm_type":"way","osm_id":464380023,"category":"winery","name":"Aan De Doorns Cellar","tags":{"building":"yes","craft":"winery","name":"Aan De Doorns Cellar"}}},{"type":"Feature","id":"way/464516312","geometry":{"type":"Polygon","coordinates":[[[19.02394,-33.88193],[19.02456,-33.88117],[19.02498,-33.88141],[19.02437,-33.88217],[19.02394,-33.88193]]]},"properties":{"osm_type":"way","osm_id":464516312,"category":"winery","name":"Graham Beck","tags":{"building":"yes","craft":"winery","name":"Graham Beck"}}},{"type":"Feature","id":"way/464516314","geometry":{"type":"Polygon","coordinates":[[[19.02653,-33.88001],[19.02655,-33.87991],[19.02637,-33.8799],[19.02636,-33.88],[19.02653,-33.88001]]]},"properties":{"osm_type":"way","osm_id":464516314,"category":"winery","name":"Anthonji Rupert","tags":{"building":"yes","craft":"winery","name":"Anthonji Rupert"}}},{"type":"Feature","id":"way/520135707","geometry":{"type":"Polygon","coordinates":[[[21.10535,-28.60824],[21.10522,-28.60813],[21.10528,-28.60807],[21.10532,-28.60806],[21.10536,-28.60809],[21.10539,-28.60811],[21.10544,-28.60815],[21.10552,-28.60816],[21.10555,-28.60816],[21.10555,-28.60825],[21.10535,-28.60824]]]},"properties":{"osm_type":"way","osm_id":520135707,"category":"wine_shop","name":"Bezalel Estate Tasting Room","tags":{"addr:city":"Kai !Garib","addr:postcode":"8805","addr:street":"Bezalel Drive","building":"yes","email":"marketing@bezalel.co.za","name":"Bezalel Estate Tasting Room","opening_hours":"Mo-Fr 08:30-17:30; Sa 08:30 - 15:00","operator":"Bezalel Estate (Pty) Ltd","shop":"wine"}}},{"type":"Feature","id":"way/520135708","geometry":{"type":"Polygon","coordinates":[[[21.10498,-28.60826],[21.1052,-28.60845],[21.10526,-28.60839],[21.10509,-28.60826],[21.10503,-28.60822],[21.10498,-28.60826]]]},"properties":{"osm_type":"way","osm_id":520135708,"category":"winery","name":"Dyasonsklip Cellar","tags":{"addr:city":"Kai !Garib","addr:housenumber":"2","addr:postcode":"8805","addr:street":"Bezalel Drive","building":"industrial","craft":"winery","email":"winemaker@bezalel.estate","name":"Dyasonsklip Cellar","operator":"Bezalel Estate (Pty) Ltd","phone":"+27 83 257 4736"}}},{"type":"Feature","id":"way/520135717","geometry":{"type":"Polygon","coordinates":[[[21.10496,-28.60654],[21.10439,-28.60719],[21.10308,-28.60639],[21.10302,-28.6063],[21.10431,-28.60553],[21.10496,-28.60654]]]},"properties":{"osm_type":"way","osm_id":520135717,"category":"vineyard","name":"Block 22B","tags":{"crop":"grape","grape_variety":"Thompson","landuse":"vineyard","name":"Block 22B","operator":"Bezalel Estate (Pty) Ltd"}}},{"type":"Feature","id":"way/520135718","geometry":{"type":"Polygon","coordinates":[[[21.10459,-28.60533],[21.10429,-28.6047],[21.10335,-28.60382],[21.10275,-28.60374],[21.10252,-28.60353],[21.10206,-28.60381],[21.10189,-28.60362],[21.10164,-28.60379],[21.10157,-28.60412],[21.10159,-28.60446],[21.10166,-28.60479],[21.10267,-28.60612],[21.10295,-28.60628],[21.10459,-28.60533]]]},"properties":{"osm_type":"way","osm_id":520135718,"category":"vineyard","name":"Block 22A","tags":{"crop":"grape","grape_variety":"Thompson;Sultanas","landuse":"vineyard","name":"Block 22A","operator":"Bezalel Estate (Pty) Ltd"}}},{"type":"Feature","id":"way/520135720","geometry":{"type":"Polygon","coordinates":[[[21.10652,-28.60858],[21.10786,-28.61005],[21.10698,-28.61092],[21.10543,-28.60951],[21.10568,-28.60919],[21.10609,-28.60884],[21.10652,-28.60858]]]},"properties":{"osm_type":"way","osm_id":520135720,"category":"vineyard","name":"Block 10 CB","tags":{"crop":"grape","grape_variety":"colombard","landuse":"vineyard","name":"Block 10 CB","operator":"Bezalel Estate (Pty) Ltd"}}},{"type":"Feature","id":"way/520135721","geometry":{"type":"Polygon","coordinates":[[[21.10695,-28.61095],[21.10566,-28.61232],[21.10399,-28.61105],[21.10401,-28.61086],[21.10539,-28.60957],[21.10695,-28.61095]]]},"properties":{"osm_type":"way","osm_id":520135721,"category":"vineyard","name":"Block 9","tags":{"crop":"grape","grape_variety":"Cabernet_Sauvignon;Merlot;Shiraz;Pinot_Noir;Gewurztraminer;colombard;Chardonnay;Sangiovese;Tinta_Barocca;Touriga_Nacional","landuse":"vineyard","name":"Block 9","operator":"Bezalel Estate (Pty) Ltd"}}},{"type":"Feature","id":"way/520135722","geometry":{"type":"Polygon","coordinates":[[[21.1056,-28.61239],[21.10477,-28.61325],[21.10446,-28.61365],[21.10286,-28.61228],[21.10397,-28.61109],[21.1056,-28.61239]]]},"properties":{"osm_type":"way","osm_id":520135722,"category":"vineyard","name":"Block 8","tags":{"crop":"grape","grape_variety":"Sauvignon_Blanc;Regal","landuse":"vineyard","name":"Block 8","operator":"Bezalel Estate (Pty) Ltd"}}},{"type":"Feature","id":"way/520135723","geometry":{"type":"Polygon","coordinates":[[[21.1035,-28.61088],[21.10393,-28.61106],[21.10281,-28.61223],[21.10256,-28.61201],[21.1029,-28.61166],[21.10279,-28.61159],[21.1035,-28.61088]]]},"properties":{"osm_type":"way","osm_id":520135723,"category":"vineyard","name":"Block 8 Step","tags":{"crop":"grape","grape_variety":"Merbine","landuse":"vineyard","name":"Block 8 Step","operator":"Bezalel Estate (Pty) Ltd"}}},{"type":"Feature","id":"way/520146605","geometry":{"type":"Polygon","coordinates":[[[21.11491,-28.60411],[21.11523,-28.60324],[21.11534,-28.60285],[21.11565,-28.60238],[21.1159,-28.60203],[21.11609,-28.60195],[21.11624,-28.60207],[21.11649,-28.60201],[21.11661,-28.60205],[21.1165,-28.60262],[21.11629,-28.60355],[21.11624,-28.60373],[21.11491,-28.60411]]]},"properties":{"osm_type":"way","osm_id":520146605,"category":"vineyard","name":"Zandland","tags":{"crop":"grape","grape_variety":"Viognier","landuse":"vineyard","name":"Zandland","operator":"MEJ Bezuidenhout"}}},{"type":"Feature","id":"way/521113701","geometry":{"type":"Polygon","coordinates":[[[21.96936,-28.88384],[21.96923,-28.8838],[21.96933,-28.88358],[21.96954,-28.88364],[21.96951,-28.88371],[21.96943,-28.8837],[21.96936,-28.88384]]]},"properties":{"osm_type":"way","osm_id":521113701,"category":"wine_shop","tags":{"building":"yes","shop":"wine"}}},{"type":"Feature","id":"way/521113703","geometry":{"type":"Polygon","coordinates":[[[21.96872,-28.88415],[21.96853,-28.88412],[21.96863,-28.88369],[21.96828,-28.88363],[21.96838,-28.88332],[21.96868,-28.88337],[21.96867,-28.88342],[21.96918,-28.88353],[21.96911,-28.88377],[21.96897,-28.88375],[21.96896,-28.88394],[21.96879,-28.88389],[21.96872,-28.88415]]]},"properties":{"osm_type":"way","osm_id":521113703,"category":"winery","name":"Orange River Cellar","tags":{"building":"yes","craft":"winery","name":"Orange River Cellar"}}},{"type":"Feature","id":"way/525421638","geometry":{"type":"Polygon","coordinates":[[[21.75698,-28.5471],[21.75669,-28.5457],[21.75637,-28.54364],[21.75734,-28.54341],[21.75821,-28.54328],[21.75835,-28.54398],[21.76021,-28.54393],[21.76046,-28.54497],[21.76069,-28.54593],[21.76084,-28.54656],[21.75827,-28.54695],[21.75698,-28.5471]]]},"properties":{"osm_type":"way","osm_id":525421638,"category":"winery","name":"Orange River Wine Cellars","tags":{"craft":"winery","crop":"grape","landuse":"vineyard","name":"Orange River Wine Cellars"}}},{"type":"Feature","id":"way/542191766","geometry":{"type":"Polygon","coordinates":[[[21.25475,-34.10983],[21.25506,-34.10984],[21.25508,-34.1096],[21.25503,-34.1096],[21.25503,-34.10953],[21.25482,-34.10952],[21.25481,-34.10958],[21.25477,-34.10958],[21.25475,-34.10983]]]},"properties":{"osm_type":"way","osm_id":542191766,"category":"wine_shop","name":"Baleia Wines","tags":{"building":"yes","name":"Baleia Wines","shop":"wine"}}},{"type":"Feature","id":"way/583237654","geometry":{"type":"Polygon","coordinates":[[[18.80525,-34.02955],[18.80525,-34.02954],[18.80518,-34.02956],[18.80515,-34.02949],[18.80519,-34.02947],[18.80516,-34.0294],[18.80528,-34.02936],[18.80526,-34.02931],[18.80573,-34.02918],[18.80599,-34.0291],[18.80608,-34.02931],[18.80596,-34.02935],[18.80612,-34.02974],[18.80539,-34.02995],[18.80533,-34.02982],[18.80536,-34.02981],[18.80525,-34.02955]]]},"properties":{"osm_type":"way","osm_id":583237654,"category":"winery","tags":{"building":"industrial","industrial":"winery"}}},{"type":"Feature","id":"way/583593928","geometry":{"type":"Polygon","coordinates":[[[18.81233,-34.01568],[18.81236,-34.01566],[18.81234,-34.01563],[18.8124,-34.0156],[18.81231,-34.01545],[18.81225,-34.01547],[18.81205,-34.01515],[18.81232,-34.01503],[18.81235,-34.01507],[18.81252,-34.015],[18.81275,-34.01538],[18.81249,-34.0155],[18.81267,-34.01579],[18.81253,-34.01585],[18.81248,-34.01576],[18.8124,-34.01579],[18.81233,-34.01568]]]},"properties":{"osm_type":"way","osm_id":583593928,"category":"winery","tags":{"building":"industrial","industrial":"winery"}}},{"type":"Feature","id":"way/584184079","geometry":{"type":"Polygon","coordinates":[[[18.81648,-34.0162],[18.8162,-34.0164],[18.81629,-34.01648],[18.81638,-34.01642],[18.81632,-34.01636],[18.81646,-34.01626],[18.81649,-34.01629],[18.81654,-34.01625],[18.81648,-34.0162]]]},"properties":{"osm_type":"way","osm_id":584184079,"category":"winery","tags":{"building":"industrial","industrial":"winery"}}},{"type":"Feature","id":"way/584184080","geometry":{"type":"Polygon","coordinates":[[[18.81653,-34.01632],[18.81671,-34.01623],[18.81672,-34.01625],[18.81682,-34.01619],[18.8169,-34.01628],[18.81662,-34.01643],[18.81653,-34.01632]]]},"properties":{"osm_type":"way","osm_id":584184080,"category":"winery","tags":{"building":"industrial","industrial":"winery"}}},{"type":"Feature","id":"way/584184086","geometry":{"type":"Polygon","coordinates":[[[18.816,-34.0168],[18.81614,-34.01691],[18.81599,-34.01703],[18.81609,-34.01711],[18.81594,-34.01724],[18.81584,-34.01715],[18.81576,-34.01722],[18.81564,-34.01713],[18.81539,-34.01693],[18.81544,-34.01689],[18.8156,-34.01701],[18.81564,-34.01697],[18.81553,-34.01688],[18.81556,-34.01685],[18.81575,-34.017],[18.816,-34.0168]]]},"properties":{"osm_type":"way","osm_id":584184086,"category":"winery","tags":{"building":"industrial","industrial":"winery"}}},{"type":"Feature","id":"way/584184087","geometry":{"type":"Polygon","coordinates":[[[18.81577,-34.01725],[18.81563,-34.01737],[18.81525,-34.01705],[18.81539,-34.01693],[18.81577,-34.01725]]]},"properties":{"osm_type":"way","osm_id":584184087,"category":"winery","tags":{"building":"industrial","industrial":"winery"}}},{"type":"Feature","id":"way/584193513","geometry":{"type":"Polygon","coordinates":[[[18.82097,-34.01666],[18.82085,-34.01777],[18.82075,-34.01911],[18.8207,-34.02017],[18.82254,-34.02059],[18.82783,-34.02177],[18.82969,-34.02219],[18.82995,-34.02137],[18.83103,-34.01776],[18.83072,-34.01752],[18.83085,-34.01695],[18.83113,-34.01551],[18.82749,-34.01314],[18.82629,-34.01238],[18.82509,-34.01161],[18.82259,-34.01],[18.8217,-34.01317],[18.82158,-34.01364],[18.82142,-34.01422],[18.82139,-34.0144],[18.82127,-34.01498],[18.82097,-34.01666]]]},"properties":{"osm_type":"way","osm_id":584193513,"category":"vineyard","name":"Eikendal Estate","tags":{"crop":"grape","landuse":"vineyard","name":"Eikendal Estate","website":"https://www.eikendaal.com"}}},{"type":"Feature","id":"way/584286474","geometry":{"type":"Polygon","coordinates":[[[18.83315,-34.01518],[18.83356,-34.01527],[18.8334,-34.01575],[18.83315,-34.0157],[18.83314,-34.01575],[18.83298,-34.01571],[18.83297,-34.01575],[18.8329,-34.01573],[18.83292,-34.01565],[18.83282,-34.01563],[18.83278,-34.01562],[18.83283,-34.01548],[18.83304,-34.01553],[18.83315,-34.01518]]]},"properties":{"osm_type":"way","osm_id":584286474,"category":"winery","name":"Longridge Estate","tags":{"building":"industrial","industrial":"winery","name":"Longridge Estate"}}},{"type":"Feature","id":"way/601152756","geometry":{"type":"Polygon","coordinates":[[[18.74994,-32.97737],[18.74981,-32.97732],[18.7478,-32.97653],[18.74708,-32.97625],[18.74696,-32.97678],[18.74688,-32.97737],[18.74699,-32.97933],[18.74709,-32.98136],[18.74723,-32.98374],[18.74892,-32.98132],[18.74969,-32.98162],[18.75015,-32.98071],[18.7514,-32.98105],[18.75232,-32.97985],[18.75572,-32.98045],[18.7559,-32.97973],[18.75557,-32.97929],[18.75526,-32.97782],[18.75505,-32.97778],[18.75281,-32.97897],[18.75129,-32.97817],[18.75348,-32.97542],[18.75148,-32.97434],[18.74987,-32.97729],[18.74994,-32.97737]]]},"properties":{"osm_type":"way","osm_id":601152756,"category":"winery","name":"Nieuwedrift Wine House","tags":{"craft":"winery","landuse":"vineyard","name":"Nieuwedrift Wine House","operator":"Nieuwedrift Vineyards"}}},{"type":"Feature","id":"way/687432361","geometry":{"type":"Polygon","coordinates":[[[18.42371,-34.04686],[18.4235,-34.04693],[18.42361,-34.04716],[18.42344,-34.04722],[18.42341,-34.04723],[18.42355,-34.04751],[18.42375,-34.04744],[18.42386,-34.0474],[18.42383,-34.04733],[18.42379,-34.04725],[18.42403,-34.04717],[18.42404,-34.0472],[18.42418,-34.04715],[18.4241,-34.04699],[18.42409,-34.04697],[18.42407,-34.04695],[18.42406,-34.04695],[18.42404,-34.04695],[18.42402,-34.04695],[18.42396,-34.04697],[18.4238,-34.04703],[18.42371,-34.04686]]]},"properties":{"osm_type":"way","osm_id":687432361,"category":"winery","name":"Constantia Uitsig","tags":{"building":"distillery","craft":"winery","name":"Constantia Uitsig"}}},{"type":"Feature","id":"way/730005777","geometry":{"type":"Polygon","coordinates":[[[18.56535,-33.82541],[18.56566,-33.82532],[18.56567,-33.82533],[18.56626,-33.82515],[18.56631,-33.82527],[18.56651,-33.82521],[18.5663,-33.82474],[18.56632,-33.82473],[18.56625,-33.82456],[18.56602,-33.82463],[18.56601,-33.82459],[18.56586,-33.82464],[18.56582,-33.82454],[18.56577,-33.82455],[18.56573,-33.82457],[18.56575,-33.82462],[18.56577,-33.82466],[18.56574,-33.82467],[18.56574,-33.82468],[18.56561,-33.82471],[18.56553,-33.82474],[18.56551,-33.82469],[18.56549,-33.82464],[18.56547,-33.82465],[18.56543,-33.82466],[18.56543,-33.82464],[18.56542,-33.82465],[18.5654,-33.82461],[18.5653,-33.82464],[18.56532,-33.82468],[18.56527,-33.8247],[18.56532,-33.82481],[18.56531,-33.82481],[18.56532,-33.82484],[18.56538,-33.82482],[18.56545,-33.82498],[18.5652,-33.82506],[18.56535,-33.82541]]]},"properties":{"osm_type":"way","osm_id":730005777,"category":"wine_shop","name":"Durbanville Hills","tags":{"amenity":"restaurant","building":"yes","name":"Durbanville Hills","shop":"wine"}}},{"type":"Feature","id":"way/750377352","geometry":{"type":"Polygon","coordinates":[[[18.91029,-33.9535],[18.91039,-33.95359],[18.91041,-33.95358],[18.91048,-33.95364],[18.91045,-33.95366],[18.91054,-33.95373],[18.91082,-33.95349],[18.91074,-33.95342],[18.9107,-33.95345],[18.91069,-33.95345],[18.91068,-33.95346],[18.91061,-33.9534],[18.91068,-33.95334],[18.91058,-33.95326],[18.91029,-33.9535]]]},"properties":{"osm_type":"way","osm_id":750377352,"category":"winery","name":"Stark Conde","tags":{"building":"yes","craft":"winery","name":"Stark Conde","name:en":"Stark Conde","name:old":"Oude Nektar","tourism":"attraction"}}},{"type":"Feature","id":"way/766355669","geometry":{"type":"Polygon","coordinates":[[[19.01391,-32.59345],[19.01397,-32.59361],[19.01363,-32.5937],[19.01356,-32.59351],[19.0138,-32.59344],[19.01382,-32.59348],[19.01391,-32.59345]]]},"properties":{"osm_type":"way","osm_id":766355669,"category":"wine_shop","name":"Citrusdal Wijnhuis","tags":{"building":"yes","name":"Citrusdal Wijnhuis","shop":"wine"}}},{"type":"Feature","id":"way/769191706","geometry":{"type":"Polygon","coordinates":[[[19.26988,-33.66012],[19.26977,-33.66057],[19.26924,-33.66047],[19.26935,-33.66002],[19.26988,-33.66012]]]},"properties":{"osm_type":"way","osm_id":769191706,"category":"winery","tags":{"building":"industrial","industrial":"winery","operator":"Badsberg"}}},{"type":"Feature","id":"way/779458036","geometry":{"type":"Polygon","coordinates":[[[19.32647,-34.33104],[19.32669,-34.33104],[19.32669,-34.33113],[19.32665,-34.33113],[19.32665,-34.3312],[19.32669,-34.3312],[19.3267,-34.33138],[19.32663,-34.33137],[19.32663,-34.3315],[19.32647,-34.33149],[19.32648,-34.33124],[19.32652,-34.33124],[19.32652,-34.33121],[19.32645,-34.33121],[19.32645,-34.33112],[19.32647,-34.33112],[19.32647,-34.33104]]]},"properties":{"osm_type":"way","osm_id":779458036,"category":"winery","name":"Creation Wines","tags":{"craft":"winery","name":"Creation Wines","website":"https://www.creationwines.com/"}}},{"type":"Feature","id":"way/802696800","geometry":{"type":"Polygon","coordinates":[[[18.46922,-33.97853],[18.46931,-33.97843],[18.46914,-33.97835],[18.46922,-33.97853]]]},"properties":{"osm_type":"way","osm_id":802696800,"category":"wine_shop","name":"Liquor City Claremont","tags":{"addr:city":"Claremont","addr:housenumber":"43","addr:street":"Palmyra Road","building":"yes","name":"Liquor City Claremont","phone":"+27 21 674 1478","shop":"wine"}}},{"type":"Feature","id":"way/818310105","geometry":{"type":"Polygon","coordinates":[[[19.76215,-33.77651],[19.76214,-33.77654],[19.76212,-33.7766],[19.76225,-33.77663],[19.76228,-33.77653],[19.76215,-33.77651]]]},"properties":{"osm_type":"way","osm_id":818310105,"category":"winery","name":"Rooiberg Winery","tags":{"craft":"winery","name":"Rooiberg Winery"}}},{"type":"Feature","id":"way/831267106","geometry":{"type":"Polygon","coordinates":[[[18.75189,-33.45522],[18.75335,-33.45367],[18.75393,-33.45304],[18.75472,-33.4522],[18.75435,-33.45195],[18.75342,-33.45197],[18.75328,-33.45215],[18.75118,-33.45455],[18.75108,-33.45474],[18.75189,-33.45522]]]},"properties":{"osm_type":"way","osm_id":831267106,"category":"vineyard","name":"Swartland Winery","tags":{"crop":"grape","landuse":"vineyard","name":"Swartland Winery"}}},{"type":"Feature","id":"way/857582388","geometry":{"type":"Polygon","coordinates":[[[18.33289,-31.57484],[18.33311,-31.57489],[18.33306,-31.57505],[18.33284,-31.575],[18.33289,-31.57484]]]},"properties":{"osm_type":"way","osm_id":857582388,"category":"wine_cellar","name":"Seal Breeze Wines","tags":{"building":"yes","name":"Seal Breeze Wines","phone":"+27 84 5051991","tourism":"wine_cellar"}}},{"type":"Feature","id":"way/857604571","geometry":{"type":"Polygon","coordinates":[[[18.3498,-31.56048],[18.34994,-31.5605],[18.3499,-31.5607],[18.34975,-31.56067],[18.3498,-31.56048]]]},"properties":{"osm_type":"way","osm_id":857604571,"category":"wine_cellar","name":"Lutzville wine cellars","tags":{"building":"yes","name":"Lutzville wine cellars","opening_hours":"Mo-Fr 09:00-17:00; Sa,PH 10:00-14:00","phone":"+27 27 217 1516","tourism":"wine_cellar","website":"https://lutzvillevineyards.com"}}},{"type":"Feature","id":"way/857618098","geometry":{"type":"Polygon","coordinates":[[[18.5032,-31.71],[18.50342,-31.70982],[18.5037,-31.71006],[18.50349,-31.71025],[18.5032,-31.71]]]},"properties":{"osm_type":"way","osm_id":857618098,"category":"wine_cellar","name":"Namaqua die Keldery","tags":{"building":"yes","name":"Namaqua die Keldery","phone":"+27 213 3698","tourism":"wine_cellar"}}},{"type":"Feature","id":"way/907032935","geometry":{"type":"Polygon","coordinates":[[[20.10605,-33.74905],[20.10611,-33.74902],[20.10617,-33.74909],[20.1059,-33.74924],[20.10588,-33.74921],[20.10585,-33.74923],[20.10575,-33.7491],[20.10598,-33.74896],[20.10605,-33.74905]]]},"properties":{"osm_type":"way","osm_id":907032935,"category":"winery","name":"Drie Berge","tags":{"building":"yes","craft":"winery","name":"Drie Berge"}}},{"type":"Feature","id":"way/919250478","geometry":{"type":"Polygon","coordinates":[[[20.05451,-33.78112],[20.05459,-33.78114],[20.05456,-33.7812],[20.05449,-33.78118],[20.05451,-33.78112]]]},"properties":{"osm_type":"way","osm_id":919250478,"category":"winery","name":"Klein Hoek Kloof","tags":{"building":"yes","craft":"winery","name":"Klein Hoek Kloof"}}},{"type":"Feature","id":"way/968777920","geometry":{"type":"Polygon","coordinates":[[[19.0804,-33.88549],[19.08035,-33.88556],[19.08026,-33.88552],[19.08007,-33.88576],[19.08016,-33.8858],[19.08009,-33.88589],[19.08021,-33.88595],[19.08036,-33.88603],[19.08066,-33.88563],[19.0804,-33.88549]]]},