{"type":"FeatureCollection","features":[{"type":"Feature","id":"node/251859733","geometry":{"type":"Point","coordinates":[18.7827686,-33.9744998]},"properties":{"osm_type":"node","osm_id":251859733,"category":"winery","name":"Spier","wikidata":"Q7577117","wikipedia":"af:Spier-wynlandgoed","tags":{"alt_name":"Spier Wine Farm","craft":"winery","name":"Spier","website":"https://www.spier.co.za/","wikidata":"Q7577117","wikipedia":"af:Spier-wynlandgoed"}}},{"type":"Feature","id":"node/487919153","geometry":{"type":"Point","coordinates":[19.0080395,-33.661116]},"properties":{"osm_type":"node","osm_id":487919153,"category":"winery","name":"Diemersfontein","tags":{"craft":"winery","name":"Diemersfontein","website":"https://www.diemersfontein.co.za/"}}},{"type":"Feature","id":"node/503850733","geometry":{"type":"Point","coordinates":[20.0026162,-33.8752778]},"properties":{"osm_type":"node","osm_id":503850733,"category":"winery","name":"Van Loveren","tags":{"craft":"winery","name":"Van Loveren","phone":"+27 236151505"}}},{"type":"Feature","id":"node/583974868","geometry":{"type":"Point","coordinates":[18.4163304,-34.0423149]},"properties":{"osm_type":"node","osm_id":583974868,"category":"winery","name":"Buitenverwachting","tags":{"craft":"winery","name":"Buitenverwachting","website":"https://buitenverwachting.com/"}}},{"type":"Feature","id":"node/711897732","geometry":{"type":"Point","coordinates":[19.9599728,-33.8452712]},"properties":{"osm_type":"node","osm_id":711897732,"category":"winery","name":"Bon Courage","tags":{"craft":"winery","name":"Bon Courage","phone":"+27 236264178"}}},{"type":"Feature","id":"node/714117490","geometry":{"type":"Point","coordinates":[18.5937463,-33.8342543]},"properties":{"osm_type":"node","osm_id":714117490,"category":"winery","name":"Nitida Winery","tags":{"craft":"winery","name":"Nitida Winery","shop":"alcohol","tourism":"attraction"}}},{"type":"Feature","id":"node/725593563","geometry":{"type":"Point","coordinates":[18.6093953,-33.8430609]},"properties":{"osm_type":"node","osm_id":725593563,"category":"winery","name":"D'Aria","wikidata":"Q131918577","tags":{"craft":"winery","name":"D'Aria","website":"https://www.dariawinery.co.za/","wikidata":"Q131918577"}}},{"type":"Feature","id":"node/762445902","geometry":{"type":"Point","coordinates":[29.9791333,-29.2966823]},"properties":{"osm_type":"node","osm_id":762445902,"category":"winery","name":"The Wine Cellar","tags":{"amenity":"bar","craft":"winery","name":"The Wine Cellar","phone":"+27 33 2677044","tourism":"wine_cellar","website":"https://thewinecellar.co.za/"}}},{"type":"Feature","id":"node/796042943","geometry":{"type":"Point","coordinates":[21.6840112,-33.5402485]},"properties":{"osm_type":"node","osm_id":796042943,"category":"winery","name":"De Krans","tags":{"craft":"winery","man_made":"cellar_entrance","name":"De Krans","name:en":"De Krans","phone":"+27 442133314","shop":"wine","website":"https://www.dekrans.co.za/"}}},{"type":"Feature","id":"node/808701500","geometry":{"type":"Point","coordinates":[18.8472937,-34.002527]},"properties":{"osm_type":"node","osm_id":808701500,"category":"winery","name":"Alto","wikidata":"Q443396","wikipedia":"de:Alto Estate","tags":{"addr:street":"Annandale Road","craft":"winery","email":"info@alto.co.za","name":"Alto","opening_hours":"Mo-Fr 09:00-17:00;Sa 10:00-16:00; Su,PH off","phone":"+27 21 8813884","tourism":"wine_cellar","website":"https://www.alto.co.za/","wikidata":"Q443396","wikipedia":"de:Alto Estate"}}},{"type":"Feature","id":"node/1027802215","geometry":{"type":"Point","coordinates":[18.9227094,-33.921796]},"properties":{"osm_type":"node","osm_id":1027802215,"category":"winery","name":"Delaire Graff Estate","tags":{"amenity":"restaurant","craft":"winery","name":"Delaire Graff Estate"}}},{"type":"Feature","id":"node/1168847484","geometry":{"type":"Point","coordinates":[18.865436,-33.993504]},"properties":{"osm_type":"node","osm_id":1168847484,"category":"winery","name":"Stellenzicht","tags":{"craft":"winery","name":"Stellenzicht","tourism":"wine_cellar"}}},{"type":"Feature","id":"node/1168848267","geometry":{"type":"Point","coordinates":[18.8733023,-33.9949826]},"properties":{"osm_type":"node","osm_id":1168848267,"category":"wine_cellar","name":"Kleinood","tags":{"name":"Kleinood","tourism":"wine_cellar"}}},{"type":"Feature","id":"node/1168848532","geometry":{"type":"Point","coordinates":[18.8470652,-33.9912676]},"properties":{"osm_type":"node","osm_id":1168848532,"category":"wine_cellar","name":"Stellenrust","tags":{"name":"Stellenrust","tourism":"wine_cellar"}}},{"type":"Feature","id":"node/1168893522","geometry":{"type":"Point","coordinates":[18.8598289,-33.8553348]},"properties":{"osm_type":"node","osm_id":1168893522,"category":"winery","name":"Kanonkop","tags":{"craft":"winery","name":"Kanonkop","website":"https://kanonkop.co.za/"}}},{"type":"Feature","id":"node/1168893579","geometry":{"type":"Point","coordinates":[18.8638602,-33.8572227]},"properties":{"osm_type":"node","osm_id":1168893579,"category":"winery","name":"Uitkyk","tags":{"craft":"winery","name":"Uitkyk","website":"https://www.uitkyk.co.za/"}}},{"type":"Feature","id":"node/1168893748","geometry":{"type":"Point","coordinates":[18.9228906,-33.9084755]},"properties":{"osm_type":"node","osm_id":1168893748,"category":"winery","name":"Thelema","tags":{"craft":"winery","name":"Thelema","name:en":"Thelema","website":"https://www.thelema.co.za/"}}},{"type":"Feature","id":"node/1168893806","geometry":{"type":"Point","coordinates":[18.8925248,-33.8957069]},"properties":{"osm_type":"node","osm_id":1168893806,"category":"winery","name":"Rustenberg Wines","tags":{"craft":"winery","name":"Rustenberg Wines","tourism":"wine_cellar"}}},{"type":"Feature","id":"node/1735308545","geometry":{"type":"Point","coordinates":[18.4246103,-34.0267934]},"properties":{"osm_type":"node","osm_id":1735308545,"category":"wine_shop","name":"Groot Constantia Winery","tags":{"addr:street":"Groot Constantia Road","name":"Groot Constantia Winery","shop":"wine","website":"https://www.grootconstantia.co.za"}}},{"type":"Feature","id":"node/2074675323","geometry":{"type":"Point","coordinates":[21.3236579,-34.0555974]},"properties":{"osm_type":"node","osm_id":2074675323,"category":"wine_cellar","name":"Edenberg","tags":{"name":"Edenberg","tourism":"wine_cellar"}}},{"type":"Feature","id":"node/2687528374","geometry":{"type":"Point","coordinates":[18.8561928,-33.9987317]},"properties":{"osm_type":"node","osm_id":2687528374,"category":"winery","name":"Rust en Vrede","tags":{"craft":"winery","name":"Rust en Vrede","phone":"+27 21 881 3881","tourism":"wine_cellar","website":"https://rustenvrede.com/"}}},{"type":"Feature","id":"node/2706874896","geometry":{"type":"Point","coordinates":[18.9820083,-34.1930118]},"properties":{"osm_type":"node","osm_id":2706874896,"category":"vineyard","name":"Lothian Vineyards","tags":{"landuse":"vineyard","name":"Lothian Vineyards"}}},{"type":"Feature","id":"node/3128013368","geometry":{"type":"Point","coordinates":[18.9680972,-33.8853116]},"properties":{"osm_type":"node","osm_id":3128013368,"category":"winery","name":"Boschendal","wikidata":"Q390505","wikipedia":"en:Boschendal","tags":{"craft":"winery","name":"Boschendal","website":"https://boschendalwines.com/","wikidata":"Q390505","wikipedia":"en:Boschendal"}}},{"type":"Feature","id":"node/3128013369","geometry":{"type":"Point","coordinates":[18.7449996,-33.9430018]},"properties":{"osm_type":"node","osm_id":3128013369,"category":"winery","name":"Jordan","tags":{"craft":"winery","name":"Jordan","website":"https://www.jordanwines.com/"}}},{"type":"Feature","id":"node/3185322964","geometry":{"type":"Point","coordinates":[18.4097011,-33.4834737]},"properties":{"osm_type":"node","osm_id":3185322964,"category":"winery","name":"Groote Post Wine Estate","tags":{"craft":"winery","email":"wine@grootepost.co.za","name":"Groote Post Wine Estate","opening_hours":"Mo-Su 10:00-16:00","phone":"+27 22 492 2825","shop":"wine"}}},{"type":"Feature","id":"node/3185466125","geometry":{"type":"Point","coordinates":[18.8889456,-33.8119917]},"properties":{"osm_type":"node","osm_id":3185466125,"category":"winery","name":"Anura","tags":{"craft":"winery","name":"Anura","website":"https://www.anura.co.za/"}}},{"type":"Feature","id":"node/3185474559","geometry":{"type":"Point","coordinates":[18.8254722,-33.8700278]},"properties":{"osm_type":"node","osm_id":3185474559,"category":"winery","name":"Simonsig Estate","tags":{"craft":"winery","name":"Simonsig Estate","tourism":"attraction"}}},{"type":"Feature","id":"node/3195675708","geometry":{"type":"Point","coordinates":[18.8352599,-33.9707675]},"properties":{"osm_type":"node","osm_id":3195675708,"category":"winery","name":"Kleine Zalze","tags":{"alt_name":"Kleine Zalze Wine Estate","craft":"winery","name":"Kleine Zalze","website":"https://www.kleinezalze.co.za/"}}},{"type":"Feature","id":"node/3264787496","geometry":{"type":"Point","coordinates":[22.4690354,-33.8637234]},"properties":{"osm_type":"node","osm_id":3264787496,"category":"winery","name":"Herold Wines","tags":{"craft":"winery","name":"Herold Wines","website":"https://heroldwines.co.za/"}}},{"type":"Feature","id":"node/3361042703","geometry":{"type":"Point","coordinates":[18.9416033,-33.914735]},"properties":{"osm_type":"node","osm_id":3361042703,"category":"winery","name":"Molenvliet","tags":{"craft":"winery","name":"Molenvliet","website":"https://molenvliet.co.za/wine/"}}},{"type":"Feature","id":"node/3361042706","geometry":{"type":"Point","coordinates":[18.9355172,-33.9130181]},"properties":{"osm_type":"node","osm_id":3361042706,"category":"winery","name":"Zorgvliet","tags":{"craft":"winery","name":"Zorgvliet","website":"https://zorgvliet.com/about-our-wines/"}}},{"type":"Feature","id":"node/3361042707","geometry":{"type":"Point","coordinates":[18.928525,-33.9186972]},"properties":{"osm_type":"node","osm_id":3361042707,"category":"winery","name":"Le Pommier","tags":{"craft":"winery","name":"Le Pommier","website":"https://www.lepommier.co.za/"}}},{"type":"Feature","id":"node/3361042710","geometry":{"type":"Point","coordinates":[18.9306476,-33.9183501]},"properties":{"osm_type":"node","osm_id":3361042710,"category":"winery","name":"Bartinney Private Cellar","tags":{"craft":"winery","name":"Bartinney Private Cellar"}}},{"type":"Feature","id":"node/3361042711","geometry":{"type":"Point","coordinates":[18.932257,-33.9189644]},"properties":{"osm_type":"node","osm_id":3361042711,"category":"winery","name":"Camberley Wines","tags":{"craft":"winery","name":"Camberley Wines"}}},{"type":"Feature","id":"node/3609215644","geometry":{"type":"Point","coordinates":[18.8506463,-33.9351689]},"properties":{"osm_type":"node","osm_id":3609215644,"category":"wine_shop","name":"De Bergkelder","tags":{"name":"De Bergkelder","shop":"wine"}}},{"type":"Feature","id":"node/4071126082","geometry":{"type":"Point","coordinates":[19.8784839,-33.8088742]},"properties":{"osm_type":"node","osm_id":4071126082,"category":"wine_shop","name":"La Verne","tags":{"addr:street":"Voortrekker Avenue","name":"La Verne","phone":"+27236264314","shop":"wine","website":"https://www.lavernewines.co.za/"}}},{"type":"Feature","id":"node/4072892011","geometry":{"type":"Point","coordinates":[19.8795273,-33.8089798]},"properties":{"osm_type":"node","osm_id":4072892011,"category":"winery","name":"Roodezandt","tags":{"addr:city":"Robertson","addr:postcode":"6705","addr:street":"Voortrekker Avenue","craft":"winery","name":"Roodezandt"}}},{"type":"Feature","id":"node/4072892012","geometry":{"type":"Point","coordinates":[19.880732,-33.8101983]},"properties":{"osm_type":"node","osm_id":4072892012,"category":"winery","name":"Robertson","tags":{"addr:city":"Robertson","addr:postcode":"6705","addr:street":"Voortrekker Avenue","craft":"winery","name":"Robertson"}}},{"type":"Feature","id":"node/4087697601","geometry":{"type":"Point","coordinates":[19.9157061,-33.8369531]},"properties":{"osm_type":"node","osm_id":4087697601,"category":"winery","name":"Springfield","tags":{"addr:city":"Robertson","addr:postcode":"6705","alt_name":"Springfield Estate","craft":"winery","name":"Springfield","phone":"+27 236263661","website":"https://springfieldestate.com/"}}},{"type":"Feature","id":"node/4087697603","geometry":{"type":"Point","coordinates":[19.9671722,-33.838293]},"properties":{"osm_type":"node","osm_id":4087697603,"category":"winery","name":"Rietvallei","tags":{"addr:city":"Robertson","addr:postcode":"6705","craft":"winery","name":"Rietvallei","phone":"+27 236263596"}}},{"type":"Feature","id":"node/4087697604","geometry":{"type":"Point","coordinates":[19.9862174,-33.8688526]},"properties":{"osm_type":"node","osm_id":4087697604,"category":"winery","name":"Viljoensdrift","tags":{"addr:city":"Robertson","addr:postcode":"6705","craft":"winery","name":"Viljoensdrift","phone":"+27 236261901"}}},{"type":"Feature","id":"node/4087697607","geometry":{"type":"Point","coordinates":[20.0096758,-33.8775454]},"properties":{"osm_type":"node","osm_id":4087697607,"category":"winery","name":"De Wetshof","tags":{"addr:city":"Robertson","addr:postcode":"6705","craft":"winery","name":"De Wetshof"}}},{"type":"Feature","id":"node/4087697610","geometry":{"type":"Point","coordinates":[20.008099,-33.8560752]},"properties":{"osm_type":"node","osm_id":4087697610,"category":"winery","name":"Excelsior","tags":{"addr:city":"Robertson","addr:postcode":"6705","craft":"winery","name":"Excelsior","phone":"+27 236261980"}}},{"type":"Feature","id":"node/4087697627","geometry":{"type":"Point","coordinates":[20.1019432,-33.9577982]},"properties":{"osm_type":"node","osm_id":4087697627,"category":"winery","name":"Bonnievale","tags":{"addr:city":"Bonnievale","craft":"winery","name":"Bonnievale"}}},{"type":"Feature","id":"node/4087697629","geometry":{"type":"Point","coordinates":[20.1095374,-33.9377989]},"properties":{"osm_type":"node","osm_id":4087697629,"category":"wine_shop","name":"Timjan","tags":{"addr:city":"Bonnievale","name":"Timjan","shop":"wine"}}},{"type":"Feature","id":"node/4087697630","geometry":{"type":"Point","coordinates":[20.1062713,-33.9385713]},"properties":{"osm_type":"node","osm_id":4087697630,"category":"winery","name":"Van Zylshof","tags":{"addr:city":"Bonnievale","craft":"winery","name":"Van Zylshof"}}},{"type":"Feature","id":"node/4087987947","geometry":{"type":"Point","coordinates":[19.8740897,-33.8062819]},"properties":{"osm_type":"node","osm_id":4087987947,"category":"wine_shop","name":"KWV","tags":{"addr:city":"Robertson","addr:postcode":"6705","name":"KWV","shop":"wine"}}},{"type":"Feature","id":"node/4142785801","geometry":{"type":"Point","coordinates":[18.8917271,-33.7394619]},"properties":{"osm_type":"node","osm_id":4142785801,"category":"wine_cellar","name":"Black Pearl","tags":{"name":"Black Pearl","tourism":"wine_cellar"}}},{"type":"Feature","id":"node/4142785802","geometry":{"type":"Point","coordinates":[18.9552273,-33.6887306]},"properties":{"osm_type":"node","osm_id":4142785802,"category":"wine_cellar","name":"Boland Kelder","tags":{"name":"Boland Kelder","tourism":"wine_cellar"}}},{"type":"Feature","id":"node/4142785804","geometry":{"type":"Point","coordinates":[18.9499947,-33.6912725]},"properties":{"osm_type":"node","osm_id":4142785804,"category":"wine_cellar","name":"Eureka","tags":{"name":"Eureka","tourism":"wine_cellar"}}},{"type":"Feature","id":"node/4142785807","geometry":{"type":"Point","coordinates":[18.9476029,-33.849374]},"properties":{"osm_type":"node","osm_id":4142785807,"category":"wine_cellar","name":"Plaisir de Merle","tags":{"name":"Plaisir de Merle","tourism":"wine_cellar"}}},{"type":"Feature","id":"node/4227032753","geometry":{"type":"Point","coordinates":[19.1950787,-33.5191619]},"properties":{"osm_type":"node","osm_id":4227032753,"category":"winery","name":"Bergsig","tags":{"craft":"winery","name":"Bergsig","website":"https://bergsig.co.za/"}}},{"type":"Feature","id":"node/4230413893","geometry":{"type":"Point","coordinates":[19.063759,-33.8814169]},"properties":{"osm_type":"node","osm_id":4230413893,"category":"winery","name":"Eikehof","tags":{"craft":"winery","name":"Eikehof","website":"https://eikehof.com/"}}},{"type":"Feature","id":"node/4321272427","geometry":{"type":"Point","coordinates":[18.8642079,-33.8405425]},"properties":{"osm_type":"node","osm_id":4321272427,"category":"winery","name":"Warwick","tags":{"craft":"winery","name":"Warwick","website":"https://www.warwickwine.com/"}}},{"type":"Feature","id":"node/4342431996","geometry":{"type":"Point","coordinates":[18.9020442,-33.6867805]},"properties":{"osm_type":"node","osm_id":4342431996,"category":"wine_cellar","name":"Crows Nest","tags":{"name":"Crows Nest","tourism":"wine_cellar"}}},{"type":"Feature","id":"node/4352361399","geometry":{"type":"Point","coordinates":[18.7918839,-33.8987275]},"properties":{"osm_type":"node","osm_id":4352361399,"category":"wine_shop","name":"Hartenberg Estate","tags":{"name":"Hartenberg Estate","shop":"wine"}}},{"type":"Feature","id":"node/4381866912","geometry":{"type":"Point","coordinates":[19.998854,-33.7984122]},"properties":{"osm_type":"node","osm_id":4381866912,"category":"winery","name":"Kranskop","tags":{"craft":"winery","name":"Kranskop","operator":"Kranskop","phone":"+27 236263200","website":"www.kraskopwines.co.za"}}},{"type":"Feature","id":"node/4381896220","geometry":{"type":"Point","coordinates":[20.0047839,-33.9204914]},"properties":{"osm_type":"node","osm_id":4381896220,"category":"winery","name":"Goedverwacht","tags":{"craft":"winery","name":"Goedverwacht","operator":"Goedverwacht","phone":"+27 236163430","website":"https://www.goedverwacht.co.za/"}}},{"type":"Feature","id":"node/4381896222","geometry":{"type":"Point","coordinates":[20.0519639,-33.9418246]},"properties":{"osm_type":"node","osm_id":4381896222,"category":"winery","name":"Weltevrede","tags":{"craft":"winery","name":"Weltevrede","operator":"Weltevrede","phone":"+27 236162141","website":"https://www.weltevrede.com/"}}},{"type":"Feature","id":"node/4382961798","geometry":{"type":"Point","coordinates":[20.0304042,-33.8367242]},"properties":{"osm_type":"node","osm_id":4382961798,"category":"winery","name":"Ashton","tags":{"alt_name":"Ashton Winery","craft":"winery","name":"Ashton","phone":"+27 236151135","website":"https://www.ashtonwinery.com/"}}},{"type":"Feature","id":"node/4492238121","geometry":{"type":"Point","coordinates":[18.5167709,-31.6526588]},"properties":{"osm_type":"node","osm_id":4492238121,"category":"winery","name":"Vredendal Keldery","tags":{"craft":"winery","name":"Vredendal Keldery"}}},{"type":"Feature","id":"node/4519278192","geometry":{"type":"Point","coordinates":[18.8496239,-33.997957]},"properties":{"osm_type":"node","osm_id":4519278192,"category":"winery","name":"Bilton Wineries","tags":{"craft":"winery","name":"Bilton Wineries"}}},{"type":"Feature","id":"node/4608590820","geometry":{"type":"Point","coordinates":[19.2281502,-33.6388224]},"properties":{"osm_type":"node","osm_id":4608590820,"category":"winery","name":"Opstal","tags":{"craft":"winery","name":"Opstal","name:en":"Opstal","opening_hours":"Mo-Fr 09:00-17:00; Sa 11:00-16:00; Su 12:00-15:00","website":"https://opstal.co.za/"}}},{"type":"Feature","id":"node/4608590893","geometry":{"type":"Point","coordinates":[19.2284406,-33.6648775]},"properties":{"osm_type":"node","osm_id":4608590893,"category":"winery","name":"Jason's Hill","tags":{"craft":"winery","name":"Jason's Hill","name:en":"Jason's Hill","website":"https://www.jasonshill.co.za/"}}},{"type":"Feature","id":"node/4689665795","geometry":{"type":"Point","coordinates":[18.4548671,-33.927504]},"properties":{"osm_type":"node","osm_id":4689665795,"category":"wine_shop","name":"What If The World","tags":{"addr:housenumber":"1","addr:postcode":"7915","addr:street":"Argyle Street","name":"What If The World","name:en":"What If The World","opening_hours":"Tu-Fr 09:30-17:00; Sa 09:30-14:00","shop":"wine"}}},{"type":"Feature","id":"node/4696794792","geometry":{"type":"Point","coordinates":[21.6866679,-33.5393128]},"properties":{"osm_type":"node","osm_id":4696794792,"category":"wine_shop","name":"Calitzdorp Cellar","tags":{"name":"Calitzdorp Cellar","name:en":"Calitzdorp Cellar","shop":"wine"}}},{"type":"Feature","id":"node/4753933822","geometry":{"type":"Point","coordinates":[28.0685615,-26.1336689]},"properties":{"osm_type":"node","osm_id":4753933822,"category":"wine_shop","name":"winesense","tags":{"name":"winesense","name:en":"winesense","shop":"wine"}}},{"type":"Feature","id":"node/4790890843","geometry":{"type":"Point","coordinates":[19.4826439,-34.5660311]},"properties":{"osm_type":"node","osm_id":4790890843,"category":"winery","name":"Lomond Wines","tags":{"craft":"winery","name":"Lomond Wines"}}},{"type":"Feature","id":"node/4791948434","geometry":{"type":"Point","coordinates":[19.4574432,-33.6357743]},"properties":{"osm_type":"node","osm_id":4791948434,"category":"winery","name":"Cape Winelands","tags":{"craft":"winery","name":"Cape Winelands"}}},{"type":"Feature","id":"node/4796944221","geometry":{"type":"Point","coordinates":[19.0313314,-34.2123045]},"properties":{"osm_type":"node","osm_id":4796944221,"category":"wine_shop","name":"Almenkerk Wine Estate","tags":{"name":"Almenkerk Wine Estate","name:en":"Almenkerk Wine Estate","shop":"wine"}}},{"type":"Feature","id":"node/4803070321","geometry":{"type":"Point","coordinates":[19.3266885,-34.3310197]},"properties":{"osm_type":"node","osm_id":4803070321,"category":"wine_shop","name":"Creations Vinery","tags":{"name":"Creations Vinery","name:en":"Creations Vinery","shop":"wine"}}},{"type":"Feature","id":"node/4984691021","geometry":{"type":"Point","coordinates":[19.255238,-34.3675131]},"properties":{"osm_type":"node","osm_id":4984691021,"category":"wine_shop","name":"Suma Ridge Winery","tags":{"name":"Suma Ridge Winery","name:en":"Suma Ridge Winery","shop":"wine"}}},{"type":"Feature","id":"node/5053553978","geometry":{"type":"Point","coordinates":[19.268846,-33.6611668]},"properties":{"osm_type":"node","osm_id":5053553978,"category":"winery","name":"Badsberg","tags":{"craft":"winery","name":"Badsberg","phone":"+27 233443021","website":"https://www.badsberg.co.za/"}}},{"type":"Feature","id":"node/5091655455","geometry":{"type":"Point","coordinates":[18.9787698,-33.7575024]},"properties":{"osm_type":"node","osm_id":5091655455,"category":"winery","name":"Kaapse Familie Winery","tags":{"craft":"winery","name":"Kaapse Familie Winery"}}},{"type":"Feature","id":"node/5103544422","geometry":{"type":"Point","coordinates":[18.8008454,-33.9601975]},"properties":{"osm_type":"node","osm_id":5103544422,"category":"winery","name":"Stellenbosch Hills Winery","tags":{"addr:street":"Vlottenburg Road","craft":"winery","name":"Stellenbosch Hills Winery","website":"https://stellenbosch-hills.co.za/"}}},{"type":"Feature","id":"node/5110672222","geometry":{"type":"Point","coordinates":[18.7685665,-33.9916601]},"properties":{"osm_type":"node","osm_id":5110672222,"category":"winery","name":"Stellenbosch Vinyards","tags":{"addr:street":"Baden Powell Drive","craft":"winery","name":"Stellenbosch Vinyards","website":"https://stellenboschvineyards.co.za/"}}},{"type":"Feature","id":"node/5116500825","geometry":{"type":"Point","coordinates":[19.2431834,-34.3906024]},"properties":{"osm_type":"node","osm_id":5116500825,"category":"winery","name":"Hamilton Russel","tags":{"craft":"winery","name":"Hamilton Russel","website":"https://hamiltonrussellvineyards.com/"}}},{"type":"Feature","id":"node/5306268426","geometry":{"type":"Point","coordinates":[19.1285354,-33.9142492]},"properties":{"osm_type":"node","osm_id":5306268426,"category":"winery","name":"Le Lude","tags":{"craft":"winery","name":"Le Lude","website":"https://lelude.co.za/"}}},{"type":"Feature","id":"node/5323445424","geometry":{"type":"Point","coordinates":[19.6241333,-34.3985817]},"properties":{"osm_type":"node","osm_id":5323445424,"category":"winery","name":"Raka","tags":{"alt_name":"Raka Winery","craft":"winery","name":"Raka","phone":"+27 283410676","website":"http://www.rakawine.co.za"}}},{"type":"Feature","id":"node/5350688843","geometry":{"type":"Point","coordinates":[21.6956887,-33.5307325]},"properties":{"osm_type":"node","osm_id":5350688843,"category":"wine_shop","name":"TTT Cellar","tags":{"man_made":"cellar_entrance","name":"TTT Cellar","shop":"wine"}}},{"type":"Feature","id":"node/5488238100","geometry":{"type":"Point","coordinates":[20.0104809,-33.8409095]},"properties":{"osm_type":"node","osm_id":5488238100,"category":"winery","name":"Arabella","tags":{"craft":"winery","name":"Arabella"}}},{"type":"Feature","id":"node/5585143038","geometry":{"type":"Point","coordinates":[18.8234707,-34.0128286]},"properties":{"osm_type":"node","osm_id":5585143038,"category":"winery","name":"Eikendal Winery","tags":{"craft":"winery","name":"Eikendal Winery"}}},{"type":"Feature","id":"node/5672169621","geometry":{"type":"Point","coordinates":[18.8022176,-33.9408453]},"properties":{"osm_type":"node","osm_id":5672169621,"category":"winery","name":"Neethlingshof","tags":{"craft":"winery","name":"Neethlingshof","website":"https://www.neethlingshof.co.za/"}}},{"type":"Feature","id":"node/5784211593","geometry":{"type":"Point","coordinates":[18.4289787,-34.1930053]},"properties":{"osm_type":"node","osm_id":5784211593,"category":"wine_shop","name":"The Lord Nelson Cellars","tags":{"name":"The Lord Nelson Cellars","shop":"wine"}}},{"type":"Feature","id":"node/5854059085","geometry":{"type":"Point","coordinates":[18.7570384,-34.0169897]},"properties":{"osm_type":"node","osm_id":5854059085,"category":"winery","name":"Meerlust","tags":{"alt_name":"Meerlust Wine Estate","craft":"winery","name":"Meerlust","shop":"wine","website":"https://www.meerlust.co.za/"}}},{"type":"Feature","id":"node/5942405416","geometry":{"type":"Point","coordinates":[19.1132559,-33.2381553]},"properties":{"osm_type":"node","osm_id":5942405416,"category":"winery","name":"Krone Twee Jonge Gezellen","tags":{"craft":"winery","name":"Krone Twee Jonge Gezellen"}}},{"type":"Feature","id":"node/5942406665","geometry":{"type":"Point","coordinates":[19.1173682,-33.2463211]},"properties":{"osm_type":"node","osm_id":5942406665,"category":"winery","name":"Saronsberg Winery","tags":{"craft":"winery","name":"Saronsberg Winery"}}},{"type":"Feature","id":"node/5942517516","geometry":{"type":"Point","coordinates":[19.1067758,-33.3023543]},"properties":{"osm_type":"node","osm_id":5942517516,"category":"winery","name":"Lemberg Wine Estate","tags":{"craft":"winery","name":"Lemberg Wine Estate"}}},{"type":"Feature","id":"node/6049446285","geometry":{"type":"Point","coordinates":[18.8391284,-34.0003205]},"properties":{"osm_type":"node","osm_id":6049446285,"category":"wine_shop","name":"Peter Falke wine tastery","tags":{"name":"Peter Falke wine tastery","shop":"wine"}}},{"type":"Feature","id":"node/6071265285","geometry":{"type":"Point","coordinates":[19.1363376,-33.9145303]},"properties":{"osm_type":"node","osm_id":6071265285,"category":"winery","name":"Haute Cabrière","tags":{"addr:street":"Lambrechts Road","craft":"winery","name":"Haute Cabrière","name:en":"Haute Cabriere","phone":"+27 21 876 8500","website":"https://cabriere.co.za"}}},{"type":"Feature","id":"node/6074061485","geometry":{"type":"Point","coordinates":[19.114259,-33.9377606]},"properties":{"osm_type":"node","osm_id":6074061485,"category":"winery","name":"Holden Manz","tags":{"craft":"winery","name":"Holden Manz","website":"https://holdenmanz.com/"}}},{"type":"Feature","id":"node/6075772685","geometry":{"type":"Point","coordinates":[18.7424047,-33.9422307]},"properties":{"osm_type":"node","osm_id":6075772685,"category":"wine_shop","name":"Jordan Wine Estate","tags":{"name":"Jordan Wine Estate","shop":"wine"}}},{"type":"Feature","id":"node/6077417985","geometry":{"type":"Point","coordinates":[18.93233,-33.918791]},"properties":{"osm_type":"node","osm_id":6077417985,"category":"wine_shop","name":"Camber","tags":{"name":"Camber","name:en":"Camberley Wines","shop":"wine"}}},{"type":"Feature","id":"node/6113994085","geometry":{"type":"Point","coordinates":[19.0590634,-33.8787806]},"properties":{"osm_type":"node","osm_id":6113994085,"category":"winery","name":"Paserene","tags":{"craft":"winery","name":"Paserene","name:en":"Paserene","website":"https://paserene.com/"}}},{"type":"Feature","id":"node/6113994086","geometry":{"type":"Point","coordinates":[19.0561144,-34.2382859]},"properties":{"osm_type":"node","osm_id":6113994086,"category":"wine_shop","name":"Spioenkop Winery","tags":{"name":"Spioenkop Winery","shop":"wine"}}},{"type":"Feature","id":"node/6113994087","geometry":{"type":"Point","coordinates":[19.0784382,-34.2373348]},"properties":{"osm_type":"node","osm_id":6113994087,"category":"wine_shop","name":"Charles Fox Cap Classique","tags":{"name":"Charles Fox Cap Classique","shop":"wine"}}},{"type":"Feature","id":"node/6116701685","geometry":{"type":"Point","coordinates":[18.8902813,-33.3942316]},"properties":{"osm_type":"node","osm_id":6116701685,"category":"wine_shop","name":"Kloovenburg Wine & Olive Estate","tags":{"name":"Kloovenburg Wine & Olive Estate","name:af":"kloovenburg wyn & olyf plaats","phone":"+27 22 448 1635","shop":"wine","website":"https://kloovenburg.com/"}}},{"type":"Feature","id":"node/6122012685","geometry":{"type":"Point","coordinates":[19.121522,-33.9019473]},"properties":{"osm_type":"node","osm_id":6122012685,"category":"wine_shop","name":"Black Elephant Vintners","tags":{"name":"Black Elephant Vintners","shop":"wine"}}},{"type":"Feature","id":"node/6123168426","geometry":{"type":"Point","coordinates":[19.106187,-33.3023262]},"properties":{"osm_type":"node","osm_id":6123168426,"category":"wine_shop","name":"Lemberg","tags":{"name":"Lemberg","shop":"wine"}}},{"type":"Feature","id":"node/6169972125","geometry":{"type":"Point","coordinates":[28.0168149,-26.1281654]},"properties":{"osm_type":"node","osm_id":6169972125,"category":"winery","name":"Gerakaris Family WInes","tags":{"craft":"winery","name":"Gerakaris Family WInes"}}},{"type":"Feature","id":"node/6222432285","geometry":{"type":"Point","coordinates":[19.1096109,-33.932547]},"properties":{"osm_type":"node","osm_id":6222432285,"category":"wine_shop","name":"La Bri","tags":{"name":"La Bri","shop":"wine"}}},{"type":"Feature","id":"node/6466260785","geometry":{"type":"Point","coordinates":[18.3564755,-33.3723714]},"properties":{"osm_type":"node","osm_id":6466260785,"category":"wine_shop","name":"Olive Wine Shop and Tasting","tags":{"name":"Olive Wine Shop and Tasting","shop":"wine"}}},{"type":"Feature","id":"node/6472234374","geometry":{"type":"Point","coordinates":[19.7889296,-33.7425137]},"properties":{"osm_type":"node","osm_id":6472234374,"category":"winery","name":"Orange Grove Farm Reception Office","tags":{"addr:city":"Robertson","addr:postcode":"6705","addr:street":"Noree","craft":"winery","email":"reservations@ogf1812.co.za","name":"Orange Grove Farm Reception Office","website":"https://www.orangegrovefarm.co.za/"}}},{"type":"Feature","id":"node/6551100393","geometry":{"type":"Point","coordinates":[19.4653017,-34.4381715]},"properties":{"osm_type":"node","osm_id":6551100393,"category":"winery","name":"Walker Bay","tags":{"craft":"winery","name":"Walker Bay"}}},{"type":"Feature","id":"node/6562432574","geometry":{"type":"Point","coordinates":[18.9859527,-33.8587553]},"properties":{"osm_type":"node","osm_id":6562432574,"category":"winery","name":"Allee Bleue Estate","tags":{"addr:city":"Groot Drakenstein","addr:postcode":"7680","addr:street":"Allée Bleue Avenue","craft":"winery","name":"Allee Bleue Estate"}}},{"type":"Feature","id":"node/6562500977","geometry":{"type":"Point","coordinates":[18.9864773,-33.8586321]},"properties":{"osm_type":"node","osm_id":6562500977,"category":"wine_shop","name":"Tasting room","tags":{"name":"Tasting room","shop":"wine"}}},{"type":"Feature","id":"node/6690722599","geometry":{"type":"Point","coordinates":[18.807836,-33.8876008]},"properties":{"osm_type":"node","osm_id":6690722599,"category":"winery","name":"Casa Mori","tags":{"addr:city":"Stellenbosch","addr:postcode":"7605","addr:street":"Blumberg Drive, Devonvale","craft":"winery","email":"casamoricucina@gmail.com","name":"Casa Mori","website":"https://casamori.co.za/"}}},{"type":"Feature","id":"node/6976791285","geometry":{"type":"Point","coordinates":[18.7929027,-33.8370657]},"properties":{"osm_type":"node","osm_id":6976791285,"category":"wine_shop","name":"Villiera wines","tags":{"name":"Villiera wines","shop":"wine"}}},{"type":"Feature","id":"node/7016692385","geometry":{"type":"Point","coordinates":[19.1177954,-33.9221088]},"properties":{"osm_type":"node","osm_id":7016692385,"category":"winery","name":"La Bri","tags":{"craft":"winery","name":"La Bri","website":"https://labri.co.za/"}}},{"type":"Feature","id":"node/7016692386","geometry":{"type":"Point","coordinates":[19.0815063,-33.9160884]},"properties":{"osm_type":"node","osm_id":7016692386,"category":"winery","name":"Glenwood","tags":{"craft":"winery","name":"Glenwood","website":"https://www.glenwoodvineyards.co.za/"}}},{"type":"Feature","id":"node/7016692485","geometry":{"type":"Point","coordinates":[19.1199633,-33.9257295]},"properties":{"osm_type":"node","osm_id":7016692485,"category":"winery","name":"Deux Lions","tags":{"craft":"winery","name":"Deux Lions","website":"https://deuxlions.za.com/"}}},{"type":"Feature","id":"node/7058665478","geometry":{"type":"Point","coordinates":[19.5888752,-33.6854662]},"properties":{"osm_type":"node","osm_id":7058665478,"category":"winery","name":"Nuy Winery","tags":{"craft":"winery","name":"Nuy Winery"}}},{"type":"Feature","id":"node/7058665479","geometry":{"type":"Point","coordinates":[19.7395494,-33.7611062]},"properties":{"osm_type":"node","osm_id":7058665479,"category":"winery","name":"Le Roux & Fourie Vignerons","tags":{"craft":"winery","name":"Le Roux & Fourie Vignerons"}}},{"type":"Feature","id":"node/7138919686","geometry":{"type":"Point","coordinates":[21.7187623,-33.9855428]},"properties":{"osm_type":"node","osm_id":7138919686,"category":"winery","name":"Jakkalsvlei","tags":{"craft":"winery","email":"info@jakkalsvlei.co.za","name":"Jakkalsvlei","website":"https://jakkalsvlei.co.za/"}}},{"type":"Feature","id":"node/7314725884","geometry":{"type":"Point","coordinates":[18.8058042,-33.8945176]},"properties":{"osm_type":"node","osm_id":7314725884,"category":"winery","name":"Kunjani Wines","tags":{"amenity":"restaurant","craft":"winery","name":"Kunjani Wines","website":"https://kunjaniwines.co.za/"}}},{"type":"Feature","id":"node/8058363605","geometry":{"type":"Point","coordinates":[18.8668353,-33.8781825]},"properties":{"osm_type":"node","osm_id":8058363605,"category":"winery","name":"Quoin Rock","tags":{"addr:city":"Stellenbosch","addr:postcode":"7600","addr:street":"Knorhoek road","craft":"winery","name":"Quoin Rock","opening_hours":"Mo-Su 09:00-18:00","phone":"+27218884740","website":"https://www.quoinrock.co.za/"}}},{"type":"Feature","id":"node/8058363607","geometry":{"type":"Point","coordinates":[18.8717938,-33.8791051]},"properties":{"osm_type":"node","osm_id":8058363607,"category":"winery","name":"Knorhoek","tags":{"craft":"winery","name":"Knorhoek","website":"https://www.knorhoek.co.za/"}}},{"type":"Feature","id":"node/8227906538","geometry":{"type":"Point","coordinates":[19.1072115,-33.9151306]},"properties":{"osm_type":"node","osm_id":8227906538,"category":"winery","name":"Mont Rochelle","tags":{"craft":"winery","name":"Mont Rochelle","website":"https://www.virginlimitededition.com/mont-rochelle/the-winery/"}}},{"type":"Feature","id":"node/8658930400","geometry":{"type":"Point","coordinates":[18.8055,-33.5251194]},"properties":{"osm_type":"node","osm_id":8658930400,"category":"wine_shop","name":"Lammershoek Winery","tags":{"name":"Lammershoek Winery","opening_hours":"Mo-Fr 09:00-16:30","phone":"+27 22 48 22 835","shop":"wine","website":"https://www.lammershoek.co.za/"}}},{"type":"Feature","id":"node/8685624660","geometry":{"type":"Point","coordinates":[19.2300855,-33.5284413]},"properties":{"osm_type":"node","osm_id":8685624660,"category":"winery","name":"Seven Oaks","tags":{"craft":"winery","name":"Seven Oaks","opening_hours":"We-Fr 10:00-15:00; Sa 10:00-14:00; Su 10:00-13:00","phone":"+27 83 639 0405","website":"https://sevenoaks.co.za"}}},{"type":"Feature","id":"node/8809683219","geometry":{"type":"Point","coordinates":[19.0242429,-33.8818744]},"properties":{"osm_type":"node","osm_id":8809683219,"category":"wine_shop","name":"Anthonij Rupert Winery","tags":{"name":"Anthonij Rupert Winery","shop":"wine"}}},{"type":"Feature","id":"node/9074159477","geometry":{"type":"Point","coordinates":[19.2173683,-34.3992498]},"properties":{"osm_type":"node","osm_id":9074159477,"category":"winery","name":"Bartho Eksteen","tags":{"craft":"winery","name":"Bartho Eksteen","opening_hours":"Mo-Sa 10:00-16:00","website":"https://barthoeksteen.co.za/"}}},{"type":"Feature","id":"node/9482060164","geometry":{"type":"Point","coordinates":[18.233063,-31.8163048]},"properties":{"osm_type":"node","osm_id":9482060164,"category":"winery","name":"Fryer's Cove Vineyard","tags":{"craft":"winery","name":"Fryer's Cove Vineyard"}}},{"type":"Feature","id":"node/9500128417","geometry":{"type":"Point","coordinates":[18.8962325,-33.3835477]},"properties":{"osm_type":"node","osm_id":9500128417,"category":"wine_shop","name":"The Wine Collective","tags":{"name":"The Wine Collective","shop":"wine"}}},{"type":"Feature","id":"node/9575558216","geometry":{"type":"Point","coordinates":[18.4585712,-33.9317481]},"properties":{"osm_type":"node","osm_id":9575558216,"category":"wine_shop","name":"Cultivate","tags":{"addr:street":"Yew Street","name":"Cultivate","shop":"wine","website":"https://cultivatecollective.co.za/"}}},{"type":"Feature","id":"node/11127595005","geometry":{"type":"Point","coordinates":[18.9324574,-33.9262342]},"properties":{"osm_type":"node","osm_id":11127595005,"category":"wine_shop","name":"Bartinney","tags":{"name":"Bartinney","shop":"wine"}}},{"type":"Feature","id":"node/11277015324","geometry":{"type":"Point","coordinates":[20.0084092,-33.8561367]},"properties":{"osm_type":"node","osm_id":11277015324,"category":"wine_shop","name":"Taste@Excelsior","tags":{"name":"Taste@Excelsior","shop":"wine"}}},{"type":"Feature","id":"node/11450026069","geometry":{"type":"Point","coordinates":[19.0462983,-34.1547516]},"properties":{"osm_type":"node","osm_id":11450026069,"category":"wine_shop","tags":{"name:nl":"Oak Valley Wine Estate","shop":"wine"}}},{"type":"Feature","id":"node/11627048694","geometry":{"type":"Point","coordinates":[18.7333551,-33.4491554]},"properties":{"osm_type":"node","osm_id":11627048694,"category":"winery","name":"Renosterbos winery","tags":{"craft":"winery","name":"Renosterbos winery"}}},{"type":"Feature","id":"node/11754844170","geometry":{"type":"Point","coordinates":[18.8935872,-33.8329038]},"properties":{"osm_type":"node","osm_id":11754844170,"category":"winery","name":"Marianne","tags":{"craft":"winery","name":"Marianne","website":"http://www.mariannewines.com/"}}},{"type":"Feature","id":"node/11765598454","geometry":{"type":"Point","coordinates":[18.8886618,-34.0717647]},"properties":{"osm_type":"node","osm_id":11765598454,"category":"winery","name":"Lourensford Wine Estate","tags":{"addr:city":"Somerset West","addr:postcode":"7130","addr:street":"Lourensford Road","craft":"winery","name":"Lourensford Wine Estate","phone":"+27 21 847 2300","website":"https://lourensford.co.za/"}}},{"type":"Feature","id":"node/11909716174","geometry":{"type":"Point","coordinates":[18.8681857,-33.9382759]},"properties":{"osm_type":"node","osm_id":11909716174,"category":"wine_shop","name":"Saltare","tags":{"name":"Saltare","shop":"wine","website":"https://www.saltare.online/"}}},{"type":"Feature","id":"node/12031045871","geometry":{"type":"Point","coordinates":[18.8891323,-34.0989264]},"properties":{"osm_type":"node","osm_id":12031045871,"category":"winery","name":"Waterkloof Wine Estate","tags":{"craft":"winery","email":"sales@waterkloofwines.co.za","name":"Waterkloof Wine Estate","phone":"+27 21 858 1292","website":"https://www.waterkloofwines.co.za"}}},{"type":"Feature","id":"node/12091947717","geometry":{"type":"Point","coordinates":[18.8102551,-34.0284697]},"properties":{"osm_type":"node","osm_id":12091947717,"category":"winery","name":"Waterhof","tags":{"craft":"winery","name":"Waterhof"}}},{"type":"Feature","id":"node/12091947718","geometry":{"type":"Point","coordinates":[18.8056089,-34.0295189]},"properties":{"osm_type":"node","osm_id":12091947718,"category":"winery","name":"Helderberg Wijnmakerij","tags":{"craft":"winery","name":"Helderberg Wijnmakerij","phone":"+27 21 842 2371"}}},{"type":"Feature","id":"node/12098770525","geometry":{"type":"Point","coordinates":[22.3825595,-33.9586352]},"properties":{"osm_type":"node","osm_id":12098770525,"category":"winery","name":"Booplaas Wine & Whiskey","tags":{"craft":"winery","name":"Booplaas Wine & Whiskey"}}},{"type":"Feature","id":"node/12105816984","geometry":{"type":"Point","coordinates":[18.8790004,-33.9179195]},"properties":{"osm_type":"node","osm_id":12105816984,"category":"winery","name":"Glenelly Estate","tags":{"craft":"winery","name":"Glenelly Estate","website":"https://glenellyestate.com/"}}},{"type":"Feature","id":"node/12139776195","geometry":{"type":"Point","coordinates":[18.5743998,-33.81852]},"properties":{"osm_type":"node","osm_id":12139776195,"category":"winery","name":"Klein Roosboom","tags":{"addr:city":"Durbanville, Cape Town","addr:postcode":"7551","addr:street":"Tygerberg Valley Road","craft":"winery","name":"Klein Roosboom","operator":"Klein Roosbom Boutique Winery","website":"https://kleinroosboom.co.za/"}}},{"type":"Feature","id":"node/12177957901","geometry":{"type":"Point","coordinates":[18.7977132,-33.8349317]},"properties":{"osm_type":"node","osm_id":12177957901,"category":"winery","name":"Koelenhof Winery","tags":{"craft":"winery","name":"Koelenhof Winery"}}},{"type":"Feature","id":"node/12177959901","geometry":{"type":"Point","coordinates":[18.7954903,-33.8342334]},"properties":{"osm_type":"node","osm_id":12177959901,"category":"winery","name":"Villiera Wines","tags":{"craft":"winery","name":"Villiera Wines"}}},{"type":"Feature","id":"node/12252832401","geometry":{"type":"Point","coordinates":[18.8774638,-33.8700739]},"properties":{"osm_type":"node","osm_id":12252832401,"category":"winery","name":"Muratie","tags":{"craft":"winery","name":"Muratie","website":"https://www.muratie.co.za/"}}},{"type":"Feature","id":"node/12384959647","geometry":{"type":"Point","coordinates":[19.3197059,-33.6938584]},"properties":{"osm_type":"node","osm_id":12384959647,"category":"winery","name":"Goudini Wine","tags":{"craft":"winery","name":"Goudini Wine"}}},{"type":"Feature","id":"node/12430661117","geometry":{"type":"Point","coordinates":[18.9002368,-33.8316964]},"properties":{"osm_type":"node","osm_id":12430661117,"category":"winery","name":"Neil Joubert Wines","tags":{"craft":"winery","name":"Neil Joubert Wines","shop":"wine"}}},{"type":"Feature","id":"node/12430849001","geometry":{"type":"Point","coordinates":[18.841885,-34.0059641]},"properties":{"osm_type":"node","osm_id":12430849001,"category":"winery","name":"Webersburg Estate","tags":{"craft":"winery","name":"Webersburg Estate"}}},{"type":"Feature","id":"node/12443717936","geometry":{"type":"Point","coordinates":[19.5941886,-34.5755934]},"properties":{"osm_type":"node","osm_id":12443717936,"category":"winery","name":"The Giant Periwinkle","tags":{"craft":"winery","name":"The Giant Periwinkle"}}},{"type":"Feature","id":"node/12533908667","geometry":{"type":"Point","coordinates":[18.9537274,-33.8376768]},"properties":{"osm_type":"node","osm_id":12533908667,"category":"winery","name":"Vrede en Lust","wikidata":"Q5617424","tags":{"craft":"winery","name":"Vrede en Lust","website":"https://www.vnl.co.za/","wikidata":"Q5617424"}}},{"type":"Feature","id":"node/12534721622","geometry":{"type":"Point","coordinates":[18.639923,-33.8018922]},"properties":{"osm_type":"node","osm_id":12534721622,"category":"winery","name":"Diemersdal","tags":{"craft":"winery","name":"Diemersdal","opening_hours":"Mo-Fr 09:00-17:00; Sa 09:00-17:00; Su 10:00-15:00","operator":"Diemersdal","phone":"+27 21 976 3361","website":"https://www.diemersdal.co.za/"}}},{"type":"Feature","id":"node/12534787403","geometry":{"type":"Point","coordinates":[19.0474176,-33.6244682]},"properties":{"osm_type":"node","osm_id":12534787403,"category":"winery","name":"Val Du Charron","tags":{"craft":"winery","name":"Val Du Charron","website":"https://vdcwines.co.za/drink/"}}},{"type":"Feature","id":"node/12535061492","geometry":{"type":"Point","coordinates":[18.8934803,-33.9371772]},"properties":{"osm_type":"node","osm_id":12535061492,"category":"winery","name":"Lanzerac","tags":{"craft":"winery","name":"Lanzerac","website":"https://lanzerac.co.za/our-wine-range/"}}},{"type":"Feature","id":"node/12535106895","geometry":{"type":"Point","coordinates":[18.4089641,-34.0155482]},"properties":{"osm_type":"node","osm_id":12535106895,"category":"winery","name":"Constantia Glen","tags":{"addr:postcode":"7806","addr:street":"Constantia Main Road","craft":"winery","name":"Constantia Glen","opening_hours":"Su-Th 10:30-18:00; Fr,Sa 10:30-21:00","operator":"Wine Estate","phone":"+27 21 795 5639","website":"https://constantiaglen.com/"}}},{"type":"Feature","id":"node/12535191961","geometry":{"type":"Point","coordinates":[18.792066,-33.8982022]},"properties":{"osm_type":"node","osm_id":12535191961,"category":"winery","name":"Hartenberg","tags":{"craft":"winery","name":"Hartenberg","website":"https://hartenbergestate.com/"}}},{"type":"Feature","id":"node/12536100274","geometry":{"type":"Point","coordinates":[18.6010632,-33.8402528]},"properties":{"osm_type":"node","osm_id":12536100274,"category":"winery","name":"Bloemendal","wikidata":"Q131918629","tags":{"craft":"winery","name":"Bloemendal","website":"https://bloemendalestate.co.za/","wikidata":"Q131918629"}}},{"type":"Feature","id":"node/12537802201","geometry":{"type":"Point","coordinates":[18.4176457,-34.0303771]},"properties":{"osm_type":"node","osm_id":12537802201,"category":"winery","name":"Groot Constantia","wikidata":"Q2487774","wikipedia":"en:Groot Constantia","tags":{"addr:postcode":"7806","addr:street":"Groot Constantia Road","craft":"winery","name":"Groot Constantia","opening_hours":"Mo-Su 09:00-17:00","phone":"+27217945128","website":"https://grootconstantia.co.za/","wikidata":"Q2487774","wikipedia":"en:Groot Constantia"}}},{"type":"Feature","id":"node/12537874209","geometry":{"type":"Point","coordinates":[18.8088901,-33.9424732]},"properties":{"osm_type":"node","osm_id":12537874209,"category":"winery","name":"Asara","tags":{"craft":"winery","name":"Asara","website":"https://www.asara.co.za/"}}},{"type":"Feature","id":"node/12537903482","geometry":{"type":"Point","coordinates":[18.9473484,-33.8374078]},"properties":{"osm_type":"node","osm_id":12537903482,"category":"winery","name":"Rupert & Rothchild Vignerons","tags":{"craft":"winery","name":"Rupert & Rothchild Vignerons","website":"https://rupert-rothschildvignerons.com/"}}},{"type":"Feature","id":"node/12537996504","geometry":{"type":"Point","coordinates":[18.8080573,-33.9607865]},"properties":{"osm_type":"node","osm_id":12537996504,"category":"winery","name":"Vredenheim","tags":{"craft":"winery","name":"Vredenheim","website":"https://vredenheim.co.za/"}}},{"type":"Feature","id":"node/12538680178","geometry":{"type":"Point","coordinates":[18.7661397,-33.9415654]},"properties":{"osm_type":"node","osm_id":12538680178,"category":"winery","name":"De Waal","tags":{"craft":"winery","name":"De Waal","website":"https://www.dewaal.co.za/"}}},{"type":"Feature","id":"node/12538680180","geometry":{"type":"Point","coordinates":[18.7931348,-33.9477845]},"properties":{"osm_type":"node","osm_id":12538680180,"category":"winery","name":"Overgaauw","tags":{"craft":"winery","name":"Overgaauw","website":"https://overgaauw.co.za/"}}},{"type":"Feature","id":"node/12538680181","geometry":{"type":"Point","coordinates":[18.8003654,-33.9512032]},"properties":{"osm_type":"node","osm_id":12538680181,"category":"winery","name":"Lovane","tags":{"craft":"winery","name":"Lovane","website":"https://www.lovane.co.za/"}}},{"type":"Feature","id":"node/12538712358","geometry":{"type":"Point","coordinates":[18.7500881,-33.9392667]},"properties":{"osm_type":"node","osm_id":12538712358,"category":"winery","name":"DeMorgenzon","tags":{"craft":"winery","name":"DeMorgenzon","website":"https://demorgenzon.com/"}}},{"type":"Feature","id":"node/12538719282","geometry":{"type":"Point","coordinates":[18.8673194,-33.9713097]},"properties":{"osm_type":"node","osm_id":12538719282,"category":"winery","name":"Vriesenhof","tags":{"craft":"winery","name":"Vriesenhof","website":"https://www.vriesenhof.co.za/"}}},{"type":"Feature","id":"node/12538729683","geometry":{"type":"Point","coordinates":[18.8322508,-33.9276446]},"properties":{"osm_type":"node","osm_id":12538729683,"category":"winery","name":"Middelvlei","tags":{"craft":"winery","name":"Middelvlei","website":"https://middelvlei.co.za/"}}},{"type":"Feature","id":"node/12538780179","geometry":{"type":"Point","coordinates":[18.8469627,-33.9406597]},"properties":{"osm_type":"node","osm_id":12538780179,"category":"winery","name":"Villafonté","tags":{"alt_name":"Vilafonté Wines","craft":"winery","name":"Villafonté","website":"https://www.vilafonte.com/"}}},{"type":"Feature","id":"node/12538780180","geometry":{"type":"Point","coordinates":[18.8463525,-33.9409167]},"properties":{"osm_type":"node","osm_id":12538780180,"category":"winery","name":"Stellakaya","tags":{"alt_name":"Stellakaya Winery","craft":"winery","name":"Stellakaya","website":"https://www.stellekaya.com/"}}},{"type":"Feature","id":"node/12538785963","geometry":{"type":"Point","coordinates":[18.725051,-33.9309128]},"properties":{"osm_type":"node","osm_id":12538785963,"category":"winery","name":"Zevenwacht","tags":{"craft":"winery","name":"Zevenwacht","website":"https://zevenwacht.co.za/"}}},{"type":"Feature","id":"node/12538808651","geometry":{"type":"Point","coordinates":[19.2000152,-34.4102556]},"properties":{"osm_type":"node","osm_id":12538808651,"category":"winery","name":"Whalehaven","tags":{"alt_name":"Whalehaven Winery","craft":"winery","name":"Whalehaven","website":"https://www.whalehaven.co.za/"}}},{"type":"Feature","id":"node/12538813467","geometry":{"type":"Point","coordinates":[18.8497415,-33.9347171]},"properties":{"osm_type":"node","osm_id":12538813467,"category":"winery","name":"Fluer du Cap","tags":{"craft":"winery","name":"Fluer du Cap","website":"https://www.fleurducap.co.za/"}}},{"type":"Feature","id":"node/12541177813","geometry":{"type":"Point","coordinates":[18.7386994,-34.0338636]},"properties":{"osm_type":"node","osm_id":12541177813,"category":"winery","name":"Vergenoegd Löw","tags":{"craft":"winery","name":"Vergenoegd Löw","website":"https://vergenoegd.co.za/"}}},{"type":"Feature","id":"node/12541204376","geometry":{"type":"Point","coordinates":[18.7415868,-33.9079752]},"properties":{"osm_type":"node","osm_id":12541204376,"category":"winery","name":"Friesland","tags":{"craft":"winery","name":"Friesland","website":"https://frieslandwines.com"}}},{"type":"Feature","id":"node/12541253581","geometry":{"type":"Point","coordinates":[18.9106639,-34.0871282]},"properties":{"osm_type":"node","osm_id":12541253581,"category":"winery","name":"Vergelegen","wikidata":"Q787543","wikipedia":"en:Vergelegen","tags":{"craft":"winery","name":"Vergelegen","website":"https://vergelegen.co.za/","wikidata":"Q787543","wikipedia":"en:Vergelegen"}}},{"type":"Feature","id":"node/12549130003","geometry":{"type":"Point","coordinates":[19.1112212,-33.2739806]},"properties":{"osm_type":"node","osm_id":12549130003,"category":"winery","name":"Montepellier de Tulbagh","tags":{"craft":"winery","name":"Montepellier de Tulbagh"}}},{"type":"Feature","id":"node/12559238428","geometry":{"type":"Point","coordinates":[18.8138026,-33.9099408]},"properties":{"osm_type":"node","osm_id":12559238428,"category":"winery","name":"Clos Malverne","tags":{"craft":"winery","name":"Clos Malverne","website":"https://closmalverne.co.za/"}}},{"type":"Feature","id":"node/12559300697","geometry":{"type":"Point","coordinates":[18.8066344,-33.9088968]},"properties":{"osm_type":"node","osm_id":12559300697,"category":"winery","name":"Louisvale","tags":{"craft":"winery","name":"Louisvale","website":"https://www.louisvale.com/"}}},{"type":"Feature","id":"node/12563434533","geometry":{"type":"Point","coordinates":[19.0021983,-33.7219861]},"properties":{"osm_type":"node","osm_id":12563434533,"category":"winery","name":"Nederburg","wikidata":"Q121078024","wikipedia":"af:Nederburg","tags":{"craft":"winery","name":"Nederburg","website":"https://www.nederburg.com/","wikidata":"Q121078024","wikipedia":"af:Nederburg"}}},{"type":"Feature","id":"node/12565470672","geometry":{"type":"Point","coordinates":[18.8185401,-33.8895587]},"properties":{"osm_type":"node","osm_id":12565470672,"category":"winery","name":"Kanu","tags":{"craft":"winery","name":"Kanu","website":"https://kanu.co.za/"}}},{"type":"Feature","id":"node/12565470802","geometry":{"type":"Point","coordinates":[18.8230006,-33.8911234]},"properties":{"osm_type":"node","osm_id":12565470802,"category":"winery","name":"Beyerskloof","tags":{"craft":"winery","name":"Beyerskloof","website":"https://beyerskloof.co.za/"}}},{"type":"Feature","id":"node/12587336711","geometry":{"type":"Point","coordinates":[18.9922151,-33.8609423]},"properties":{"osm_type":"node","osm_id":12587336711,"category":"winery","name":"Solms Delta","tags":{"craft":"winery","name":"Solms Delta","website":"https://solmsdelta.co/"}}},{"type":"Feature","id":"node/12587470775","geometry":{"type":"Point","coordinates":[18.9446139,-33.8468647]},"properties":{"osm_type":"node","osm_id":12587470775,"category":"winery","name":"Plaisir","tags":{"craft":"winery","name":"Plaisir","website":"https://plaisir.co.za/"}}},{"type":"Feature","id":"node/12587619644","geometry":{"type":"Point","coordinates":[18.9075337,-33.7528451]},"properties":{"osm_type":"node","osm_id":12587619644,"category":"winery","name":"Vrymansfontein","tags":{"craft":"winery","name":"Vrymansfontein","website":"https://vrymansfontein.co.za/"}}},{"type":"Feature","id":"node/12587631517","geometry":{"type":"Point","coordinates":[18.9161839,-33.7603647]},"properties":{"osm_type":"node","osm_id":12587631517,"category":"winery","name":"Landskroon","tags":{"craft":"winery","name":"Landskroon","website":"https://www.landskroonwines.com/"}}},{"type":"Feature","id":"node/12587657706","geometry":{"type":"Point","coordinates":[18.9242265,-33.7717587]},"properties":{"osm_type":"node","osm_id":12587657706,"category":"winery","name":"Fairview","tags":{"craft":"winery","name":"Fairview","website":"https://www.fairview.co.za/"}}},{"type":"Feature","id":"node/12595362698","geometry":{"type":"Point","coordinates":[19.2825709,-33.6936579]},"properties":{"osm_type":"node","osm_id":12595362698,"category":"winery","name":"Du Preez Estate","tags":{"craft":"winery","name":"Du Preez Estate","website":"https://dupreezestate.co.za/"}}},{"type":"Feature","id":"node/12595378512","geometry":{"type":"Point","coordinates":[19.2689654,-33.7026911]},"properties":{"osm_type":"node","osm_id":12595378512,"category":"winery","name":"Du Toitskloof","tags":{"addr:street":"R101","craft":"winery","name":"Du Toitskloof","website":"https://www.dtkwines.com/du-toitskloof"}}},{"type":"Feature","id":"node/12595378561","geometry":{"type":"Point","coordinates":[19.3047085,-33.6915824]},"properties":{"osm_type":"node","osm_id":12595378561,"category":"winery","name":"Deetlefs","tags":{"craft":"winery","name":"Deetlefs","website":"https://deetlefs.com/"}}},{"type":"Feature","id":"node/12597971777","geometry":{"type":"Point","coordinates":[19.2304555,-33.6504004]},"properties":{"osm_type":"node","osm_id":12597971777,"category":"winery","name":"Slanghoek","tags":{"craft":"winery","name":"Slanghoek","website":"https://slanghoek.co.za/"}}},{"type":"Feature","id":"node/12597971778","geometry":{"type":"Point","coordinates":[19.2279775,-33.650626]},"properties":{"osm_type":"node","osm_id":12597971778,"category":"winery","name":"Marais Family Wines","tags":{"alt_name":"Breëland","craft":"winery","name":"Marais Family Wines","website":"https://maraiswines.co.za/"}}},{"type":"Feature","id":"node/12597973466","geometry":{"type":"Point","coordinates":[19.2565352,-33.566367]},"properties":{"osm_type":"node","osm_id":12597973466,"category":"winery","name":"Botha","tags":{"alt_name":"Botha Kelder","craft":"winery","name":"Botha","website":"https://bothakelder.co.za/"}}},{"type":"Feature","id":"node/12598005329","geometry":{"type":"Point","coordinates":[19.2097768,-33.528888]},"properties":{"osm_type":"node","osm_id":12598005329,"category":"winery","name":"Waboomsrivier","tags":{"craft":"winery","name":"Waboomsrivier","website":"https://www.wabooms.com/"}}},{"type":"Feature","id":"node/12598017778","geometry":{"type":"Point","coordinates":[19.1864298,-33.514559]},"properties":{"osm_type":"node","osm_id":12598017778,"category":"winery","name":"Lateganskop","tags":{"craft":"winery","name":"Lateganskop"}}},{"type":"Feature","id":"node/12598646292","geometry":{"type":"Point","coordinates":[18.8913023,-33.925123]},"properties":{"osm_type":"node","osm_id":12598646292,"category":"winery","name":"Neil Ellis","tags":{"alt_name":"Neil Ellis Wines","craft":"winery","name":"Neil Ellis","website":"https://neilellis.com/"}}},{"type":"Feature","id":"node/12598677826","geometry":{"type":"Point","coordinates":[18.9201307,-33.9177982]},"properties":{"osm_type":"node","osm_id":12598677826,"category":"winery","name":"Tokara","tags":{"craft":"winery","name":"Tokara","website":"https://www.tokara.com/"}}},{"type":"Feature","id":"node/12598690907","geometry":{"type":"Point","coordinates":[18.926684,-33.9175334]},"properties":{"osm_type":"node","osm_id":12598690907,"category":"winery","name":"Alluvia","tags":{"craft":"winery","name":"Alluvia","website":"https://www.alluvia.co.za/"}}},{"type":"Feature","id":"node/12603601964","geometry":{"type":"Point","coordinates":[23.4796782,-33.9575373]},"properties":{"osm_type":"node","osm_id":12603601964,"category":"winery","name":"Bramon","tags":{"craft":"winery","name":"Bramon","operator":"Bramon Wine Estate","website":"https://www.bramonwines.co.za/"}}},{"type":"Feature","id":"node/12604082071","geometry":{"type":"Point","coordinates":[20.5946432,-33.9241237]},"properties":{"osm_type":"node","osm_id":12604082071,"category":"winery","name":"Joubert Tradauw","tags":{"craft":"winery","name":"Joubert Tradauw","website":"https://www.joubert-tradauw.com/"}}},{"type":"Feature","id":"node/12604090700","geometry":{"type":"Point","coordinates":[19.2969985,-33.9864777]},"properties":{"osm_type":"node","osm_id":12604090700,"category":"winery","name":"Villiersdorp Winery","tags":{"craft":"winery","name":"Villiersdorp Winery","website":"https://www.villiersdorpwinery.co.za/"}}},{"type":"Feature","id":"node/12604134087","geometry":{"type":"Point","coordinates":[19.4189653,-33.8404544]},"properties":{"osm_type":"node","osm_id":12604134087,"category":"winery","name":"Eagle’s Cliff","tags":{"craft":"winery","name":"Eagle’s Cliff","website":"https://eaglescliff.co.za/"}}},{"type":"Feature","id":"node/12604135936","geometry":{"type":"Point","coordinates":[19.3672094,-33.870734]},"properties":{"osm_type":"node","osm_id":12604135936,"category":"winery","name":"Stettyn","tags":{"craft":"winery","name":"Stettyn","website":"https://www.stettyncellar.co.za/"}}},{"type":"Feature","id":"node/12604155025","geometry":{"type":"Point","coordinates":[19.4695196,-33.8048687]},"properties":{"osm_type":"node","osm_id":12604155025,"category":"winery","name":"BC Wines","tags":{"craft":"winery","name":"BC Wines","website":"https://bcwines.co.za/"}}},{"type":"Feature","id":"node/12606503325","geometry":{"type":"Point","coordinates":[19.2213723,-34.4036909]},"properties":{"osm_type":"node","osm_id":12606503325,"category":"winery","name":"Southern Right","tags":{"craft":"winery","name":"Southern Right","website":"https://southernright.co.za/"}}},{"type":"Feature","id":"node/12606578700","geometry":{"type":"Point","coordinates":[19.241859,-34.3819638]},"properties":{"osm_type":"node","osm_id":12606578700,"category":"winery","name":"Bouchard Finlayson","tags":{"craft":"winery","name":"Bouchard Finlayson","website":"https://bouchardfinlayson.co.za/"}}},{"type":"Feature","id":"node/12612599553","geometry":{"type":"Point","coordinates":[19.0918189,-33.8938341]},"properties":{"osm_type":"node","osm_id":12612599553,"category":"winery","name":"La Provence","tags":{"craft":"winery","name":"La Provence","name:etymology":"Provence","name:etymology:wikidata":"Q101081","name:etymology:wikipedia":"en:Provence","website":"https://laprovencevineyards.com/"}}},{"type":"Feature","id":"node/12615359410","geometry":{"type":"Point","coordinates":[19.0203032,-33.8834628]},"properties":{"osm_type":"node","osm_id":12615359410,"category":"winery","name":"Bellingham","tags":{"craft":"winery","name":"Bellingham","website":"https://www.bellinghamwines.com/"}}},{"type":"Feature","id":"node/12615389153","geometry":{"type":"Point","coordinates":[19.0740587,-33.8803732]},"properties":{"osm_type":"node","osm_id":12615389153,"category":"winery","name":"La Motte","tags":{"craft":"winery","name":"La Motte","name:etymology":"La Motte, commune in Var, France","name:etymology:wikidata":"Q338721","name:etymology:wikipedia":"en:La Motte, Var","website":"https://la-motte.com/"}}},{"type":"Feature","id":"node/12621437688","geometry":{"type":"Point","coordinates":[19.1022132,-33.9046088]},"properties":{"osm_type":"node","osm_id":12621437688,"category":"winery","name":"Grande Provence","tags":{"craft":"winery","name":"Grande Provence","website":"https://www.grandeprovence.co.za/collections/wine/"}}},{"type":"Feature","id":"node/12625203948","geometry":{"type":"Point","coordinates":[19.1266702,-33.8996705]},"properties":{"osm_type":"node","osm_id":12625203948,"category":"winery","name":"Chamonix","tags":{"craft":"winery","name":"Chamonix","website":"https://chamonixestate.co.za/collection/all-wines/"}}},{"type":"Feature","id":"node/12625276401","geometry":{"type":"Point","coordinates":[19.1293082,-33.8954905]},"properties":{"osm_type":"node","osm_id":12625276401,"category":"winery","name":"Dieu Donné","tags":{"craft":"winery","name":"Dieu Donné","website":"https://dieudonnevineyards.com/"}}},{"type":"Feature","id":"node/12626432263","geometry":{"type":"Point","coordinates":[19.1073442,-33.9426635]},"properties":{"osm_type":"node","osm_id":12626432263,"category":"winery","name":"Boekenhoutskloof","tags":{"craft":"winery","name":"Boekenhoutskloof","website":"https://www.boekenhoutskloof.co.za/boekenhoutskloof/"}}},{"type":"Feature","id":"node/12626467688","geometry":{"type":"Point","coordinates":[19.1057637,-33.9400978]},"properties":{"osm_type":"node","osm_id":12626467688,"category":"winery","name":"Haut Espoir","tags":{"craft":"winery","name":"Haut Espoir","website":"https://www.hautespoir.com/"}}},{"type":"Feature","id":"node/12629032140","geometry":{"type":"Point","coordinates":[19.1227864,-33.9401457]},"properties":{"osm_type":"node","osm_id":12629032140,"category":"winery","name":"Stony Brook","tags":{"craft":"winery","name":"Stony Brook","website":"https://www.stonybrook.co.za/"}}},{"type":"Feature","id":"node/12629137955","geometry":{"type":"Point","coordinates":[19.1114715,-33.9056122]},"properties":{"osm_type":"node","osm_id":12629137955,"category":"winery","name":"Franschoek Cellar","tags":{"craft":"winery","name":"Franschoek Cellar","website":"https://www.franschhoekcellar.co.za/"}}},{"type":"Feature","id":"node/12629162238","geometry":{"type":"Point","coordinates":[19.1274957,-33.9233776]},"properties":{"osm_type":"node","osm_id":12629162238,"category":"winery","name":"Colmant","tags":{"craft":"winery","name":"Colmant","website":"https://colmant.co.za/"}}},{"type":"Feature","id":"node/12629951337","geometry":{"type":"Point","coordinates":[19.1048598,-33.9097304]},"properties":{"osm_type":"node","osm_id":12629951337,"category":"winery","name":"Leeu Passant","tags":{"craft":"winery","name":"Leeu Passant","website":"https://mlfwines.com/discover-leeu-passant/"}}},{"type":"Feature","id":"node/12638337528","geometry":{"type":"Point","coordinates":[19.0764157,-33.885882]},"properties":{"osm_type":"node","osm_id":12638337528,"category":"winery","name":"Maison","tags":{"craft":"winery","name":"Maison","website":"https://www.maisonestate.com/"}}},{"type":"Feature","id":"node/12640343473","geometry":{"type":"Point","coordinates":[19.0373607,-33.8627776]},"properties":{"osm_type":"node","osm_id":12640343473,"category":"winery","name":"Lynx","tags":{"craft":"winery","name":"Lynx","website":"https://www.lynx-collection.com/en/wine/"}}},{"type":"Feature","id":"node/12642994937","geometry":{"type":"Point","coordinates":[18.9270012,-33.8032389]},"properties":{"osm_type":"node","osm_id":12642994937,"category":"winery","name":"Bacco","tags":{"craft":"winery","name":"Bacco","website":"https://www.baccoestate.co.za/"}}},{"type":"Feature","id":"node/12646531037","geometry":{"type":"Point","coordinates":[19.0908426,-33.8985061]},"properties":{"osm_type":"node","osm_id":12646531037,"category":"winery","name":"Rickety Bridge","tags":{"craft":"winery","name":"Rickety Bridge","website":"https://www.ricketybridge.com/"}}},{"type":"Feature","id":"node/12649412353","geometry":{"type":"Point","coordinates":[18.9248668,-33.8235553]},"properties":{"osm_type":"node","osm_id":12649412353,"category":"winery","name":"Babylonstoren","tags":{"craft":"winery","name":"Babylonstoren","website":"https://babylonstoren.com/"}}},{"type":"Feature","id":"node/12649433336","geometry":{"type":"Point","coordinates":[18.9044432,-33.8123352]},"properties":{"osm_type":"node","osm_id":12649433336,"category":"winery","name":"Glen Carlou","tags":{"craft":"winery","name":"Glen Carlou","website":"https://glencarlou.com/"}}},{"type":"Feature","id":"node/12649452288","geometry":{"type":"Point","coordinates":[18.9363903,-33.8272335]},"properties":{"osm_type":"node","osm_id":12649452288,"category":"winery","name":"Noble Hill","tags":{"craft":"winery","name":"Noble Hill","website":"https://www.noblehill.com/"}}},{"type":"Feature","id":"node/12655684989","geometry":{"type":"Point","coordinates":[18.8624646,-33.8237642]},"properties":{"osm_type":"node","osm_id":12655684989,"category":"winery","name":"Arra","tags":{"craft":"winery","name":"Arra","website":"https://arravineyards.com/"}}},{"type":"Feature","id":"node/12676687700","geometry":{"type":"Point","coordinates":[18.8763859,-33.8413851]},"properties":{"osm_type":"node","osm_id":12676687700,"category":"winery","name":"Lievland","tags":{"craft":"winery","name":"Lievland","website":"https://lievland.co.za/"}}},{"type":"Feature","id":"node/12676704031","geometry":{"type":"Point","coordinates":[18.8786665,-33.8397883]},"properties":{"osm_type":"node","osm_id":12676704031,"category":"winery","name":"MAN Family Wines","tags":{"craft":"winery","name":"MAN Family Wines","website":"https://manwines.com/"}}},{"type":"Feature","id":"node/12683929856","geometry":{"type":"Point","coordinates":[18.8910623,-33.8328895]},"properties":{"osm_type":"node","osm_id":12683929856,"category":"winery","name":"Mont Destin","tags":{"craft":"winery","name":"Mont Destin","website":"https://www.destinyshiraz.co.za/"}}},{"type":"Feature","id":"node/12686564084","geometry":{"type":"Point","coordinates":[18.8637708,-33.8432107]},"properties":{"osm_type":"node","osm_id":12686564084,"category":"winery","name":"Marklew","tags":{"craft":"winery","name":"Marklew","website":"https://www.marklew.co.za/"}}},{"type":"Feature","id":"node/12686564124","geometry":{"type":"Point","coordinates":[18.8621159,-33.8454178]},"properties":{"osm_type":"node","osm_id":12686564124,"category":"winery","name":"Ladybird","tags":{"craft":"winery","name":"Ladybird","website":"https://ladybirdvineyards.co.za/"}}},{"type":"Feature","id":"node/12701796901","geometry":{"type":"Point","coordinates":[18.8473195,-33.8650805]},"properties":{"osm_type":"node","osm_id":12701796901,"category":"winery","name":"La Boucher","tags":{"craft":"winery","name":"La Boucher","website":"https://laboucherwines.co.za/"}}},{"type":"Feature","id":"node/12722407913","geometry":{"type":"Point","coordinates":[18.8860278,-33.8689123]},"properties":{"osm_type":"node","osm_id":12722407913,"category":"winery","name":"Delheim","tags":{"craft":"winery","name":"Delheim","website":"https://delheim.com/"}}},{"type":"Feature","id":"node/12728669985","geometry":{"type":"Point","coordinates":[18.845633,-33.8808202]},"properties":{"osm_type":"node","osm_id":12728669985,"category":"winery","name":"Deux Frères","tags":{"craft":"winery","name":"Deux Frères","website":"https://dfwines.co.za/"}}},{"type":"Feature","id":"node/12816486141","geometry":{"type":"Point","coordinates":[18.8508875,-33.8844726]},"properties":{"osm_type":"node","osm_id":12816486141,"category":"winery","name":"Remhoogte","tags":{"craft":"winery","name":"Remhoogte","website":"https://remhoogte.co.za/"}}},{"type":"Feature","id":"node/12816498565","geometry":{"type":"Point","coordinates":[18.8613984,-33.8934701]},"properties":{"osm_type":"node","osm_id":12816498565,"category":"winery","name":"Morgenhof","tags":{"craft":"winery","name":"Morgenhof","website":"https://morgenhof.com/"}}},{"type":"Feature","id":"node/13072209901","geometry":{"type":"Point","coordinates":[19.7995598,-33.8016524]},"properties":{"osm_type":"node","osm_id":13072209901,"category":"wine_shop","name":"Graham Beck Estate","tags":{"name:en":"Graham Beck Estate","shop":"wine"}}},{"type":"Feature","id":"node/13296917701","geometry":{"type":"Point","coordinates":[18.826902,-33.5450258]},"properties":{"osm_type":"node","osm_id":13296917701,"category":"winery","name":"David & Nadia (Wine of origin Swartland)","tags":{"craft":"winery","name":"David & Nadia (Wine of origin Swartland)"}}},{"type":"Feature","id":"node/13418590412","geometry":{"type":"Point","coordinates":[19.0898796,-33.8896294]},"properties":{"osm_type":"node","osm_id":13418590412,"category":"winery","name":"Klein Goederust","tags":{"craft":"winery","name":"Klein Goederust","website":"https://kleingoederust.co.za/"}}},{"type":"Feature","id":"node/13418590414","geometry":{"type":"Point","coordinates":[19.1103187,-33.9038497]},"properties":{"osm_type":"node","osm_id":13418590414,"category":"wine_shop","name":"Old Road Wine Co.","tags":{"name":"Old Road Wine Co.","shop":"wine"}}},{"type":"Feature","id":"node/13426804156","geometry":{"type":"Point","coordinates":[18.5971871,-33.9697219]},"properties":{"osm_type":"node","osm_id":13426804156,"category":"wine_shop","name":"Wine Boutique","tags":{"name":"Wine Boutique","shop":"wine"}}},{"type":"Feature","id":"node/13580146701","geometry":{"type":"Point","coordinates":[24.5338143,-32.2514325]},"properties":{"osm_type":"node","osm_id":13580146701,"category":"wine_shop","name":"Afrikanis Rum","tags":{"addr:housenumber":"52","addr:postcode":"6280","addr:street":"Somerset Street","email":"info@akrikanis.co.za","name":"Afrikanis Rum","phone":"+27 83 538 2865","shop":"wine"}}},{"type":"Feature","id":"way/42125322","geometry":{"type":"Point","coordinates":[18.416309,-33.9439077]},"properties":{"osm_type":"way","osm_id":42125322,"category":"vineyard","name":"Clos d'Oranje","tags":{"grape_variety":"syrah","landuse":"vineyard","name":"Clos d'Oranje","operator":"Signal Hill"}}},{"type":"Feature","id":"way/49195205","geometry":{"type":"Point","coordinates":[19.9829934,-33.8114456]},"properties":{"osm_type":"way","osm_id":49195205,"category":"wine_shop","name":"Rusticus","tags":{"building":"yes","name":"Rusticus","shop":"wine"}}},{"type":"Feature","id":"way/61836649","geometry":{"type":"Point","coordinates":[18.4130393,-34.0387001]},"properties":{"osm_type":"way","osm_id":61836649,"category":"winery","name":"Klein Constantia Winery","tags":{"building":"yes","craft":"winery","name":"Klein Constantia Winery"}}},{"type":"Feature","id":"way/95537477","geometry":{"type":"Point","coordinates":[19.8688779,-33.9246043]},"properties":{"osm_type":"way","osm_id":95537477,"category":"vineyard","name":"Tanagra","tags":{"landuse":"vineyard","name":"Tanagra"}}},{"type":"Feature","id":"way/95537603","geometry":{"type":"Point","coordinates":[19.8696589,-33.9242142]},"properties":{"osm_type":"way","osm_id":95537603,"category":"vineyard","name":"Tanagra","tags":{"landuse":"vineyard","name":"Tanagra"}}},{"type":"Feature","id":"way/95537607","geometry":{"type":"Point","coordinates":[19.8703256,-33.9240053]},"properties":{"osm_type":"way","osm_id":95537607,"category":"vineyard","name":"Tanagra","tags":{"landuse":"vineyard","name":"Tanagra"}}},{"type":"Feature","id":"way/122676305","geometry":{"type":"Point","coordinates":[18.3742163,-33.3815922]},"properties":{"osm_type":"way","osm_id":122676305,"category":"vineyard","name":"Ormonde Wine Farm","tags":{"landuse":"vineyard","name":"Ormonde Wine Farm"}}},{"type":"Feature","id":"way/182723091","geometry":{"type":"Point","coordinates":[18.5728768,-33.8492643]},"properties":{"osm_type":"way","osm_id":182723091,"category":"vineyard","name":"De Grendel","tags":{"landuse":"vineyard","name":"De Grendel"}}},{"type":"Feature","id":"way/228423848","geometry":{"type":"Point","coordinates":[18.9583255,-33.7568991]},"properties":{"osm_type":"way","osm_id":228423848,"category":"vineyard","name":"De Hoop","tags":{"landuse":"vineyard","name":"De Hoop"}}},{"type":"Feature","id":"way/261540933","geometry":{"type":"Point","coordinates":[19.788283,-34.6602126]},"properties":{"osm_type":"way","osm_id":261540933,"category":"wine_shop","name":"Strandveld Vineyards","tags":{"building":"yes","name":"Strandveld Vineyards","shop":"wine"}}},{"type":"Feature","id":"way/263131249","geometry":{"type":"Point","coordinates":[18.8991592,-34.012505]},"properties":{"osm_type":"way","osm_id":263131249,"category":"wine_cellar","name":"De Trafford Winery","tags":{"building":"yes","name":"De Trafford Winery","opening_hours":"Fr-Sa 10:00-13:00","tourism":"wine_cellar"}}},{"type":"Feature","id":"way/319933390","geometry":{"type":"Point","coordinates":[18.8854566,-34.0840118]},"properties":{"osm_type":"way","osm_id":319933390,"category":"winery","name":"Morgenster Estate","wikidata":"Q121091990","tags":{"building":"yes","craft":"winery","email":"tastingroom@morgenster.co.za","name":"Morgenster Estate","phone":"+27 21 852 1738","website":"https://morgensterestate.co.za/","wikidata":"Q121091990"}}},{"type":"Feature","id":"way/332563045","geometry":{"type":"Point","coordinates":[19.2574566,-32.5035946]},"properties":{"osm_type":"way","osm_id":332563045,"category":"winery","name":"Cederberg Wines","tags":{"building":"yes","craft":"winery","name":"Cederberg Wines"}}},{"type":"Feature","id":"way/381003243","geometry":{"type":"Point","coordinates":[18.6650531,-34.0223264]},"properties":{"osm_type":"way","osm_id":381003243,"category":"wine_shop","tags":{"building":"yes","shop":"wine"}}},{"type":"Feature","id":"way/384846130","geometry":{"type":"Point","coordinates":[18.8720729,-33.9921334]},"properties":{"osm_type":"way","osm_id":384846130,"category":"wine_cellar","name":"Dornier Wine Estate","tags":{"building":"yes","name":"Dornier Wine Estate","tourism":"wine_cellar","website":"https://www.dornier.co.za/"}}},{"type":"Feature","id":"way/387844513","geometry":{"type":"Point","coordinates":[22.4724976,-33.8691684]},"properties":{"osm_type":"way","osm_id":387844513,"category":"vineyard","name":"Herhold Wines","tags":{"landuse":"vineyard","name":"Herhold Wines"}}},{"type":"Feature","id":"way/387844514","geometry":{"type":"Point","coordinates":[22.4707404,-33.870257]},"properties":{"osm_type":"way","osm_id":387844514,"category":"vineyard","name":"Herhold Wines","tags":{"landuse":"vineyard","name":"Herhold Wines"}}},{"type":"Feature","id":"way/464380023","geometry":{"type":"Point","coordinates":[19.4897504,-33.6968694]},"properties":{"osm_type":"way","osm_id":464380023,"category":"winery","name":"Aan De Doorns Cellar","tags":{"building":"yes","craft":"winery","name":"Aan De Doorns Cellar"}}},{"type":"Feature","id":"way/464516312","geometry":{"type":"Point","coordinates":[19.0244618,-33.8816697]},"properties":{"osm_type":"way","osm_id":464516312,"category":"winery","name":"Graham Beck","tags":{"building":"yes","craft":"winery","name":"Graham Beck"}}},{"type":"Feature","id":"way/464516314","geometry":{"type":"Point","coordinates":[19.0264528,-33.8799571]},"properties":{"osm_type":"way","osm_id":464516314,"category":"winery","name":"Anthonji Rupert","tags":{"building":"yes","craft":"winery","name":"Anthonji Rupert"}}},{"type":"Feature","id":"way/520135707","geometry":{"type":"Point","coordinates":[21.1053852,-28.6081575]},"properties":{"osm_type":"way","osm_id":520135707,"category":"wine_shop","name":"Bezalel Estate Tasting Room","tags":{"addr:city":"Kai !Garib","addr:postcode":"8805","addr:street":"Bezalel Drive","building":"yes","email":"marketing@bezalel.co.za","name":"Bezalel Estate Tasting Room","opening_hours":"Mo-Fr 08:30-17:30; Sa 08:30 - 15:00","operator":"Bezalel Estate (Pty) Ltd","shop":"wine"}}},{"type":"Feature","id":"way/520135708","geometry":{"type":"Point","coordinates":[21.1051188,-28.6083318]},"properties":{"osm_type":"way","osm_id":520135708,"category":"winery","name":"Dyasonsklip Cellar","tags":{"addr:city":"Kai !Garib","addr:housenumber":"2","addr:postcode":"8805","addr:street":"Bezalel Drive","building":"industrial","craft":"winery","email":"winemaker@bezalel.estate","name":"Dyasonsklip Cellar","operator":"Bezalel Estate (Pty) Ltd","phone":"+27 83 257 4736"}}},{"type":"Feature","id":"way/520135717","geometry":{"type":"Point","coordinates":[21.1039873,-28.6063616]},"properties":{"osm_type":"way","osm_id":520135717,"category":"vineyard","name":"Block 22B","tags":{"grape_variety":"Thompson","landuse":"vineyard","name":"Block 22B","operator":"Bezalel Estate (Pty) Ltd"}}},{"type":"Feature","id":"way/520135718","geometry":{"type":"Point","coordinates":[21.1030766,-28.604904]},"properties":{"osm_type":"way","osm_id":520135718,"category":"vineyard","name":"Block 22A","tags":{"grape_variety":"Thompson;Sultanas","landuse":"vineyard","name":"Block 22A","operator":"Bezalel Estate (Pty) Ltd"}}},{"type":"Feature","id":"way/520135720","geometry":{"type":"Point","coordinates":[21.1066433,-28.6097477]},"properties":{"osm_type":"way","osm_id":520135720,"category":"vineyard","name":"Block 10 CB","tags":{"grape_variety":"colombard","landuse":"vineyard","name":"Block 10 CB","operator":"Bezalel Estate (Pty) Ltd"}}},{"type":"Feature","id":"way/520135721","geometry":{"type":"Point","coordinates":[21.1054712,-28.6109451]},"properties":{"osm_type":"way","osm_id":520135721,"category":"vineyard","name":"Block 9","tags":{"grape_variety":"Cabernet_Sauvignon;Merlot;Shiraz;Pinot_Noir;Gewurztraminer;colombard;Chardonnay;Sangiovese;Tinta_Barocca;Touriga_Nacional","landuse":"vineyard","name":"Block 9","operator":"Bezalel Estate (Pty) Ltd"}}},{"type":"Feature","id":"way/520135722","geometry":{"type":"Point","coordinates":[21.1042293,-28.612372]},"properties":{"osm_type":"way","osm_id":520135722,"category":"vineyard","name":"Block 8","tags":{"grape_variety":"Sauvignon_Blanc;Regal","landuse":"vineyard","name":"Block 8","operator":"Bezalel Estate (Pty) Ltd"}}},{"type":"Feature","id":"way/520135723","geometry":{"type":"Point","coordinates":[21.1032409,-28.6115573]},"properties":{"osm_type":"way","osm_id":520135723,"category":"vineyard","name":"Block 8 Step","tags":{"grape_variety":"Merbine","landuse":"vineyard","name":"Block 8 Step","operator":"Bezalel Estate (Pty) Ltd"}}},{"type":"Feature","id":"way/520146605","geometry":{"type":"Point","coordinates":[21.1157585,-28.6030293]},"properties":{"osm_type":"way","osm_id":520146605,"category":"vineyard","name":"Zandland","tags":{"grape_variety":"Viognier","landuse":"vineyard","name":"Zandland","operator":"MEJ Bezuidenhout"}}},{"type":"Feature","id":"way/521113701","geometry":{"type":"Point","coordinates":[21.9693871,-28.8837094]},"properties":{"osm_type":"way","osm_id":521113701,"category":"wine_shop","tags":{"building":"yes","shop":"wine"}}},{"type":"Feature","id":"way/521113703","geometry":{"type":"Point","coordinates":[21.9687294,-28.8837375]},"properties":{"osm_type":"way","osm_id":521113703,"category":"winery","name":"Orange River Cellar","tags":{"building":"yes","craft":"winery","name":"Orange River Cellar"}}},{"type":"Feature","id":"way/525421638","geometry":{"type":"Point","coordinates":[21.758605,-28.5451898]},"properties":{"osm_type":"way","osm_id":525421638,"category":"winery","name":"Orange River Wine Cellars","tags":{"craft":"winery","landuse":"vineyard","name":"Orange River Wine Cellars"}}},{"type":"Feature","id":"way/542191766","geometry":{"type":"Point","coordinates":[21.2549158,-34.1096821]},"properties":{"osm_type":"way","osm_id":542191766,"category":"wine_shop","name":"Baleia Wines","tags":{"building":"yes","name":"Baleia Wines","shop":"wine"}}},{"type":"Feature","id":"way/583237654","geometry":{"type":"Point","coordinates":[18.8056353,-34.0295256]},"properties":{"osm_type":"way","osm_id":583237654,"category":"winery","tags":{"building":"industrial","industrial":"winery"}}},{"type":"Feature","id":"way/583593928","geometry":{"type":"Point","coordinates":[18.8124028,-34.0154236]},"properties":{"osm_type":"way","osm_id":583593928,"category":"winery","tags":{"building":"industrial","industrial":"winery"}}},{"type":"Feature","id":"way/584184079","geometry":{"type":"Point","coordinates":[18.8163706,-34.01634]},"properties":{"osm_type":"way","osm_id":584184079,"category":"winery","tags":{"building":"industrial","industrial":"winery"}}},{"type":"Feature","id":"way/584184080","geometry":{"type":"Point","coordinates":[18.8167146,-34.0163107]},"properties":{"osm_type":"way","osm_id":584184080,"category":"winery","tags":{"building":"industrial","industrial":"winery"}}},{"type":"Feature","id":"way/584184086","geometry":{"type":"Point","coordinates":[18.815765,-34.017019]},"properties":{"osm_type":"way","osm_id":584184086,"category":"winery","tags":{"building":"industrial","industrial":"winery"}}},{"type":"Feature","id":"way/584184087","geometry":{"type":"Point","coordinates":[18.8155078,-34.0171484]},"properties":{"osm_type":"way","osm_id":584184087,"category":"winery","tags":{"building":"industrial","industrial":"winery"}}},{"type":"Feature","id":"way/584193513","geometry":{"type":"Point","coordinates":[18.8259128,-34.0160963]},"properties":{"osm_type":"way","osm_id":584193513,"category":"vineyard","name":"Eikendal Estate","tags":{"landuse":"vineyard","name":"Eikendal Estate","website":"https://www.eikendaal.com"}}},{"type":"Feature","id":"way/584286474","geometry":{"type":"Point","coordinates":[18.833169,-34.0154671]},"properties":{"osm_type":"way","osm_id":584286474,"category":"winery","name":"Longridge Estate","tags":{"building":"industrial","industrial":"winery","name":"Longridge Estate"}}},{"type":"Feature","id":"way/601152756","geometry":{"type":"Point","coordinates":[18.7513916,-32.9790403]},"properties":{"osm_type":"way","osm_id":601152756,"category":"winery","name":"Nieuwedrift Wine House","tags":{"craft":"winery","landuse":"vineyard","name":"Nieuwedrift Wine House","operator":"Nieuwedrift Vineyards"}}},{"type":"Feature","id":"way/687432361","geometry":{"type":"Point","coordinates":[18.4237937,-34.0471852]},"properties":{"osm_type":"way","osm_id":687432361,"category":"winery","name":"Constantia Uitsig","tags":{"building":"distillery","craft":"winery","name":"Constantia Uitsig"}}},{"type":"Feature","id":"way/730005777","geometry":{"type":"Point","coordinates":[18.565854,-33.8249737]},"properties":{"osm_type":"way","osm_id":730005777,"category":"wine_shop","name":"Durbanville Hills","tags":{"amenity":"restaurant","building":"yes","name":"Durbanville Hills","shop":"wine"}}},{"type":"Feature","id":"way/750377352","geometry":{"type":"Point","coordinates":[18.9105559,-33.953497]},"properties":{"osm_type":"way","osm_id":750377352,"category":"winery","name":"Stark Conde","tags":{"building":"yes","craft":"winery","name":"Stark Conde","name:en":"Stark Conde","name:old":"Oude Nektar","tourism":"attraction"}}},{"type":"Feature","id":"way/766355669","geometry":{"type":"Point","coordinates":[19.013767,-32.5935726]},"properties":{"osm_type":"way","osm_id":766355669,"category":"wine_shop","name":"Citrusdal Wijnhuis","tags":{"building":"yes","name":"Citrusdal Wijnhuis","shop":"wine"}}},{"type":"Feature","id":"way/769191706","geometry":{"type":"Point","coordinates":[19.2695606,-33.6602951]},"properties":{"osm_type":"way","osm_id":769191706,"category":"winery","tags":{"building":"industrial","industrial":"winery","operator":"Badsberg"}}},{"type":"Feature","id":"way/779458036","geometry":{"type":"Point","coordinates":[19.3265735,-34.3312686]},"properties":{"osm_type":"way","osm_id":779458036,"category":"winery","name":"Creation Wines","tags":{"craft":"winery","name":"Creation Wines","website":"https://www.creationwines.com/"}}},{"type":"Feature","id":"way/802696800","geometry":{"type":"Point","coordinates":[18.4692225,-33.9784444]},"properties":{"osm_type":"way","osm_id":802696800,"category":"wine_shop","name":"Liquor City Claremont","tags":{"addr:city":"Claremont","addr:housenumber":"43","addr:street":"Palmyra Road","building":"yes","name":"Liquor City Claremont","phone":"+27 21 674 1478","shop":"wine"}}},{"type":"Feature","id":"way/818310105","geometry":{"type":"Point","coordinates":[19.7622008,-33.7765712]},"properties":{"osm_type":"way","osm_id":818310105,"category":"winery","name":"Rooiberg Winery","tags":{"craft":"winery","name":"Rooiberg Winery"}}},{"type":"Feature","id":"way/831267106","geometry":{"type":"Point","coordinates":[18.7528982,-33.4535831]},"properties":{"osm_type":"way","osm_id":831267106,"category":"vineyard","name":"Swartland Winery","tags":{"landuse":"vineyard","name":"Swartland Winery"}}},{"type":"Feature","id":"way/857582388","geometry":{"type":"Point","coordinates":[18.3329753,-31.5749438]},"properties":{"osm_type":"way","osm_id":857582388,"category":"wine_cellar","name":"Seal Breeze Wines","tags":{"building":"yes","name":"Seal Breeze Wines","phone":"+27 84 5051991","tourism":"wine_cellar"}}},{"type":"Feature","id":"way/857604571","geometry":{"type":"Point","coordinates":[18.3498493,-31.5605872]},"properties":{"osm_type":"way","osm_id":857604571,"category":"wine_cellar","name":"Lutzville wine cellars","tags":{"building":"yes","name":"Lutzville wine cellars","opening_hours":"Mo-Fr 09:00-17:00; Sa,PH 10:00-14:00","phone":"+27 27 217 1516","tourism":"wine_cellar","website":"https://lutzvillevineyards.com"}}},{"type":"Feature","id":"way/857618098","geometry":{"type":"Point","coordinates":[18.5034522,-31.7100328]},"properties":{"osm_type":"way","osm_id":857618098,"category":"wine_cellar","name":"Namaqua die Keldery","tags":{"building":"yes","name":"Namaqua die Keldery","phone":"+27 213 3698","tourism":"wine_cellar"}}},{"type":"Feature","id":"way/907032935","geometry":{"type":"Point","coordinates":[20.1059575,-33.7491007]},"properties":{"osm_type":"way","osm_id":907032935,"category":"winery","name":"Drie Berge","tags":{"building":"yes","craft":"winery","name":"Drie Berge"}}},{"type":"Feature","id":"way/919250478","geometry":{"type":"Point","coordinates":[20.0545385,-33.7811605]},"properties":{"osm_type":"way","osm_id":919250478,"category":"winery","name":"Klein Hoek Kloof","tags":{"building":"yes","craft":"winery","name":"Klein Hoek Kloof"}}},{"type":"Feature","id":"way/968777920","geometry":{"type":"Point","coordinates":[19.0803691,-33.8857622]},"properties":{"osm_type":"way","osm_id":968777920,"category":"winery","name":"Leopard's Leap","tags":{"building":"yes","craft":"winery","email":"info@leopardsleap.co.za","name":"Leopard's Leap","opening_hours":"Tu-Sa 09:00-17:00; Su 11:00-17:00; PH off","phone":"+27218768002","website":"https://leopardsleap.co.za/"}}},{"type":"Feature","id":"way/972855819","geometry":{"type":"Point","coordinates":[18.8442972,-34.0659612]},"properties":{"osm_type":"way","osm_id":972855819,"category":"vineyard","name":"450m²","tags":{"landuse":"vineyard","name":"450m²"}}},{"type":"Feature","id":"way/972855820","geometry":{"type":"Point","coordinates":[18.8441739,-34.065873]},"properties":{"osm_type":"way","osm_id":972855820,"category":"vineyard","name":"480m²","tags":{"landuse":"vineyard","name":"480m²"}}},{"type":"Feature","id":"way/1000859184","geometry":{"type":"Point","coordinates":[28.2495734,-25.7691554]},"properties":{"osm_type":"way","osm_id":1000859184,"category":"wine_shop","name":"Don Pino","tags":{"addr:city":"Brooklyn","addr:housenumber":"431","addr:postcode":"0011","addr:street":"Marais Street","building":"yes","name":"Don Pino","phone":"+27765028335","shop":"wine"}}},{"type":"Feature","id":"way/1024283181","geometry":{"type":"Point","coordinates":[25.4744564,-33.9795691]},"properties":{"osm_type":"way","osm_id":1024283181,"category":"winery","name":"Theescombe Estate Wine Farm","tags":{"addr:street":"Venter Avenue","craft":"winery","landuse":"vineyard","name":"Theescombe Estate Wine Farm","website":"https://theescombewines.wixsite.com/wine"}}},{"type":"Feature","id":"way/1047766512","geometry":{"type":"Point","coordinates":[18.930379,-33.9130034]},"properties":{"osm_type":"way","osm_id":1047766512,"category":"wine_shop","name":"Zorgvliet Wine tasting","tags":{"building":"yes","name":"Zorgvliet Wine tasting","shop":"wine"}}},{"type":"Feature","id":"way/1097800238","geometry":{"type":"Point","coordinates":[18.9716949,-33.8163845]},"properties":{"osm_type":"way","osm_id":1097800238,"category":"vineyard","name":"Val de Vie","tags":{"landuse":"vineyard","name":"Val de Vie"}}},{"type":"Feature","id":"way/1117885633","geometry":{"type":"Point","coordinates":[19.0442647,-33.6721935]},"properties":{"osm_type":"way","osm_id":1117885633,"category":"winery","name":"Upland Organic Estate","tags":{"addr:city":"wellington","addr:postcode":"7654","addr:street":"upland road","building":"yes","craft":"winery","email":"info@organicwine.co.za","name":"Upland Organic Estate","opening_hours":"Mo-Fr 08:00-17:00","operator":"Edmund Oettle","phone":"+27827314774","website":"https://www.organicwine.co.za/"}}},{"type":"Feature","id":"way/1141328523","geometry":{"type":"Point","coordinates":[18.8085216,-33.8128502]},"properties":{"osm_type":"way","osm_id":1141328523,"category":"wine_shop","name":"Joostenberg wines","tags":{"building":"yes","name":"Joostenberg wines","opening_hours":"Fr-Su 10:00-16:00","shop":"wine"}}},{"type":"Feature","id":"way/1141328525","geometry":{"type":"Point","coordinates":[18.8090137,-33.8131068]},"properties":{"osm_type":"way","osm_id":1141328525,"category":"winery","name":"Joostenberg wines","tags":{"building":"yes","craft":"winery","name":"Joostenberg wines"}}},{"type":"Feature","id":"way/1141328526","geometry":{"type":"Point","coordinates":[18.8086377,-33.8132152]},"properties":{"osm_type":"way","osm_id":1141328526,"category":"winery","name":"Joostenberg wines","tags":{"building":"yes","craft":"winery","name":"Joostenberg wines"}}},{"type":"Feature","id":"way/1210282525","geometry":{"type":"Point","coordinates":[18.968114,-33.8853337]},"properties":{"osm_type":"way","osm_id":1210282525,"category":"winery","tags":{"building":"industrial","industrial":"winery"}}},{"type":"Feature","id":"way/1210282526","geometry":{"type":"Point","coordinates":[18.9684775,-33.8844986]},"properties":{"osm_type":"way","osm_id":1210282526,"category":"winery","tags":{"building":"industrial","industrial":"winery"}}},{"type":"Feature","id":"way/1210282527","geometry":{"type":"Point","coordinates":[18.9683248,-33.8845439]},"properties":{"osm_type":"way","osm_id":1210282527,"category":"winery","tags":{"building":"industrial","industrial":"winery"}}},{"type":"Feature","id":"way/1233418648","geometry":{"type":"Point","coordinates":[19.0475045,-33.6244186]},"properties":{"osm_type":"way","osm_id":1233418648,"category":"winery","tags":{"building":"industrial","industrial":"winery"}}},{"type":"Feature","id":"way/1240903855","geometry":{"type":"Point","coordinates":[18.8435735,-33.8856668]},"properties":{"osm_type":"way","osm_id":1240903855,"category":"winery","name":"L’Avenir Cellardoor","tags":{"building":"yes","craft":"winery","email":"info@lavenir.co.za","name":"L’Avenir Cellardoor","operator":"L’Avenir Wine Estate","phone":"+27 21 889 5001","website":"https://www.lavenirestate.co.za"}}},{"type":"Feature","id":"way/1246260139","geometry":{"type":"Point","coordinates":[18.7405959,-33.953316]},"properties":{"osm_type":"way","osm_id":1246260139,"category":"winery","name":"Beau Joubert","tags":{"building":"yes","craft":"winery","name":"Beau Joubert"}}},{"type":"Feature","id":"way/1250814914","geometry":{"type":"Point","coordinates":[18.733339,-33.4491621]},"properties":{"osm_type":"way","osm_id":1250814914,"category":"winery","name":"Renosterbos Winery","tags":{"building":"yes","craft":"winery","name":"Renosterbos Winery"}}},{"type":"Feature","id":"way/1251058052","geometry":{"type":"Point","coordinates":[18.60937,-33.8430216]},"properties":{"osm_type":"way","osm_id":1251058052,"category":"winery","tags":{"building":"industrial","industrial":"winery"}}},{"type":"Feature","id":"way/1252383733","geometry":{"type":"Point","coordinates":[18.6392605,-33.8019429]},"properties":{"osm_type":"way","osm_id":1252383733,"category":"winery","tags":{"building":"industrial","industrial":"winery"}}},{"type":"Feature","id":"way/1252767700","geometry":{"type":"Point","coordinates":[18.6250045,-33.7989287]},"properties":{"osm_type":"way","osm_id":1252767700,"category":"winery","name":"Meerendal Wine Estate","tags":{"building":"industrial","craft":"winery","name":"Meerendal Wine Estate"}}},{"type":"Feature","id":"way/1261418456","geometry":{"type":"Point","coordinates":[18.8913091,-33.9252174]},"properties":{"osm_type":"way","osm_id":1261418456,"category":"winery","tags":{"building":"industrial","industrial":"winery"}}},{"type":"Feature","id":"way/1279423451","geometry":{"type":"Point","coordinates":[18.8481642,-34.0147054]},"properties":{"osm_type":"way","osm_id":1279423451,"category":"wine_cellar","name":"Ernie Els Wines","tags":{"amenity":"restaurant","building":"yes","name":"Ernie Els Wines","tourism":"wine_cellar"}}},{"type":"Feature","id":"way/1303739614","geometry":{"type":"Point","coordinates":[19.1852545,-34.2775334]},"properties":{"osm_type":"way","osm_id":1303739614,"category":"winery","name":"Genevieve MCC","tags":{"addr:city":"Bot River","addr:postcode":"7185","addr:street":"Karwyderskraal Road","building":"yes","craft":"winery","email":"melissa@genevievemcc.co.za","name":"Genevieve MCC","opening_hours":"We-Su 10:00-16:00","operator":"Melissa Nelsen","phone":"+27 83 302 65 62","website":"https://www.genevievemcc.co.za/"}}},{"type":"Feature","id":"way/1305401269","geometry":{"type":"Point","coordinates":[18.8236663,-34.0255278]},"properties":{"osm_type":"way","osm_id":1305401269,"category":"winery","name":"Avontuur Estate","tags":{"building":"yes","craft":"winery","name":"Avontuur Estate","opening_hours":"Mo-Fr 08:30-17:00; Sa,Su,PH 08:30-16:00; Jan 01,easter -2 days, Dec 25 off"}}},{"type":"Feature","id":"way/1305690936","geometry":{"type":"Point","coordinates":[18.811793,-34.0455968]},"properties":{"osm_type":"way","osm_id":1305690936,"category":"winery","name":"Equitania Boutique Wine Farm","tags":{"building":"yes","craft":"winery","email":"info@equitania.co.za","name":"Equitania Boutique Wine Farm","phone":"+27 21 809 2070","website":"https://www.equitania.co.za"}}},{"type":"Feature","id":"way/1339375673","geometry":{"type":"Point","coordinates":[18.9461746,-33.9295164]},"properties":{"osm_type":"way","osm_id":1339375673,"category":"winery","name":"Oldenburg Vineyards","tags":{"addr:city":"Stellenbosch","addr:postcode":"7601","addr:street":"Zevenrivieren Road, Banghoek Valley","building":"commercial","craft":"winery","name":"Oldenburg Vineyards","opening_hours":"Mo-Sa 10:00-17:00","phone":"+27 21 885 1618","website":"https://oldenburgvineyards.com/?cmdf=oldenburg%20wine%20estate"}}},{"type":"Feature","id":"way/1347794026","geometry":{"type":"Point","coordinates":[19.8272282,-34.6325461]},"properties":{"osm_type":"way","osm_id":1347794026,"category":"winery","name":"Black Oystercatcher Wines","tags":{"building":"yes","craft":"winery","name":"Black Oystercatcher Wines","website":"https://blackoystercatcher.co.za/"}}},{"type":"Feature","id":"way/1359564718","geometry":{"type":"Point","coordinates":[18.8560528,-33.9987814]},"properties":{"osm_type":"way","osm_id":1359564718,"category":"winery","tags":{"building":"industrial","industrial":"winery"}}},{"type":"Feature","id":"way/1360590575","geometry":{"type":"Point","coordinates":[19.2700758,-33.6605418]},"properties":{"osm_type":"way","osm_id":1360590575,"category":"winery","tags":{"building":"industrial","industrial":"winery","operator":"Badsberg"}}},{"type":"Feature","id":"way/1360590576","geometry":{"type":"Point","coordinates":[19.2688713,-33.6611441]},"properties":{"osm_type":"way","osm_id":1360590576,"category":"winery","tags":{"building":"industrial","industrial":"winery","operator":"Badsberg"}}},{"type":"Feature","id":"way/1361450641","geometry":{"type":"Point","coordinates":[21.7187681,-33.9855602]},"properties":{"osm_type":"way","osm_id":1361450641,"category":"winery","tags":{"building":"industrial","industrial":"winery"}}},{"type":"Feature","id":"way/1425773781","geometry":{"type":"Point","coordinates":[18.4585394,-33.9991512]},"properties":{"osm_type":"way","osm_id":1425773781,"category":"vineyard","name":"Oude Wijnberg","tags":{"landuse":"vineyard","name":"Oude Wijnberg"}}},{"type":"Feature","id":"way/1443229996","geometry":{"type":"Point","coordinates":[18.6138744,-33.8085216]},"properties":{"osm_type":"way","osm_id":1443229996,"category":"winery","name":"House of Westerdale Wines","tags":{"building":"yes","craft":"winery","name":"House of Westerdale Wines"}}},{"type":"Feature","id":"relation/5725076","geometry":{"type":"Point","coordinates":[18.8701168,-33.9985156]},"properties":{"osm_type":"relation","osm_id":5725076,"category":"wine_cellar","name":"Waterford Estate","tags":{"building":"yes","name":"Waterford Estate","shop":"winery","tourism":"wine_cellar"}}},{"type":"Feature","id":"relation/16105264","geometry":{"type":"Point","coordinates":[18.8083197,-34.0905755]},"properties":{"osm_type":"relation","osm_id":16105264,"category":"winery","name":"Flagstone Winery","tags":{"building":"yes","craft":"winery","name":"Flagstone Winery"}}}]}