{"type":"FeatureCollection","features":[{"type":"Feature","id":"wd/Q2832748","geometry":{"type":"Point","coordinates":[-1.21667,41.33333]},"properties":{"qid":"Q2832748","name":"Cariñena","classes":["wine_region"],"country":"ES","image":"https://commons.wikimedia.org/wiki/Special:FilePath/Longares%20%28Zaragoza%29%2008.JPG","wikipedia":"https://en.wikipedia.org/wiki/Cari%C3%B1ena_DOP"}},{"type":"Feature","id":"wd/Q10861228","geometry":{"type":"Point","coordinates":[16.23811,48.93889]},"properties":{"qid":"Q10861228","name":"Q10861228","classes":["wine_region"],"country":"CZ"}},{"type":"Feature","id":"wd/Q1071629","geometry":{"type":"Point","coordinates":[11.41667,43.53333]},"properties":{"qid":"Q1071629","name":"Chianti","classes":["wine_region"],"country":"IT","image":"https://commons.wikimedia.org/wiki/Special:FilePath/Nel%20chianti%20prima%20della%20vendemmia.jpg","wikipedia":"https://en.wikipedia.org/wiki/Chianti_(region)"}},{"type":"Feature","id":"wd/Q448096","geometry":{"type":"Point","coordinates":[15.7,40.95]},"properties":{"qid":"Q448096","name":"Vulture","classes":["wine_region"],"country":"IT","image":"https://commons.wikimedia.org/wiki/Special:FilePath/Monte%20Vulture%202.jpg","wikipedia":"https://en.wikipedia.org/wiki/Vulture_(region)"}},{"type":"Feature","id":"wd/Q1290583","geometry":{"type":"Point","coordinates":[-16.54541,28.38747]},"properties":{"qid":"Q1290583","name":"Orotava Valley","classes":["wine_region"],"country":"ES","image":"https://commons.wikimedia.org/wiki/Special:FilePath/Panom-puerto.jpg","wikipedia":"https://en.wikipedia.org/wiki/Orotava_Valley"}},{"type":"Feature","id":"wd/Q17296768","geometry":{"type":"Point","coordinates":[7.99417,44.65194]},"properties":{"qid":"Q17296768","name":"The Vineyard Landscape of Piedmont: Langhe-Roero and Monferrato","classes":["wine_region"],"country":"IT","image":"https://commons.wikimedia.org/wiki/Special:FilePath/Grinzane%20cavour%20castello.jpg","wikipedia":"https://en.wikipedia.org/wiki/Vineyard_Landscape_of_Piedmont:_Langhe-Roero_and_Monferrato"}},{"type":"Feature","id":"wd/Q322801","geometry":{"type":"Point","coordinates":[-16.50206,28.16589]},"properties":{"qid":"Q322801","name":"Abona","classes":["appellation","wine_region"],"country":"ES","wikipedia":"https://en.wikipedia.org/wiki/Abona_(DO)"}},{"type":"Feature","id":"wd/Q544423","geometry":{"type":"Point","coordinates":[-5.75556,41.49889]},"properties":{"qid":"Q544423","name":"Tierra del Vino de Zamora DO","classes":["appellation","wine_region"],"country":"ES","wikipedia":"https://en.wikipedia.org/wiki/Tierra_del_Vino_de_Zamora_DO"}},{"type":"Feature","id":"wd/Q2448665","geometry":{"type":"Point","coordinates":[-28.54111,38.51333]},"properties":{"qid":"Q2448665","name":"Landscape of the Pico Island Vineyard Culture","classes":["wine_region"],"country":"PT","image":"https://commons.wikimedia.org/wiki/Special:FilePath/Landscape%20of%20the%20Pico%20Island%20Vineyard%20Culture.jpg","wikipedia":"https://en.wikipedia.org/wiki/Landscape_of_the_Pico_Island_Vineyard_Culture"}},{"type":"Feature","id":"wd/Q65029145","geometry":{"type":"Point","coordinates":[12.2261,45.953]},"properties":{"qid":"Q65029145","name":"Le Colline del Prosecco di Conegliano e Valdobbiadene","classes":["wine_region"],"country":"IT","image":"https://commons.wikimedia.org/wiki/Special:FilePath/Hillside%20View%20of%20Valdobbiadene.jpg"}},{"type":"Feature","id":"wd/Q9362650","geometry":{"type":"Point","coordinates":[148.0,-35.6]},"properties":{"qid":"Q9362650","name":"Tumbarumba wine region","classes":["wine_region"],"country":"AU","parent_qid":"Q73300304","parent_name":"Southern New South Wales","wikipedia":"https://en.wikipedia.org/wiki/Tumbarumba_wine_region"}},{"type":"Feature","id":"wd/Q828125","geometry":{"type":"Point","coordinates":[21.35,48.15]},"properties":{"qid":"Q828125","name":"Tokaj wine region","classes":["wine_region"],"country":"HU","image":"https://commons.wikimedia.org/wiki/Special:FilePath/Tokaj%20-%20Hegyalja-06.jpg","parent_qid":"Q64559620","parent_name":"Tokaj Wine Region Historic Cultural Landscape","wikipedia":"https://en.wikipedia.org/wiki/Tokaj_wine_region"}},{"type":"Feature","id":"wd/Q16398","geometry":{"type":"Point","coordinates":[-6.12625,36.68394]},"properties":{"qid":"Q16398","name":"sherry","classes":["wine_region"],"country":"ES","image":"https://commons.wikimedia.org/wiki/Special:FilePath/Lustau%20003An2019.jpg","wikipedia":"https://en.wikipedia.org/wiki/Sherry"}},{"type":"Feature","id":"wd/Q5693656","geometry":{"type":"Point","coordinates":[144.696,-36.9161]},"properties":{"qid":"Q5693656","name":"Heathcote wine region","classes":["wine_region"],"country":"AU","wikipedia":"https://en.wikipedia.org/wiki/Heathcote_wine_region"}},{"type":"Feature","id":"wd/Q19877927","geometry":{"type":"Point","coordinates":[139.86667,-37.25]},"properties":{"qid":"Q19877927","name":"Robe wine region","classes":["wine_region"],"country":"AU","parent_qid":"Q19875198","parent_name":"Limestone Coast zone","wikipedia":"https://en.wikipedia.org/wiki/Robe_wine_region"}},{"type":"Feature","id":"wd/Q8049508","geometry":{"type":"Point","coordinates":[145.617,-37.7667]},"properties":{"qid":"Q8049508","name":"Yarra Valley","classes":["wine_region"],"country":"AU","image":"https://commons.wikimedia.org/wiki/Special:FilePath/09%20vic%20bushfires%20maroondah%20yarra%20complex%2001.JPG","parent_qid":"Q73208322","parent_name":"Port Phillip Geographical Indication","wikipedia":"https://en.wikipedia.org/wiki/Yarra_Valley_wine_region"}},{"type":"Feature","id":"wd/Q1150940","geometry":{"type":"Point","coordinates":[4.78,46.99]},"properties":{"qid":"Q1150940","name":"Côte de Beaune","classes":["wine_region"],"country":"FR","image":"https://commons.wikimedia.org/wiki/Special:FilePath/IMG%20Vignoble%20de%20Volnay.JPG","parent_qid":"Q1016093","parent_name":"Burgundy wine region","wikipedia":"https://en.wikipedia.org/wiki/C%C3%B4te_de_Beaune"}},{"type":"Feature","id":"wd/Q471950","geometry":{"type":"Point","coordinates":[4.7,46.81]},"properties":{"qid":"Q471950","name":"Côte Chalonnaise","classes":["wine_region"],"country":"FR","wikipedia":"https://en.wikipedia.org/wiki/C%C3%B4te_Chalonnaise"}},{"type":"Feature","id":"wd/Q24521768","geometry":{"type":"Point","coordinates":[149.8,-32.5]},"properties":{"qid":"Q24521768","name":"Mudgee wine region","classes":["wine_region"],"country":"AU","parent_qid":"Q25184387","parent_name":"Central Ranges","wikipedia":"https://en.wikipedia.org/wiki/Mudgee_wine_region"}},{"type":"Feature","id":"wd/Q5593940","geometry":{"type":"Point","coordinates":[142.275,-37.2432]},"properties":{"qid":"Q5593940","name":"Grampians","classes":["wine_region"],"country":"AU","parent_qid":"Q24090012","parent_name":"Western Victoria","wikipedia":"https://en.wikipedia.org/wiki/Grampians_wine_region"}},{"type":"Feature","id":"wd/Q30674832","geometry":{"type":"Point","coordinates":[-6.27,36.69]},"properties":{"qid":"Q30674832","name":"Sherry Triangle","classes":["wine_region"],"country":"ES","image":"https://commons.wikimedia.org/wiki/Special:FilePath/Pago%20de%20miraflores%20la%20alta%20albariza%20sanl%C3%BAcar%20barrameda.jpg","parent_qid":"Q1031357","parent_name":"Campiña de Jerez","wikipedia":"https://en.wikipedia.org/wiki/Sherry_Triangle"}},{"type":"Feature","id":"wd/Q3322288","geometry":{"type":"Point","coordinates":[4.14838,49.1421]},"properties":{"qid":"Q3322288","name":"Montagne de Reims","classes":["wine_region"],"country":"FR","wikipedia":"https://en.wikipedia.org/wiki/Montagne_de_Reims"}},{"type":"Feature","id":"wd/Q24521756","geometry":{"type":"Point","coordinates":[143.5,-35.25]},"properties":{"qid":"Q24521756","name":"Swan Hill wine region","classes":["wine_region"],"country":"AU","parent_qid":"Q24521743","parent_name":"Big Rivers","wikipedia":"https://en.wikipedia.org/wiki/Swan_Hill_wine_region"}},{"type":"Feature","id":"wd/Q241136","geometry":{"type":"Point","coordinates":[11.66667,45.31667]},"properties":{"qid":"Q241136","name":"Euganean Hills","classes":["wine_region"],"country":"IT","image":"https://commons.wikimedia.org/wiki/Special:FilePath/Parco%20Regionale%20dei%20Colli%20Euganei%202.jpg","wikipedia":"https://en.wikipedia.org/wiki/Euganean_Hills"}},{"type":"Feature","id":"wd/Q15853852","geometry":{"type":"Point","coordinates":[9.90217,43.43326]},"properties":{"qid":"Q15853852","name":"Weinbau auf der Insel Gorgona","classes":["wine_region"],"country":"IT","image":"https://commons.wikimedia.org/wiki/Special:FilePath/Gorgona%2C%20vigneto%2001.jpg"}},{"type":"Feature","id":"wd/Q2419847","geometry":{"type":"Point","coordinates":[16.27095,48.02712]},"properties":{"qid":"Q2419847","name":"Thermenregion","classes":["wine_region"],"country":"AT","image":"https://commons.wikimedia.org/wiki/Special:FilePath/Gumpoldskirchen%20-%20Freigut%20Thallern%20%28a%29.JPG"}},{"type":"Feature","id":"wd/Q641419","geometry":{"type":"Point","coordinates":[116.0,-31.8333]},"properties":{"qid":"Q641419","name":"Swan Valley","classes":["wine_region"],"country":"AU","wikipedia":"https://en.wikipedia.org/wiki/Swan_Valley_(Western_Australia)"}},{"type":"Feature","id":"wd/Q1569384","geometry":{"type":"Point","coordinates":[-2.44569,42.46175]},"properties":{"qid":"Q1569384","name":"Rioja","classes":["wine_region"],"country":"ES","image":"https://commons.wikimedia.org/wiki/Special:FilePath/Rioja%20vineyards.JPG","wikipedia":"https://en.wikipedia.org/wiki/Rioja_DOCa"}},{"type":"Feature","id":"wd/Q2428809","geometry":{"type":"Point","coordinates":[4.0,49.0]},"properties":{"qid":"Q2428809","name":"Champagne","classes":["wine_region"],"country":"FR","image":"https://commons.wikimedia.org/wiki/Special:FilePath/Vignobles%20champagne.svg","parent_qid":"Q43266792","parent_name":"French viticultural region","wikipedia":"https://en.wikipedia.org/wiki/Champagne_wine_region"}},{"type":"Feature","id":"wd/Q19879273","geometry":{"type":"Point","coordinates":[138.48333,-35.45]},"properties":{"qid":"Q19879273","name":"Southern Fleurieu wine region","classes":["wine_region"],"country":"AU","parent_qid":"Q19873439","parent_name":"Fleurieu zone","wikipedia":"https://en.wikipedia.org/wiki/Southern_Fleurieu_wine_region"}},{"type":"Feature","id":"wd/Q3411307","geometry":{"type":"Point","coordinates":[143.314,-37.1165]},"properties":{"qid":"Q3411307","name":"Pyrenees","classes":["wine_region"],"country":"AU","image":"https://commons.wikimedia.org/wiki/Special:FilePath/Pyrenees%20ranges%20Victoria.JPG","parent_qid":"Q24090012","parent_name":"Western Victoria","wikipedia":"https://en.wikipedia.org/wiki/Pyrenees_(Victoria)"}},{"type":"Feature","id":"wd/Q12772543","geometry":{"type":"Point","coordinates":[18.41194,48.41889]},"properties":{"qid":"Q12772543","name":"Nitra wine region","classes":["wine_region"],"country":"SK"}},{"type":"Feature","id":"wd/Q14935800","geometry":{"type":"Point","coordinates":[117.0,-35.0]},"properties":{"qid":"Q14935800","name":"Great Southern","classes":["wine_region"],"country":"AU","parent_qid":"Q73363456","parent_name":"South West Australia","wikipedia":"https://en.wikipedia.org/wiki/Great_Southern_(wine_region)"}},{"type":"Feature","id":"wd/Q852467","geometry":{"type":"Point","coordinates":[10.88333,45.51667]},"properties":{"qid":"Q852467","name":"Valpolicella","classes":["wine_region"],"country":"IT","image":"https://commons.wikimedia.org/wiki/Special:FilePath/VistaValpolicella.jpg","parent_qid":"Q3685845","parent_name":"Comunità montana della Lessinia","wikipedia":"https://en.wikipedia.org/wiki/Valpolicella"}},{"type":"Feature","id":"wd/Q5884650","geometry":{"type":"Point","coordinates":[-3.60056,37.18333]},"properties":{"qid":"Q5884650","name":"Granada","classes":["wine_region"],"country":"ES","wikipedia":"https://en.wikipedia.org/wiki/Granada_(wine)"}},{"type":"Feature","id":"wd/Q19573687","geometry":{"type":"Point","coordinates":[138.8,-34.86667]},"properties":{"qid":"Q19573687","name":"Piccadilly Valley wine sub-region","classes":["wine_region"],"country":"AU","parent_qid":"Q19460105","parent_name":"Adelaide Hills wine region","wikipedia":"https://en.wikipedia.org/wiki/Piccadilly_Valley_wine_sub-region"}},{"type":"Feature","id":"wd/Q64686735","geometry":{"type":"Point","coordinates":[-28.40547,38.5555]},"properties":{"qid":"Q64686735","name":"Landscape of the Pico Island Vineyard Culture – part I","classes":["wine_region"],"country":"PT","parent_qid":"Q2448665","parent_name":"Landscape of the Pico Island Vineyard Culture"}},{"type":"Feature","id":"wd/Q19868","geometry":{"type":"Point","coordinates":[7.96361,44.60861]},"properties":{"qid":"Q19868","name":"Montferrat","classes":["wine_region"],"country":"IT","image":"https://commons.wikimedia.org/wiki/Special:FilePath/Castelnuovo%20Calcea%20from%20San%20Marzano%20Oliveto.jpg","parent_qid":"Q17296768","parent_name":"The Vineyard Landscape of Piedmont: Langhe-Roero and Monferrato","wikipedia":"https://en.wikipedia.org/wiki/Montferrat"}},{"type":"Feature","id":"wd/Q19597670","geometry":{"type":"Point","coordinates":[139.0,-35.31667]},"properties":{"qid":"Q19597670","name":"Langhorne Creek wine region","classes":["wine_region"],"country":"AU","parent_qid":"Q19873439","parent_name":"Fleurieu zone","wikipedia":"https://en.wikipedia.org/wiki/Langhorne_Creek_wine_region"}},{"type":"Feature","id":"wd/Q5701673","geometry":{"type":"Point","coordinates":[18.9167,-34.0833]},"properties":{"qid":"Q5701673","name":"Helderberg","classes":["wine_region"],"country":"ZA","image":"https://commons.wikimedia.org/wiki/Special:FilePath/Helderberg%20mountain%20seen%20from%20the%20North-West%209669.jpg","wikipedia":"https://en.wikipedia.org/wiki/Helderberg"}},{"type":"Feature","id":"wd/Q64686736","geometry":{"type":"Point","coordinates":[-28.40547,38.5555]},"properties":{"qid":"Q64686736","name":"Landscape of the Pico Island Vineyard Culture – part II","classes":["wine_region"],"country":"PT","parent_qid":"Q2448665","parent_name":"Landscape of the Pico Island Vineyard Culture"}},{"type":"Feature","id":"wd/Q1109872","geometry":{"type":"Point","coordinates":[13.49247,45.98647]},"properties":{"qid":"Q1109872","name":"Gorizia Hills","classes":["wine_region"],"country":"IT","wikipedia":"https://en.wikipedia.org/wiki/Gorizia_Hills"}},{"type":"Feature","id":"wd/Q2987951","geometry":{"type":"Point","coordinates":[0.15528,44.89472]},"properties":{"qid":"Q2987951","name":"Jurisdiction of Saint-Emilion","classes":["wine_region"],"country":"FR","image":"https://commons.wikimedia.org/wiki/Special:FilePath/St.%20%C3%A9milion.jpg"}},{"type":"Feature","id":"wd/Q1248668","geometry":{"type":"Point","coordinates":[10.02,45.62]},"properties":{"qid":"Q1248668","name":"Franciacorta","classes":["wine_region"],"country":"IT","image":"https://commons.wikimedia.org/wiki/Special:FilePath/Franciacorta%20and%20Lake%20Iseo%202008%20Touring%20Club%20Italiano%20GR%20Lombardia%400628.tif","wikipedia":"https://en.wikipedia.org/wiki/Franciacorta"}},{"type":"Feature","id":"wd/Q777013","geometry":{"type":"Point","coordinates":[4.96,47.18]},"properties":{"qid":"Q777013","name":"Côte de Nuits","classes":["wine_region"],"country":"FR","parent_qid":"Q1016093","parent_name":"Burgundy wine region","wikipedia":"https://en.wikipedia.org/wiki/C%C3%B4te_de_Nuits"}},{"type":"Feature","id":"wd/Q624640","geometry":{"type":"Point","coordinates":[-6.58333,42.55]},"properties":{"qid":"Q624640","name":"Bierzo","classes":["wine_region"],"country":"ES","image":"https://commons.wikimedia.org/wiki/Special:FilePath/Villafranca%20del%20Bierzo%2001%20castillo%20by-dpc.jpg","wikipedia":"https://en.wikipedia.org/wiki/Bierzo_(DO)"}},{"type":"Feature","id":"wd/Q1016093","geometry":{"type":"Point","coordinates":[4.95,47.167]},"properties":{"qid":"Q1016093","name":"Burgundy wine region","classes":["wine_region"],"country":"FR","image":"https://commons.wikimedia.org/wiki/Special:FilePath/Vignobles%20bourgogne-fr.svg","parent_qid":"Q43266792","parent_name":"French viticultural region","wikipedia":"https://en.wikipedia.org/wiki/Burgundy_wine"}},{"type":"Feature","id":"wd/Q19573545","geometry":{"type":"Point","coordinates":[140.65,-36.58333]},"properties":{"qid":"Q19573545","name":"Padthaway wine region","classes":["wine_region"],"country":"AU","parent_qid":"Q19875198","parent_name":"Limestone Coast zone","wikipedia":"https://en.wikipedia.org/wiki/Padthaway_wine_region"}},{"type":"Feature","id":"wd/Q6746472","geometry":{"type":"Point","coordinates":[1.83972,41.72056]},"properties":{"qid":"Q6746472","name":"Designation of Origin Pla de Bages (Wine Region)","classes":["wine_region"],"country":"ES","image":"https://commons.wikimedia.org/wiki/Special:FilePath/Vinyes%20art%C3%A9s.jpg","wikipedia":"https://en.wikipedia.org/wiki/Pla_de_Bages"}},{"type":"Feature","id":"wd/Q4863063","geometry":{"type":"Point","coordinates":[138.88,-34.5167]},"properties":{"qid":"Q4863063","name":"Barossa Valley","classes":["wine_region"],"country":"AU","image":"https://commons.wikimedia.org/wiki/Special:FilePath/Barossa%20Valley%2010.jpg","parent_qid":"Q19460378","parent_name":"Barossa zone","wikipedia":"https://en.wikipedia.org/wiki/Barossa_Valley_wine_region"}},{"type":"Feature","id":"wd/Q28497141","geometry":{"type":"Point","coordinates":[5.07108,44.24501]},"properties":{"qid":"Q28497141","name":"Vaison-la-romaine wine","classes":["wine_region"],"country":"FR","image":"https://commons.wikimedia.org/wiki/Special:FilePath/Vaison%20la%20romaine%20-%20cave%20coop%C3%A9rtive%202.jpg"}},{"type":"Feature","id":"wd/Q64523899","geometry":{"type":"Point","coordinates":[21.75,48.5]},"properties":{"qid":"Q64523899","name":"Tokaj wine region","classes":["wine_region"],"country":"SK","image":"https://commons.wikimedia.org/wiki/Special:FilePath/Tokaj%20Hetszolo%20vineyard.jpg"}},{"type":"Feature","id":"wd/Q31919666","geometry":{"type":"Point","coordinates":[19.22012,-34.39455]},"properties":{"qid":"Q31919666","name":"Hemel-en-Aarde Valley","classes":["wine_region"],"country":"ZA"}},{"type":"Feature","id":"wd/Q2935540","geometry":{"type":"Point","coordinates":[-1.53375,41.83482]},"properties":{"qid":"Q2935540","name":"Campo de Borja (DO)","classes":["wine_region"],"country":"ES","image":"https://commons.wikimedia.org/wiki/Special:FilePath/Grancha%20Mazalcoraz.jpg","wikipedia":"https://en.wikipedia.org/wiki/Campo_de_Borja_(DO)"}},{"type":"Feature","id":"wd/Q1938017","geometry":{"type":"Point","coordinates":[0.12639,42.03611]},"properties":{"qid":"Q1938017","name":"Somontano","classes":["wine_region"],"country":"ES","image":"https://commons.wikimedia.org/wiki/Special:FilePath/Bodegues%20Irius%20-%20Carretera%20de%20Barbastro%20a%20Monz%C3%B3%2004.JPG","wikipedia":"https://en.wikipedia.org/wiki/Somontano"}},{"type":"Feature","id":"wd/Q25182598","geometry":{"type":"Point","coordinates":[142.15833,-34.18889]},"properties":{"qid":"Q25182598","name":"Murray Darling","classes":["wine_region"],"country":"AU","parent_qid":"Q24521743","parent_name":"Big Rivers","wikipedia":"https://en.wikipedia.org/wiki/Murray_Darling"}},{"type":"Feature","id":"wd/Q4735530","geometry":{"type":"Point","coordinates":[146.949,-36.7268]},"properties":{"qid":"Q4735530","name":"Alpine Valleys","classes":["wine_region"],"country":"AU","parent_qid":"Q28183583","parent_name":"North East Victoria","wikipedia":"https://en.wikipedia.org/wiki/Alpine_Valleys"}},{"type":"Feature","id":"wd/Q6802082","geometry":{"type":"Point","coordinates":[138.544,-35.2194]},"properties":{"qid":"Q6802082","name":"McLaren Vale","classes":["wine_region"],"country":"AU","parent_qid":"Q19873439","parent_name":"Fleurieu zone","wikipedia":"https://en.wikipedia.org/wiki/McLaren_Vale"}},{"type":"Feature","id":"wd/Q1151541","geometry":{"type":"Point","coordinates":[17.37018,47.14706]},"properties":{"qid":"Q1151541","name":"Somló","classes":["wine_region"],"country":"HU","image":"https://commons.wikimedia.org/wiki/Special:FilePath/Soml%C3%B3-hegy%20sz%C5%91l%C5%91%C3%BCltetv%C3%A9ny.JPG","wikipedia":"https://en.wikipedia.org/wiki/Soml%C3%B3"}},{"type":"Feature","id":"wd/Q63213877","geometry":{"type":"Point","coordinates":[19.9381,45.0932]},"properties":{"qid":"Q63213877","name":"Srem wine region","classes":["wine_region"],"country":"RS","image":"https://commons.wikimedia.org/wiki/Special:FilePath/%D0%98%D0%BD%D1%92%D0%B8%D1%98%D0%B0%20%D0%BE%D0%BA%D0%BE%D0%BB%D0%B8%D0%BD%D0%B0.JPG"}},{"type":"Feature","id":"wd/Q72811003","geometry":{"type":"Point","coordinates":[16.86871,48.11134]},"properties":{"qid":"Q72811003","name":"Carnuntum","classes":["wine_region"],"country":"AT"}},{"type":"Feature","id":"wd/Q24521767","geometry":{"type":"Point","coordinates":[148.6,-33.7]},"properties":{"qid":"Q24521767","name":"Cowra wine region","classes":["wine_region"],"country":"AU","parent_qid":"Q25184387","parent_name":"Central Ranges","wikipedia":"https://en.wikipedia.org/wiki/Cowra_wine_region"}},{"type":"Feature","id":"wd/Q19865","geometry":{"type":"Point","coordinates":[7.96361,44.6086]},"properties":{"qid":"Q19865","name":"Langhe","classes":["wine_region"],"country":"IT","image":"https://commons.wikimedia.org/wiki/Special:FilePath/Langhe.jpg","parent_qid":"Q17296768","parent_name":"The Vineyard Landscape of Piedmont: Langhe-Roero and Monferrato","wikipedia":"https://en.wikipedia.org/wiki/Langhe"}},{"type":"Feature","id":"wd/Q1283900","geometry":{"type":"Point","coordinates":[22.63506,37.83796]},"properties":{"qid":"Q1283900","name":"Nemea","classes":["wine_region"],"country":"GR"}},{"type":"Feature","id":"wd/Q1226362","geometry":{"type":"Point","coordinates":[17.36981,42.91778]},"properties":{"qid":"Q1226362","name":"Dingač","classes":["wine_region"],"country":"HR","wikipedia":"https://en.wikipedia.org/wiki/Dinga%C4%8D"}},{"type":"Feature","id":"wd/Q323855","geometry":{"type":"Point","coordinates":[8.617,49.717]},"properties":{"qid":"Q323855","name":"Hessische Bergstraße","classes":["wine_region"],"country":"DE","wikipedia":"https://en.wikipedia.org/wiki/Hessische_Bergstra%C3%9Fe"}},{"type":"Feature","id":"wd/Q2887617","geometry":{"type":"Point","coordinates":[-0.88333,41.65]},"properties":{"qid":"Q2887617","name":"Calatayud PDO","classes":["wine_region"],"country":"ES","image":"https://commons.wikimedia.org/wiki/Special:FilePath/Vista%20de%20Belmonte%20de%20Graci%C3%A1n%2C%20Zaragoza%2C%20Espa%C3%B1a%2C%202015-09-16%2C%20JD%2001.JPG","wikipedia":"https://en.wikipedia.org/wiki/Calatayud_(DO)"}},{"type":"Feature","id":"wd/Q24090012","geometry":{"type":"Point","coordinates":[142.0,-37.0]},"properties":{"qid":"Q24090012","name":"Western Victoria","classes":["wine_region"],"country":"AU","parent_qid":"Q17030740","parent_name":"Victorian wine","wikipedia":"https://en.wikipedia.org/wiki/Western_Victoria_(wine_region)"}},{"type":"Feature","id":"wd/Q24521733","geometry":{"type":"Point","coordinates":[148.33333,-34.31667]},"properties":{"qid":"Q24521733","name":"Hilltops wine region","classes":["wine_region"],"country":"AU","parent_qid":"Q17058771","parent_name":"New South Wales wine","wikipedia":"https://en.wikipedia.org/wiki/Hilltops_wine_region"}},{"type":"Feature","id":"wd/Q6759841","geometry":{"type":"Point","coordinates":[115.075,-33.955]},"properties":{"qid":"Q6759841","name":"Margaret River","classes":["wine_region"],"country":"AU","parent_qid":"Q73363456","parent_name":"South West Australia","wikipedia":"https://en.wikipedia.org/wiki/Margaret_River_(wine_region)"}},{"type":"Feature","id":"wd/Q11878504","geometry":{"type":"Point","coordinates":[16.8,48.9]},"properties":{"qid":"Q11878504","name":"Q11878504","classes":["wine_region"],"country":"CZ","image":"https://commons.wikimedia.org/wiki/Special:FilePath/Velk%C3%A9%20B%C3%ADlovice%20-%20vinice%2C%20obr10.jpg"}},{"type":"Feature","id":"wd/Q649738","geometry":{"type":"Point","coordinates":[-7.54422,41.21145]},"properties":{"qid":"Q649738","name":"Alto Douro Wine Region","classes":["wine_region"],"country":"PT","image":"https://commons.wikimedia.org/wiki/Special:FilePath/Douro%20%28do%20Museu%20do%20C%C3%B4a%29%202%20%284928227584%29%20%283%29.jpg","wikipedia":"https://en.wikipedia.org/wiki/Alto_Douro_(region)"}},{"type":"Feature","id":"wd/Q1754563","geometry":{"type":"Point","coordinates":[0.76,41.165]},"properties":{"qid":"Q1754563","name":"Priorat","classes":["wine_region"],"country":"ES","image":"https://commons.wikimedia.org/wiki/Special:FilePath/Cartoixa%20d%27Escaladei%201.jpg","wikipedia":"https://en.wikipedia.org/wiki/Priorat_DOQ"}},{"type":"Feature","id":"wd/Q19870","geometry":{"type":"Point","coordinates":[7.85,44.7]},"properties":{"qid":"Q19870","name":"Roero","classes":["wine_region"],"country":"IT","image":"https://commons.wikimedia.org/wiki/Special:FilePath/Corneliano%20d%27alba1.JPG","wikipedia":"https://en.wikipedia.org/wiki/Roero"}},{"type":"Feature","id":"wd/Q111133928","geometry":{"type":"Point","coordinates":[8.33,49.9]},"properties":{"qid":"Q111133928","name":"Roter Hang (Rhine-Hesse)","classes":["wine_region"],"country":"DE","image":"https://commons.wikimedia.org/wiki/Special:FilePath/Nierstein%20Weinberge%202009-09-06%2010.jpg","parent_qid":"Q567327","parent_name":"Rheinhessen"}},{"type":"Feature","id":"wd/Q19875806","geometry":{"type":"Point","coordinates":[140.9,-37.86667]},"properties":{"qid":"Q19875806","name":"Mount Gambier wine region","classes":["wine_region"],"country":"AU","parent_qid":"Q19875198","parent_name":"Limestone Coast zone","wikipedia":"https://en.wikipedia.org/wiki/Mount_Gambier_wine_region"}},{"type":"Feature","id":"wd/Q28183583","geometry":{"type":"Point","coordinates":[146.6,-36.46]},"properties":{"qid":"Q28183583","name":"North East Victoria","classes":["wine_region"],"country":"AU","parent_qid":"Q17030740","parent_name":"Victorian wine","wikipedia":"https://en.wikipedia.org/wiki/North_East_Victoria"}},{"type":"Feature","id":"wd/Q2509282","geometry":{"type":"Point","coordinates":[-16.52528,28.39194]},"properties":{"qid":"Q2509282","name":"Valle de la Orotava","classes":["wine_region"],"country":"ES","wikipedia":"https://en.wikipedia.org/wiki/Valle_de_la_Orotava"}},{"type":"Feature","id":"wd/Q402640","geometry":{"type":"Point","coordinates":[7.04,50.54]},"properties":{"qid":"Q402640","name":"Ahr","classes":["wine_region"],"country":"DE","wikipedia":"https://en.wikipedia.org/wiki/Ahr_(wine_region)"}},{"type":"Feature","id":"wd/Q1612687","geometry":{"type":"Point","coordinates":[138.6,-33.8833]},"properties":{"qid":"Q1612687","name":"Clare Valley","classes":["wine_region"],"country":"AU","image":"https://commons.wikimedia.org/wiki/Special:FilePath/Vines%20in%20Clare%20Valley.jpg","parent_qid":"Q19573087","parent_name":"Mount Lofty Ranges zone","wikipedia":"https://en.wikipedia.org/wiki/Clare_Valley_wine_region"}},{"type":"Feature","id":"wd/Q24521763","geometry":{"type":"Point","coordinates":[148.0,-35.0]},"properties":{"qid":"Q24521763","name":"Gundagai wine region","classes":["wine_region"],"country":"AU","parent_qid":"Q73300304","parent_name":"Southern New South Wales","wikipedia":"https://en.wikipedia.org/wiki/Gundagai_wine_region"}},{"type":"Feature","id":"wd/Q5031253","geometry":{"type":"Point","coordinates":[149.333,-35.0]},"properties":{"qid":"Q5031253","name":"Canberra District wine region","classes":["wine_region"],"country":"AU","parent_qid":"Q73300304","parent_name":"Southern New South Wales","wikipedia":"https://en.wikipedia.org/wiki/Canberra_District_wine_region"}},{"type":"Feature","id":"wd/Q567327","geometry":{"type":"Point","coordinates":[8.0,49.9]},"properties":{"qid":"Q567327","name":"Rheinhessen","classes":["wine_region"],"country":"DE","wikipedia":"https://en.wikipedia.org/wiki/Rheinhessen_(wine_region)"}},{"type":"Feature","id":"wd/Q24521769","geometry":{"type":"Point","coordinates":[149.1,-33.4]},"properties":{"qid":"Q24521769","name":"Orange wine region","classes":["wine_region"],"country":"AU","parent_qid":"Q25184387","parent_name":"Central Ranges","wikipedia":"https://en.wikipedia.org/wiki/Orange_wine_region"}},{"type":"Feature","id":"wd/Q1151010","geometry":{"type":"Point","coordinates":[2.89556,42.86528]},"properties":{"qid":"Q1151010","name":"Côtes du Roussillon AOC","classes":["wine_region"],"country":"FR","image":"https://commons.wikimedia.org/wiki/Special:FilePath/Lansac2.jpg","wikipedia":"https://en.wikipedia.org/wiki/C%C3%B4tes_du_Roussillon_AOC"}},{"type":"Feature","id":"wd/Q11786209","geometry":{"type":"Point","coordinates":[139.8,-37.0333]},"properties":{"qid":"Q11786209","name":"Mount Benson","classes":["wine_region"],"country":"AU","parent_qid":"Q19875198","parent_name":"Limestone Coast zone","wikipedia":"https://en.wikipedia.org/wiki/Mount_Benson_wine_region"}},{"type":"Feature","id":"wd/Q1043531","geometry":{"type":"Point","coordinates":[-121.73272,36.48542]},"properties":{"qid":"Q1043531","name":"Carmel Valley AVA","classes":["ava"],"country":"US","wikipedia":"https://en.wikipedia.org/wiki/Carmel_Valley_AVA"}},{"type":"Feature","id":"wd/Q107071961","geometry":{"type":"Point","coordinates":[-122.9357,45.38]},"properties":{"qid":"Q107071961","name":"Laurelwood District AVA","classes":["ava"],"country":"US","wikipedia":"https://en.wikipedia.org/wiki/Laurelwood_District_AVA"}},{"type":"Feature","id":"wd/Q1870486","geometry":{"type":"Point","coordinates":[-122.40296,38.25347]},"properties":{"qid":"Q1870486","name":"Los Carneros AVA","classes":["ava"],"country":"US","image":"https://commons.wikimedia.org/wiki/Special:FilePath/View%20of%20Carneros%20Sonoma%20from%20Artesa.jpg","parent_qid":"Q1764996","parent_name":"Sonoma Coast AVA","wikipedia":"https://en.wikipedia.org/wiki/Los_Carneros_AVA"}},{"type":"Feature","id":"wd/Q2219535","geometry":{"type":"Point","coordinates":[-122.31521,37.49052]},"properties":{"qid":"Q2219535","name":"San Francisco Bay AVA","classes":["ava"],"country":"US","wikipedia":"https://en.wikipedia.org/wiki/San_Francisco_Bay_AVA"}},{"type":"Feature","id":"wd/Q139328915","geometry":{"type":"Point","coordinates":[-85.6125,36.18912]},"properties":{"qid":"Q139328915","name":"Nine Lakes of East Tennessee AVA","classes":["ava"],"country":"US","wikipedia":"https://en.wikipedia.org/wiki/Nine_Lakes_of_East_Tennessee_AVA"}},{"type":"Feature","id":"wd/Q2295723","geometry":{"type":"Point","coordinates":[-116.8,43.6]},"properties":{"qid":"Q2295723","name":"Snake River Valley AVA","classes":["ava"],"country":"US","image":"https://commons.wikimedia.org/wiki/Special:FilePath/Snake%20River%20%285mb%29.jpg","wikipedia":"https://en.wikipedia.org/wiki/Snake_River_Valley_AVA"}},{"type":"Feature","id":"wd/Q96385612","geometry":{"type":"Point","coordinates":[-122.8539,38.9813]},"properties":{"qid":"Q96385612","name":"Kelsey Bench-Lake County AVA","classes":["ava"],"country":"US","wikipedia":"https://en.wikipedia.org/wiki/Kelsey_Bench-Lake_County_AVA"}},{"type":"Feature","id":"wd/Q104871823","geometry":{"type":"Point","coordinates":[-85.93869,38.44693]},"properties":{"qid":"Q104871823","name":"Indiana Uplands AVA","classes":["ava"],"country":"US","wikipedia":"https://en.wikipedia.org/wiki/Indiana_Uplands_AVA"}},{"type":"Feature","id":"wd/Q132175239","geometry":{"type":"Point","coordinates":[-120.61558,35.72034]},"properties":{"qid":"Q132175239","name":"Paso Robles Estrella District AVA","classes":["ava"],"country":"US","wikipedia":"https://en.wikipedia.org/wiki/Paso_Robles_Estrella_District_AVA"}},{"type":"Feature","id":"wd/Q131437681","geometry":{"type":"Point","coordinates":[-122.47344,38.55957]},"properties":{"qid":"Q131437681","name":"Crystal Springs of Napa Valley AVA","classes":["ava"],"country":"US","wikipedia":"https://en.wikipedia.org/wiki/Crystal_Springs_of_Napa_Valley_AVA"}},{"type":"Feature","id":"wd/Q107261141","geometry":{"type":"Point","coordinates":[-120.11853,34.62414]},"properties":{"qid":"Q107261141","name":"Ballard Canyon AVA","classes":["ava"],"country":"US","wikipedia":"https://en.wikipedia.org/wiki/Ballard_Canyon_AVA"}},{"type":"Feature","id":"wd/Q893402","geometry":{"type":"Point","coordinates":[-121.1,38.35]},"properties":{"qid":"Q893402","name":"Borden Ranch AVA","classes":["ava"],"country":"US","wikipedia":"https://en.wikipedia.org/wiki/Borden_Ranch_AVA"}},{"type":"Feature","id":"wd/Q7987754","geometry":{"type":"Point","coordinates":[-73.2204,41.7042]},"properties":{"qid":"Q7987754","name":"Western Connecticut Highlands AVA","classes":["ava"],"country":"US","wikipedia":"https://en.wikipedia.org/wiki/Western_Connecticut_Highlands_AVA"}},{"type":"Feature","id":"wd/Q826340","geometry":{"type":"Point","coordinates":[-122.5,38.3667]},"properties":{"qid":"Q826340","name":"Sonoma Valley AVA","classes":["ava"],"country":"US","image":"https://commons.wikimedia.org/wiki/Special:FilePath/Sonoma%20Winery.jpg","parent_qid":"Q2000573","parent_name":"North Coast AVA","wikipedia":"https://en.wikipedia.org/wiki/Sonoma_Valley_AVA"}},{"type":"Feature","id":"wd/Q104872955","geometry":{"type":"Point","coordinates":[-109.4751,31.894]},"properties":{"qid":"Q104872955","name":"Willcox AVA","classes":["ava"],"country":"US","wikipedia":"https://en.wikipedia.org/wiki/Willcox_AVA"}},{"type":"Feature","id":"wd/Q178467","geometry":{"type":"Point","coordinates":[-123.067,45.35]},"properties":{"qid":"Q178467","name":"Ribbon Ridge AVA","classes":["ava"],"country":"US","image":"https://commons.wikimedia.org/wiki/Special:FilePath/Trisaetum%20Winery.jpg","wikipedia":"https://en.wikipedia.org/wiki/Ribbon_Ridge_AVA"}},{"type":"Feature","id":"wd/Q788845","geometry":{"type":"Point","coordinates":[-72.36751,40.90837]},"properties":{"qid":"Q788845","name":"The Hamptons, Long Island AVA","classes":["ava"],"country":"US","wikipedia":"https://en.wikipedia.org/wiki/The_Hamptons,_Long_Island_AVA"}},{"type":"Feature","id":"wd/Q817854","geometry":{"type":"Point","coordinates":[-122.64,38.4]},"properties":{"qid":"Q817854","name":"Bennett Valley AVA","classes":["ava"],"country":"US","parent_qid":"Q2302339","parent_name":"Sonoma Mountain AVA","wikipedia":"https://en.wikipedia.org/wiki/Bennett_Valley_AVA"}},{"type":"Feature","id":"wd/Q765628","geometry":{"type":"Point","coordinates":[-90.8616,38.5944]},"properties":{"qid":"Q765628","name":"Augusta AVA","classes":["ava"],"country":"US","image":"https://commons.wikimedia.org/wiki/Special:FilePath/Augusta%20AVA.JPG","wikipedia":"https://en.wikipedia.org/wiki/Augusta_AVA"}},{"type":"Feature","id":"wd/Q2278039","geometry":{"type":"Point","coordinates":[-78.25,39.0]},"properties":{"qid":"Q2278039","name":"Shenandoah Valley AVA","classes":["ava"],"country":"US","image":"https://commons.wikimedia.org/wiki/Special:FilePath/Shenandoah%20watershed.png","wikipedia":"https://en.wikipedia.org/wiki/Shenandoah_Valley_AVA"}},{"type":"Feature","id":"wd/Q764154","geometry":{"type":"Point","coordinates":[-103.569,30.363]},"properties":{"qid":"Q764154","name":"Texas Davis Mountains AVA","classes":["ava"],"country":"US","wikipedia":"https://en.wikipedia.org/wiki/Texas_Davis_Mountains_AVA"}},{"type":"Feature","id":"wd/Q17108846","geometry":{"type":"Point","coordinates":[-96.1527,33.5544]},"properties":{"qid":"Q17108846","name":"Texoma AVA","classes":["ava"],"country":"US","wikipedia":"https://en.wikipedia.org/wiki/Texoma_AVA"}},{"type":"Feature","id":"wd/Q224762","geometry":{"type":"Point","coordinates":[-122.6153,38.9828]},"properties":{"qid":"Q224762","name":"Clear Lake AVA","classes":["ava"],"country":"US","image":"https://commons.wikimedia.org/wiki/Special:FilePath/Clear%20Lake.jpg","wikipedia":"https://en.wikipedia.org/wiki/Clear_Lake_AVA"}},{"type":"Feature","id":"wd/Q642565","geometry":{"type":"Point","coordinates":[-93.4034,37.3311]},"properties":{"qid":"Q642565","name":"Ozark Mountain AVA","classes":["ava"],"country":"US","wikipedia":"https://en.wikipedia.org/wiki/Ozark_Mountain_AVA"}},{"type":"Feature","id":"wd/Q23018036","geometry":{"type":"Point","coordinates":[-84.02951,35.02313]},"properties":{"qid":"Q23018036","name":"Upper Hiwassee Highlands AVA","classes":["ava"],"country":"US","wikipedia":"https://en.wikipedia.org/wiki/Upper_Hiwassee_Highlands_AVA"}},{"type":"Feature","id":"wd/Q132200537","geometry":{"type":"Point","coordinates":[-120.58605,35.64496]},"properties":{"qid":"Q132200537","name":"Paso Robles Geneseo District AVA","classes":["ava"],"country":"US","wikipedia":"https://en.wikipedia.org/wiki/Paso_Robles_Geneseo_District_AVA"}},{"type":"Feature","id":"wd/Q1764996","geometry":{"type":"Point","coordinates":[-123.0,38.4]},"properties":{"qid":"Q1764996","name":"Sonoma Coast AVA","classes":["ava"],"country":"US","parent_qid":"Q2000573","parent_name":"North Coast AVA","wikipedia":"https://en.wikipedia.org/wiki/Sonoma_Coast_AVA"}},{"type":"Feature","id":"wd/Q30595493","geometry":{"type":"Point","coordinates":[-84.89469,45.36284]},"properties":{"qid":"Q30595493","name":"Tip of the Mitt AVA","classes":["ava"],"country":"US","wikipedia":"https://en.wikipedia.org/wiki/Tip_of_the_Mitt_AVA"}},{"type":"Feature","id":"wd/Q17085576","geometry":{"type":"Point","coordinates":[-122.9609,38.8542]},"properties":{"qid":"Q17085576","name":"Pine Mountain-Cloverdale AVA","classes":["ava"],"country":"US","wikipedia":"https://en.wikipedia.org/wiki/Pine_Mountain-Cloverdale_Peak_AVA"}},{"type":"Feature","id":"wd/Q107299166","geometry":{"type":"Point","coordinates":[-122.4456,38.3325]},"properties":{"qid":"Q107299166","name":"Moon Mountain District Sonoma County","classes":["ava"],"country":"US","image":"https://commons.wikimedia.org/wiki/Special:FilePath/Buberel%20Moon%20Mountain%20vineyards.jpg","wikipedia":"https://en.wikipedia.org/wiki/Moon_Mountain_District_Sonoma_County"}},{"type":"Feature","id":"wd/Q672893","geometry":{"type":"Point","coordinates":[-93.2377,35.4136]},"properties":{"qid":"Q672893","name":"Arkansas Mountain AVA","classes":["ava"],"country":"US","wikipedia":"https://en.wikipedia.org/wiki/Arkansas_Mountain_AVA"}},{"type":"Feature","id":"wd/Q2106600","geometry":{"type":"Point","coordinates":[-123.12854,39.36121]},"properties":{"qid":"Q2106600","name":"Potter Valley AVA","classes":["ava"],"country":"US","wikipedia":"https://en.wikipedia.org/wiki/Potter_Valley_AVA"}},{"type":"Feature","id":"wd/Q266538","geometry":{"type":"Point","coordinates":[-123.41667,42.41667]},"properties":{"qid":"Q266538","name":"Rogue Valley AVA","classes":["ava"],"country":"US","image":"https://commons.wikimedia.org/wiki/Special:FilePath/Southwest%20Oregon%20rivers%20map.jpg","wikipedia":"https://en.wikipedia.org/wiki/Rogue_Valley_AVA"}},{"type":"Feature","id":"wd/Q107203465","geometry":{"type":"Point","coordinates":[-119.10303,36.69277]},"properties":{"qid":"Q107203465","name":"Squaw Valley-Miramonte AVA","classes":["ava"],"country":"US","wikipedia":"https://en.wikipedia.org/wiki/Squaw_Valley-Miramonte_AVA"}},{"type":"Feature","id":"wd/Q131123744","geometry":{"type":"Point","coordinates":[-119.24134,46.39339]},"properties":{"qid":"Q131123744","name":"White Bluffs AVA","classes":["ava"],"country":"US","wikipedia":"https://en.wikipedia.org/wiki/White_Bluffs_AVA"}},{"type":"Feature","id":"wd/Q106959125","geometry":{"type":"Point","coordinates":[-73.2204,41.7042]},"properties":{"qid":"Q106959125","name":"Eastern Connecticut Highlands AVA","classes":["ava"],"country":"US","wikipedia":"https://en.wikipedia.org/wiki/Eastern_Connecticut_Highlands_AVA"}},{"type":"Feature","id":"wd/Q2219868","geometry":{"type":"Point","coordinates":[-116.8509,33.0248]},"properties":{"qid":"Q2219868","name":"San Pasqual Valley AVA","classes":["ava"],"country":"US","wikipedia":"https://en.wikipedia.org/wiki/San_Pasqual_Valley_AVA"}},{"type":"Feature","id":"wd/Q2177011","geometry":{"type":"Point","coordinates":[-122.817,38.4833]},"properties":{"qid":"Q2177011","name":"Russian River Valley AVA","classes":["ava"],"country":"US","image":"https://commons.wikimedia.org/wiki/Special:FilePath/Russian%20River%20Valley%20AVA%202005.jpg","parent_qid":"Q2000573","parent_name":"North Coast AVA","wikipedia":"https://en.wikipedia.org/wiki/Russian_River_Valley_AVA"}},{"type":"Feature","id":"wd/Q1984507","geometry":{"type":"Point","coordinates":[-78.99083,43.17669]},"properties":{"qid":"Q1984507","name":"Niagara Escarpment AVA","classes":["ava"],"country":"US","wikipedia":"https://en.wikipedia.org/wiki/Niagara_Escarpment_AVA"}},{"type":"Feature","id":"wd/Q828795","geometry":{"type":"Point","coordinates":[-123.2239,39.0605]},"properties":{"qid":"Q828795","name":"Cole Ranch AVA","classes":["ava"],"country":"US","wikipedia":"https://en.wikipedia.org/wiki/Cole_Ranch_AVA"}},{"type":"Feature","id":"wd/Q131933420","geometry":{"type":"Point","coordinates":[-120.37742,35.62824]},"properties":{"qid":"Q131933420","name":"San Juan Creek AVA","classes":["ava"],"country":"US","wikipedia":"https://en.wikipedia.org/wiki/San_Juan_Creek_AVA"}},{"type":"Feature","id":"wd/Q2294439","geometry":{"type":"Point","coordinates":[-121.1431,38.4678]},"properties":{"qid":"Q2294439","name":"Sloughhouse AVA","classes":["ava"],"country":"US","wikipedia":"https://en.wikipedia.org/wiki/Sloughhouse_AVA"}},{"type":"Feature","id":"wd/Q925840","geometry":{"type":"Point","coordinates":[-123.293,45.14]},"properties":{"qid":"Q925840","name":"McMinnville AVA","classes":["ava"],"country":"US","wikipedia":"https://en.wikipedia.org/wiki/McMinnville_AVA"}},{"type":"Feature","id":"wd/Q491692","geometry":{"type":"Point","coordinates":[-123.468,39.079]},"properties":{"qid":"Q491692","name":"Anderson Valley AVA","classes":["ava"],"country":"US","image":"https://commons.wikimedia.org/wiki/Special:FilePath/Mendocino%20winery.jpg","wikipedia":"https://en.wikipedia.org/wiki/Anderson_Valley_AVA"}},{"type":"Feature","id":"wd/Q771542","geometry":{"type":"Point","coordinates":[-120.8,38.53]},"properties":{"qid":"Q771542","name":"California Shenandoah Valley AVA","classes":["ava"],"country":"US","image":"https://commons.wikimedia.org/wiki/Special:FilePath/Sobon%20Estates%20in%20Shenandoah%20Valley%20AVA.jpg","wikipedia":"https://en.wikipedia.org/wiki/California_Shenandoah_Valley_AVA"}},{"type":"Feature","id":"wd/Q125986261","geometry":{"type":"Point","coordinates":[-122.9138,39.1562]},"properties":{"qid":"Q125986261","name":"Upper Lake Valley AVA","classes":["ava"],"country":"US","wikipedia":"https://en.wikipedia.org/wiki/Upper_Lake_Valley_AVA"}},{"type":"Feature","id":"wd/Q5396376","geometry":{"type":"Point","coordinates":[-77.5115,42.7905]},"properties":{"qid":"Q5396376","name":"Honeoye","classes":["ava"],"country":"US","wikipedia":"https://en.wikipedia.org/wiki/Honeoye,_New_York"}},{"type":"Feature","id":"wd/Q2302339","geometry":{"type":"Point","coordinates":[-122.556,38.36]},"properties":{"qid":"Q2302339","name":"Sonoma Mountain AVA","classes":["ava"],"country":"US","parent_qid":"Q2000573","parent_name":"North Coast AVA","wikipedia":"https://en.wikipedia.org/wiki/Sonoma_Mountain_AVA"}},{"type":"Feature","id":"wd/Q1110765","geometry":{"type":"Point","coordinates":[-122.57779,38.54476]},"properties":{"qid":"Q1110765","name":"Diamond Mountain District AVA","classes":["ava"],"country":"US","wikipedia":"https://en.wikipedia.org/wiki/Diamond_Mountain_District_AVA"}},{"type":"Feature","id":"wd/Q6360817","geometry":{"type":"Point","coordinates":[-81.83333,38.58333]},"properties":{"qid":"Q6360817","name":"Kanawha River Valley AVA","classes":["ava"],"country":"US","wikipedia":"https://en.wikipedia.org/wiki/Kanawha_River_Valley_AVA"}},{"type":"Feature","id":"wd/Q1136553","geometry":{"type":"Point","coordinates":[-121.37116,38.35321]},"properties":{"qid":"Q1136553","name":"Cosumnes River AVA","classes":["ava"],"country":"US","wikipedia":"https://en.wikipedia.org/wiki/Cosumnes_River_AVA"}},{"type":"Feature","id":"wd/Q1573357","geometry":{"type":"Point","coordinates":[-120.8332,35.8713]},"properties":{"qid":"Q1573357","name":"Hames Valley AVA","classes":["ava"],"country":"US","wikipedia":"https://en.wikipedia.org/wiki/Hames_Valley_AVA"}},{"type":"Feature","id":"wd/Q5021434","geometry":{"type":"Point","coordinates":[-122.55429,38.57053]},"properties":{"qid":"Q5021434","name":"Calistoga AVA","classes":["ava"],"country":"US","wikipedia":"https://en.wikipedia.org/wiki/Calistoga_AVA"}},{"type":"Feature","id":"wd/Q1707546","geometry":{"type":"Point","coordinates":[-122.118,38.281]},"properties":{"qid":"Q1707546","name":"Suisun Valley AVA","classes":["ava"],"country":"US","wikipedia":"https://en.wikipedia.org/wiki/Suisun_Valley_AVA"}},{"type":"Feature","id":"wd/Q7881781","geometry":{"type":"Point","coordinates":[-123.4975,43.27055]},"properties":{"qid":"Q7881781","name":"Umpqua Valley AVA","classes":["ava"],"country":"US","wikipedia":"https://en.wikipedia.org/wiki/Umpqua_Valley_AVA"}},{"type":"Feature","id":"wd/Q2601337","geometry":{"type":"Point","coordinates":[-122.36254,38.40373]},"properties":{"qid":"Q2601337","name":"Yountville AVA","classes":["ava"],"country":"US","wikipedia":"https://en.wikipedia.org/wiki/Yountville_AVA"}},{"type":"Feature","id":"wd/Q1455026","geometry":{"type":"Point","coordinates":[-122.7073,39.048]},"properties":{"qid":"Q1455026","name":"High Valley AVA","classes":["ava"],"country":"US","wikipedia":"https://en.wikipedia.org/wiki/High_Valley_AVA"}},{"type":"Feature","id":"wd/Q5652573","geometry":{"type":"Point","coordinates":[-119.98603,34.62334]},"properties":{"qid":"Q5652573","name":"Happy Canyon of Santa Barbara AVA","classes":["ava"],"country":"US","wikipedia":"https://en.wikipedia.org/wiki/Happy_Canyon_of_Santa_Barbara_AVA"}},{"type":"Feature","id":"wd/Q2313841","geometry":{"type":"Point","coordinates":[-122.49239,38.5079]},"properties":{"qid":"Q2313841","name":"Spring Mountain District AVA","classes":["ava"],"country":"US","image":"https://commons.wikimedia.org/wiki/Special:FilePath/AbovetheNapaValley.jpg","wikipedia":"https://en.wikipedia.org/wiki/Spring_Mountain_District_AVA"}},{"type":"Feature","id":"wd/Q1261546","geometry":{"type":"Point","coordinates":[-122.967,38.7]},"properties":{"qid":"Q1261546","name":"Dry Creek Valley AVA","classes":["ava"],"country":"US","image":"https://commons.wikimedia.org/wiki/Special:FilePath/Dry%20Creek%20Valley%202005.jpg","parent_qid":"Q2000573","parent_name":"North Coast AVA","wikipedia":"https://en.wikipedia.org/wiki/Dry_Creek_Valley_AVA"}},{"type":"Feature","id":"wd/Q1233697","geometry":{"type":"Point","coordinates":[-121.2215,38.2272]},"properties":{"qid":"Q1233697","name":"Jahant AVA","classes":["ava"],"country":"US","wikipedia":"https://en.wikipedia.org/wiki/Jahant_AVA"}},{"type":"Feature","id":"wd/Q48739548","geometry":{"type":"Point","coordinates":[-73.96756,42.7406]},"properties":{"qid":"Q48739548","name":"Upper Hudson AVA","classes":["ava"],"country":"US","wikipedia":"https://en.wikipedia.org/wiki/Upper_Hudson_AVA"}},{"type":"Feature","id":"wd/Q751581","geometry":{"type":"Point","coordinates":[-76.6333,37.9666]},"properties":{"qid":"Q751581","name":"Northern Neck George Washington Birthplace AVA","classes":["ava"],"country":"US","image":"https://commons.wikimedia.org/wiki/Special:FilePath/20110504-RD-LSC-0451%20-%20Flickr%20-%20USDAgov.jpg","wikipedia":"https://en.wikipedia.org/wiki/Northern_Neck_George_Washington_Birthplace_AVA"}},{"type":"Feature","id":"wd/Q433582","geometry":{"type":"Point","coordinates":[-121.29775,38.44985]},"properties":{"qid":"Q433582","name":"Alta Mesa AVA","classes":["ava"],"country":"US","wikipedia":"https://en.wikipedia.org/wiki/Alta_Mesa_AVA"}},{"type":"Feature","id":"wd/Q2041950","geometry":{"type":"Point","coordinates":[-74.791,39.471]},"properties":{"qid":"Q2041950","name":"Outer Coastal Plain AVA","classes":["ava"],"country":"US","wikipedia":"https://en.wikipedia.org/wiki/Outer_Coastal_Plain_AVA"}},{"type":"Feature","id":"wd/Q8027221","geometry":{"type":"Point","coordinates":[-87.56683,44.5814]},"properties":{"qid":"Q8027221","name":"Wisconsin Ledge AVA","classes":["ava"],"country":"US","wikipedia":"https://en.wikipedia.org/wiki/Wisconsin_Ledge_AVA"}},{"type":"Feature","id":"wd/Q107313688","geometry":{"type":"Point","coordinates":[-120.21081,34.75219]},"properties":{"qid":"Q107313688","name":"Alisos Canyon AVA","classes":["ava"],"country":"US","wikipedia":"https://en.wikipedia.org/wiki/Alisos_Canyon_AVA"}},{"type":"Feature","id":"wd/Q621543","geometry":{"type":"Point","coordinates":[-123.04739,42.22535]},"properties":{"qid":"Q621543","name":"Applegate Valley AVA","classes":["ava"],"country":"US","wikipedia":"https://en.wikipedia.org/wiki/Applegate_Valley_AVA"}},{"type":"Feature","id":"wd/Q1813109","geometry":{"type":"Point","coordinates":[-74.87517,39.11151]},"properties":{"qid":"Q1813109","name":"Lehigh Valley AVA","classes":["ava"],"country":"US","wikipedia":"https://en.wikipedia.org/wiki/Lehigh_Valley_AVA"}},{"type":"Feature","id":"wd/Q106946507","geometry":{"type":"Point","coordinates":[-115.562,46.6776]},"properties":{"qid":"Q106946507","name":"Lewis-Clark Valley AVA","classes":["ava"],"country":"US","wikipedia":"https://en.wikipedia.org/wiki/Lewis-Clark_Valley_AVA"}},{"type":"Feature","id":"wd/Q139328870","geometry":{"type":"Point","coordinates":[-71.61625,42.43113]},"properties":{"qid":"Q139328870","name":"Nashoba Valley AVA","classes":["ava"],"country":"US","wikipedia":"https://en.wikipedia.org/wiki/Nashoba_Valley_AVA"}},{"type":"Feature","id":"wd/Q107133177","geometry":{"type":"Point","coordinates":[-122.11802,37.88576]},"properties":{"qid":"Q107133177","name":"Lamorinda AVA","classes":["ava"],"country":"US","wikipedia":"https://en.wikipedia.org/wiki/Lamorinda_AVA"}},{"type":"Feature","id":"wd/Q2222992","geometry":{"type":"Point","coordinates":[-121.42024,36.43359]},"properties":{"qid":"Q2222992","name":"Santa Lucia Highlands AVA","classes":["ava"],"country":"US","wikipedia":"https://en.wikipedia.org/wiki/Santa_Lucia_Highlands_AVA"}},{"type":"Feature","id":"wd/Q1903116","geometry":{"type":"Point","coordinates":[-70.61667,41.4]},"properties":{"qid":"Q1903116","name":"Martha's Vineyard AVA","classes":["ava"],"country":"US","image":"https://commons.wikimedia.org/wiki/Special:FilePath/Martha%27s%20Vineyard%20map.png","wikipedia":"https://en.wikipedia.org/wiki/Martha%27s_Vineyard_AVA"}},{"type":"Feature","id":"wd/Q107261149","geometry":{"type":"Point","coordinates":[-120.08369,34.62947]},"properties":{"qid":"Q107261149","name":"Los Olivos District AVA","classes":["ava"],"country":"US","wikipedia":"https://en.wikipedia.org/wiki/Los_Olivos_District_AVA"}},{"type":"Feature","id":"wd/Q131824397","geometry":{"type":"Point","coordinates":[-123.29239,44.8746]},"properties":{"qid":"Q131824397","name":"Mount Pisgah, Polk County, Oregon AVA","classes":["ava"],"country":"US","wikipedia":"https://en.wikipedia.org/wiki/Mount_Pisgah,_Polk_County,_Oregon_AVA"}},{"type":"Feature","id":"wd/Q954423","geometry":{"type":"Point","coordinates":[-85.79,44.89]},"properties":{"qid":"Q954423","name":"Leelanau Peninsula AVA","classes":["ava"],"country":"US","image":"https://commons.wikimedia.org/wiki/Special:FilePath/Michigan%20Chardonnay%20vineyard.jpg","wikipedia":"https://en.wikipedia.org/wiki/Leelanau_Peninsula_AVA"}},{"type":"Feature","id":"wd/Q65084213","geometry":{"type":"Point","coordinates":[-74.8,39.1417]},"properties":{"qid":"Q65084213","name":"Cape May Peninsula AVA","classes":["ava"],"country":"US","wikipedia":"https://en.wikipedia.org/wiki/Cape_May_Peninsula_AVA"}},{"type":"Feature","id":"wd/Q2046371","geometry":{"type":"Point","coordinates":[-121.2708,36.7238]},"properties":{"qid":"Q2046371","name":"Paicines AVA","classes":["ava"],"country":"US","wikipedia":"https://en.wikipedia.org/wiki/Paicines_AVA"}},{"type":"Feature","id":"wd/Q2219237","geometry":{"type":"Point","coordinates":[-121.1387,35.9304]},"properties":{"qid":"Q2219237","name":"San Antonio Valley AVA","classes":["ava"],"country":"US","wikipedia":"https://en.wikipedia.org/wiki/San_Antonio_Valley_AVA"}},{"type":"Feature","id":"wd/Q2302334","geometry":{"type":"Point","coordinates":[-110.755,31.5412]},"properties":{"qid":"Q2302334","name":"Sonoita AVA","classes":["ava"],"country":"US","wikipedia":"https://en.wikipedia.org/wiki/Sonoita_AVA"}},{"type":"Feature","id":"wd/Q2219290","geometry":{"type":"Point","coordinates":[-121.0978,36.1502]},"properties":{"qid":"Q2219290","name":"San Bernabe AVA","classes":["ava"],"country":"US","wikipedia":"https://en.wikipedia.org/wiki/San_Bernabe_AVA"}},{"type":"Feature","id":"wd/Q23018002","geometry":{"type":"Point","coordinates":[-119.9513,47.2306]},"properties":{"qid":"Q23018002","name":"Ancient Lakes of the Columbia Valley AVA","classes":["ava"],"country":"US","wikipedia":"https://en.wikipedia.org/wiki/Ancient_Lakes_of_Columbia_Valley"}},{"type":"Feature","id":"wd/Q1801007","geometry":{"type":"Point","coordinates":[-86.1,42.2]},"properties":{"qid":"Q1801007","name":"Lake Michigan Shore AVA","classes":["ava"],"country":"US","wikipedia":"https://en.wikipedia.org/wiki/Lake_Michigan_Shore_AVA"}},{"type":"Feature","id":"wd/Q1922041","geometry":{"type":"Point","coordinates":[-121.53611,38.36889]},"properties":{"qid":"Q1922041","name":"Merritt Island AVA","classes":["ava"],"country":"US","wikipedia":"https://en.wikipedia.org/wiki/Merritt_Island_(California)"}},{"type":"Feature","id":"wd/Q19867019","geometry":{"type":"Point","coordinates":[-120.4474,35.513]},"properties":{"qid":"Q19867019","name":"Creston District AVA","classes":["ava"],"country":"US","wikipedia":"https://en.wikipedia.org/wiki/Creston_District_AVA"}},{"type":"Feature","id":"wd/Q2220146","geometry":{"type":"Point","coordinates":[-121.49842,37.02795]},"properties":{"qid":"Q2220146","name":"San Ysidro District AVA","classes":["ava"],"country":"US","wikipedia":"https://en.wikipedia.org/wiki/San_Ysidro_District_AVA"}},{"type":"Feature","id":"wd/Q1867760","geometry":{"type":"Point","coordinates":[-121.02679,38.01561]},"properties":{"qid":"Q1867760","name":"Lodi AVA","classes":["ava"],"country":"US","wikipedia":"https://en.wikipedia.org/wiki/Lodi_AVA"}},{"type":"Feature","id":"wd/Q138556","geometry":{"type":"Point","coordinates":[-89.61667,43.31667]},"properties":{"qid":"Q138556","name":"Lake Wisconsin AVA","classes":["ava"],"country":"US","image":"https://commons.wikimedia.org/wiki/Special:FilePath/Wisconsin%20ref%202001.jpg","wikipedia":"https://en.wikipedia.org/wiki/Lake_Wisconsin_AVA"}},{"type":"Feature","id":"wd/Q132398237","geometry":{"type":"Point","coordinates":[-120.59761,35.55125]},"properties":{"qid":"Q132398237","name":"El Pomar District AVA","classes":["ava"],"wikipedia":"https://en.wikipedia.org/wiki/El_Pomar_District_AVA"}},{"type":"Feature","id":"wd/Q130478551","geometry":{"type":"Point","coordinates":[-81.84054,36.19038]},"properties":{"qid":"Q130478551","name":"Appalachian High Country AVA","classes":["ava"],"country":"US","wikipedia":"https://en.wikipedia.org/wiki/Appalachian_High_Country_AVA"}},{"type":"Feature","id":"wd/Q1920369","geometry":{"type":"Point","coordinates":[-123.48746,39.11347]},"properties":{"qid":"Q1920369","name":"Mendocino Ridge AVA","classes":["ava"],"country":"US","wikipedia":"https://en.wikipedia.org/wiki/Mendocino_Ridge_AVA"}},{"type":"Feature","id":"wd/Q29641548","geometry":{"type":"Point","coordinates":[-118.76608,34.06481]},"properties":{"qid":"Q29641548","name":"Malibu Coast AVA","classes":["ava"],"country":"US","wikipedia":"https://en.wikipedia.org/wiki/Malibu_Coast_AVA"}},{"type":"Feature","id":"wd/Q28232791","geometry":{"type":"Point","coordinates":[-123.0438,45.2586]},"properties":{"qid":"Q28232791","name":"Elkton Oregon American Viticultural Area","classes":["ava"],"country":"US","wikipedia":"https://en.wikipedia.org/wiki/Elkton_Oregon_AVA"}},{"type":"Feature","id":"wd/Q18350205","geometry":{"type":"Point","coordinates":[-120.8029,35.6437]},"properties":{"qid":"Q18350205","name":"Adelaida District AVA","classes":["ava"],"country":"US","wikipedia":"https://en.wikipedia.org/wiki/Adelaida_District_AVA"}},{"type":"Feature","id":"wd/Q477264","geometry":{"type":"Point","coordinates":[-80.4333,42.0]},"properties":{"qid":"Q477264","name":"Lake Erie AVA","classes":["ava"],"country":"US","wikipedia":"https://en.wikipedia.org/wiki/Lake_Erie_AVA"}},{"type":"Feature","id":"wd/Q1887322","geometry":{"type":"Point","coordinates":[-118.7965,34.0345]},"properties":{"qid":"Q1887322","name":"Malibu-Newton Canyon AVA","classes":["ava"],"country":"US","wikipedia":"https://en.wikipedia.org/wiki/Malibu-Newton_Canyon_AVA"}},{"type":"Feature","id":"wd/Q132572901","geometry":{"type":"Point","coordinates":[-120.64323,35.55504]},"properties":{"qid":"Q132572901","name":"Templeton Gap District AVA","classes":["ava"],"wikipedia":"https://en.wikipedia.org/wiki/Templeton_Gap_District_AVA"}},{"type":"Feature","id":"wd/Q757192","geometry":{"type":"Point","coordinates":[-122.27,38.44]},"properties":{"qid":"Q757192","name":"Atlas Peak AVA","classes":["ava"],"country":"US","image":"https://commons.wikimedia.org/wiki/Special:FilePath/Atlas%20Peak%20vineyards%20Napa%20Valley.jpg","wikipedia":"https://en.wikipedia.org/wiki/Atlas_Peak_AVA"}},{"type":"Feature","id":"wd/Q107451820","geometry":{"type":"Point","coordinates":[-116.4079,43.832]},"properties":{"qid":"Q107451820","name":"Eagle Foothills AVA","classes":["ava"],"country":"US","wikipedia":"https://en.wikipedia.org/wiki/Eagle_Foothills_AVA"}},{"type":"Feature","id":"wd/Q2160809","geometry":{"type":"Point","coordinates":[-80.375,36.798]},"properties":{"qid":"Q2160809","name":"Rocky Knob AVA","classes":["ava"],"country":"US","wikipedia":"https://en.wikipedia.org/wiki/Rocky_Knob_AVA"}},{"type":"Feature","id":"wd/Q1801780","geometry":{"type":"Point","coordinates":[-76.43527,40.18076]},"properties":{"qid":"Q1801780","name":"Lancaster Valley AVA","classes":["ava"],"country":"US","wikipedia":"https://en.wikipedia.org/wiki/Lancaster_Valley_AVA"}},{"type":"Feature","id":"wd/Q2000670","geometry":{"type":"Point","coordinates":[-72.61667,40.96667]},"properties":{"qid":"Q2000670","name":"North Fork of Long Island AVA","classes":["ava"],"country":"US","image":"https://commons.wikimedia.org/wiki/Special:FilePath/LongIslandWinery.jpg","wikipedia":"https://en.wikipedia.org/wiki/North_Fork_of_Long_Island_AVA"}},{"type":"Feature","id":"wd/Q133091074","geometry":{"type":"Point","coordinates":[-120.64741,35.37481]},"properties":{"qid":"Q133091074","name":"Santa Margarita Ranch AVA","classes":["ava"],"country":"US","wikipedia":"https://en.wikipedia.org/wiki/Santa_Margarita_Ranch_AVA"}},{"type":"Feature","id":"wd/Q602661","geometry":{"type":"Point","coordinates":[-107.60533,38.86621]},"properties":{"qid":"Q602661","name":"West Elks AVA","classes":["ava"],"country":"US","wikipedia":"https://en.wikipedia.org/wiki/West_Elks_AVA"}},{"type":"Feature","id":"wd/Q817804","geometry":{"type":"Point","coordinates":[-122.989,38.9982]},"properties":{"qid":"Q817804","name":"Benmore Valley AVA","classes":["ava"],"country":"US","wikipedia":"https://en.wikipedia.org/wiki/Benmore_Valley_AVA"}},{"type":"Feature","id":"wd/Q1051244","geometry":{"type":"Point","coordinates":[-77.4667,39.65]},"properties":{"qid":"Q1051244","name":"Catoctin AVA","classes":["ava"],"country":"US","image":"https://commons.wikimedia.org/wiki/Special:FilePath/Catoctin%20AVA.jpg","wikipedia":"https://en.wikipedia.org/wiki/Catoctin_AVA"}},{"type":"Feature","id":"wd/Q107223280","geometry":{"type":"Point","coordinates":[-122.6825,38.2225]},"properties":{"qid":"Q107223280","name":"Petaluma Gap AVA","classes":["ava"],"country":"US","wikipedia":"https://en.wikipedia.org/wiki/Petaluma_Gap_AVA"}},{"type":"Feature","id":"wd/Q703208","geometry":{"type":"Point","coordinates":[-120.58333,35.11667]},"properties":{"qid":"Q703208","name":"Arroyo Grande Valley AVA","classes":["ava"],"country":"US","wikipedia":"https://en.wikipedia.org/wiki/Arroyo_Grande_Valley_AVA"}},{"type":"Feature","id":"wd/Q1052050","geometry":{"type":"Point","coordinates":[-76.65116,42.57419]},"properties":{"qid":"Q1052050","name":"Cayuga Lake AVA","classes":["ava"],"country":"US","image":"https://commons.wikimedia.org/wiki/Special:FilePath/Lake%20Cayuga.jpg","wikipedia":"https://en.wikipedia.org/wiki/Cayuga_Lake_AVA"}},{"type":"Feature","id":"wd/Q2155493","geometry":{"type":"Point","coordinates":[-121.238,37.663]},"properties":{"qid":"Q2155493","name":"River Junction AVA","classes":["ava"],"country":"US","wikipedia":"https://en.wikipedia.org/wiki/River_Junction_AVA"}},{"type":"Feature","id":"wd/Q816548","geometry":{"type":"Point","coordinates":[-122.14449,37.04532]},"properties":{"qid":"Q816548","name":"Ben Lomond Mountain AVA","classes":["ava"],"country":"US","wikipedia":"https://en.wikipedia.org/wiki/Ben_Lomond_Mountain_AVA"}},{"type":"Feature","id":"wd/Q263615","geometry":{"type":"Point","coordinates":[-121.34127,36.34154]},"properties":{"qid":"Q263615","name":"Arroyo Seco AVA","classes":["ava"],"country":"US","image":"https://commons.wikimedia.org/wiki/Special:FilePath/Arroyo%20Seco%20Chard.jpg","wikipedia":"https://en.wikipedia.org/wiki/Arroyo_Seco_AVA"}},{"type":"Feature","id":"wd/Q736525","geometry":{"type":"Point","coordinates":[-73.32649,40.9296]},"properties":{"qid":"Q736525","name":"Long Island AVA","classes":["ava"],"country":"US","wikipedia":"https://en.wikipedia.org/wiki/Long_Island_AVA"}},{"type":"Feature","id":"wd/Q2045379","geometry":{"type":"Point","coordinates":[-121.35998,37.00854]},"properties":{"qid":"Q2045379","name":"Pacheco Pass AVA","classes":["ava"],"country":"US","wikipedia":"https://en.wikipedia.org/wiki/Pacheco_Pass_AVA"}},{"type":"Feature","id":"wd/Q19461467","geometry":{"type":"Point","coordinates":[-123.2567,39.2758]},"properties":{"qid":"Q19461467","name":"Eagle Peak Mendocino County AVA","classes":["ava"],"country":"US","wikipedia":"https://en.wikipedia.org/wiki/Eagle_Peak_Mendocino_County_AVA"}},{"type":"Feature","id":"wd/Q815710","geometry":{"type":"Point","coordinates":[-98.9245,30.315]},"properties":{"qid":"Q815710","name":"Bell Mountain AVA","classes":["ava"],"country":"US","wikipedia":"https://en.wikipedia.org/wiki/Bell_Mountain_AVA"}},{"type":"Feature","id":"wd/Q60774354","geometry":{"type":"Point","coordinates":[-123.2787,44.9856]},"properties":{"qid":"Q60774354","name":"Van Duzer Corridor AVA","classes":["ava"],"country":"US","wikipedia":"https://en.wikipedia.org/wiki/Van_Duzer_Corridor_AVA"}},{"type":"Feature","id":"wd/Q371146","geometry":{"type":"Point","coordinates":[-121.242,39.329]},"properties":{"qid":"Q371146","name":"North Yuba AVA","classes":["ava"],"country":"US","wikipedia":"https://en.wikipedia.org/wiki/North_Yuba_AVA"}},{"type":"Feature","id":"wd/Q2135997","geometry":{"type":"Point","coordinates":[-122.7559,38.9173]},"properties":{"qid":"Q2135997","name":"Red Hills Lake County AVA","classes":["ava"],"country":"US","image":"https://commons.wikimedia.org/wiki/Special:FilePath/Beringerredhillslakecounty.png","wikipedia":"https://en.wikipedia.org/wiki/Red_Hills_Lake_County_AVA"}},{"type":"Feature","id":"wd/Q2222839","geometry":{"type":"Point","coordinates":[-121.68011,37.11332]},"properties":{"qid":"Q2222839","name":"Santa Clara Valley AVA","classes":["ava"],"country":"US","wikipedia":"https://en.wikipedia.org/wiki/Santa_Clara_Valley_AVA"}},{"type":"Feature","id":"wd/Q107057632","geometry":{"type":"Point","coordinates":[-95.5854,41.4627]},"properties":{"qid":"Q107057632","name":"Loess Hills District AVA","classes":["ava"],"country":"US","wikipedia":"https://en.wikipedia.org/wiki/Loess_Hills_District_AVA"}},{"type":"Feature","id":"wd/Q634633","geometry":{"type":"Point","coordinates":[-99.06528,30.17417]},"properties":{"qid":"Q634633","name":"Texas Hill Country AVA","classes":["ava"],"country":"US","wikipedia":"https://en.wikipedia.org/wiki/Texas_Hill_Country_AVA"}},{"type":"Feature","id":"wd/Q1946108","geometry":{"type":"Point","coordinates":[-121.28306,36.32712]},"properties":{"qid":"Q1946108","name":"Monterey AVA","classes":["ava"],"country":"US","wikipedia":"https://en.wikipedia.org/wiki/Monterey_AVA"}},{"type":"Feature","id":"wd/Q133816353","geometry":{"type":"Point","coordinates":[-123.19451,38.51151]},"properties":{"qid":"Q133816353","name":"Fort Ross-Seaview AVA","classes":["ava"],"country":"US","wikipedia":"https://en.wikipedia.org/wiki/Fort_Ross-Seaview_AVA"}},{"type":"Feature","id":"wd/Q1034211","geometry":{"type":"Point","coordinates":[-122.2119,38.8157]},"properties":{"qid":"Q1034211","name":"Capay Valley AVA","classes":["ava"],"country":"US","wikipedia":"https://en.wikipedia.org/wiki/Capay_Valley_AVA"}},{"type":"Feature","id":"wd/Q2160744","geometry":{"type":"Point","coordinates":[-123.229,38.7903]},"properties":{"qid":"Q2160744","name":"Rockpile AVA","classes":["ava"],"country":"US","wikipedia":"https://en.wikipedia.org/wiki/Rockpile_AVA"}},{"type":"Feature","id":"wd/Q919057","geometry":{"type":"Point","coordinates":[-123.067,45.35]},"properties":{"qid":"Q919057","name":"Willamette Valley AVA","classes":["ava"],"country":"US","wikipedia":"https://en.wikipedia.org/wiki/Willamette_Valley_AVA"}},{"type":"Feature","id":"wd/Q14706065","geometry":{"type":"Point","coordinates":[-106.62837,35.22946]},"properties":{"qid":"Q14706065","name":"Middle Rio Grande Valley AVA","classes":["ava"],"country":"US","wikipedia":"https://en.wikipedia.org/wiki/Middle_Rio_Grande_Valley_AVA"}},{"type":"Feature","id":"wd/Q18168395","geometry":{"type":"Point","coordinates":[-118.408,45.9583]},"properties":{"qid":"Q18168395","name":"The Rocks AVA","classes":["ava"],"country":"US","wikipedia":"https://en.wikipedia.org/wiki/The_Rocks_District_of_Milton-Freewater_AVA"}},{"type":"Feature","id":"wd/Q132797959","geometry":{"type":"Point","coordinates":[-120.62495,35.73442]},"properties":{"qid":"Q132797959","name":"San Miguel District AVA","classes":["ava"],"country":"US","wikipedia":"https://en.wikipedia.org/wiki/San_Miguel_District_AVA"}},{"type":"Feature","id":"wd/Q735126","geometry":{"type":"Point","coordinates":[-123.2328,39.8014]},"properties":{"qid":"Q735126","name":"Covelo AVA","classes":["ava"],"country":"US","wikipedia":"https://en.wikipedia.org/wiki/Covelo_AVA"}},{"type":"Feature","id":"wd/Q2000573","geometry":{"type":"Point","coordinates":[-122.9,38.75]},"properties":{"qid":"Q2000573","name":"North Coast AVA","classes":["ava"],"country":"US","image":"https://commons.wikimedia.org/wiki/Special:FilePath/Armida%20Winery%20vineyards%200001.jpg","wikipedia":"https://en.wikipedia.org/wiki/North_Coast_AVA"}},{"type":"Feature","id":"wd/Q183511","geometry":{"type":"Point","coordinates":[-122.38126,38.35117]},"properties":{"qid":"Q183511","name":"Mount Veeder AVA","classes":["ava"],"country":"US","wikipedia":"https://en.wikipedia.org/wiki/Mount_Veeder_AVA"}},{"type":"Feature","id":"wd/Q251411","geometry":{"type":"Point","coordinates":[-123.0438,45.2586]},"properties":{"qid":"Q251411","name":"Dundee Hills AVA","classes":["ava"],"country":"US","wikipedia":"https://en.wikipedia.org/wiki/Dundee_Hills_AVA"}},{"type":"Feature","id":"wd/Q2223286","geometry":{"type":"Point","coordinates":[-120.10352,34.58867]},"properties":{"qid":"Q2223286","name":"Santa Ynez Valley AVA","classes":["ava"],"country":"US","image":"https://commons.wikimedia.org/wiki/Special:FilePath/Santa%20Ynez%20Valley.JPG","wikipedia":"https://en.wikipedia.org/wiki/Santa_Ynez_Valley_AVA"}},{"type":"Feature","id":"wd/Q131995697","geometry":{"type":"Point","coordinates":[-120.24491,35.5047]},"properties":{"qid":"Q131995697","name":"Paso Robles Highlands District AVA","classes":["ava"],"country":"US","wikipedia":"https://en.wikipedia.org/wiki/Paso_Robles_Highlands_District_AVA"}},{"type":"Feature","id":"wd/Q2043033","geometry":{"type":"Point","coordinates":[-91.8125,38.0024]},"properties":{"qid":"Q2043033","name":"Ozark Highlands AVA","classes":["ava"],"country":"US","wikipedia":"https://en.wikipedia.org/wiki/Ozark_Highlands_AVA"}},{"type":"Feature","id":"wd/Q113309","geometry":{"type":"Point","coordinates":[-98.87194,30.27417]},"properties":{"qid":"Q113309","name":"Fredericksburg in the Texas Hill Country AVA","classes":["ava"],"country":"US","wikipedia":"https://en.wikipedia.org/wiki/Fredericksburg_in_the_Texas_Hill_Country_AVA"}},{"type":"Feature","id":"wd/Q1866441","geometry":{"type":"Point","coordinates":[-121.76,37.65]},"properties":{"qid":"Q1866441","name":"Livermore Valley AVA","classes":["ava"],"country":"US","image":"https://commons.wikimedia.org/wiki/Special:FilePath/LIvermoreSceney.jpg","wikipedia":"https://en.wikipedia.org/wiki/Livermore_Valley_AVA"}},{"type":"Feature","id":"wd/Q1765190","geometry":{"type":"Point","coordinates":[-122.50899,38.51489]},"properties":{"qid":"Q1765190","name":"St. Helena AVA","classes":["ava"],"country":"US","wikipedia":"https://en.wikipedia.org/wiki/St._Helena_AVA"}},{"type":"Feature","id":"wd/Q133828726","geometry":{"type":"Point","coordinates":[-122.72371,38.49505]},"properties":{"qid":"Q133828726","name":"Fountaingrove District AVA","classes":["ava"],"country":"US","wikipedia":"https://en.wikipedia.org/wiki/Fountaingrove_District_AVA"}},{"type":"Feature","id":"wd/Q446275","geometry":{"type":"Point","coordinates":[-93.7404,35.4391]},"properties":{"qid":"Q446275","name":"Altus AVA","classes":["ava"],"country":"US","wikipedia":"https://en.wikipedia.org/wiki/Altus_AVA"}},{"type":"Feature","id":"wd/Q133093969","geometry":{"type":"Point","coordinates":[-120.83097,35.59704]},"properties":{"qid":"Q133093969","name":"Paso Robles Willow Creek District AVA","classes":["ava"],"country":"US","wikipedia":"https://en.wikipedia.org/wiki/Paso_Robles_Willow_Creek_District_AVA"}},{"type":"Feature","id":"wd/Q1946331","geometry":{"type":"Point","coordinates":[-78.4167,38.0]},"properties":{"qid":"Q1946331","name":"Monticello AVA","classes":["ava"],"country":"US","wikipedia":"https://en.wikipedia.org/wiki/Monticello_AVA"}},{"type":"Feature","id":"wd/Q2298239","geometry":{"type":"Point","coordinates":[-122.163,38.243]},"properties":{"qid":"Q2298239","name":"Solano County Green Valley AVA","classes":["ava"],"country":"US","wikipedia":"https://en.wikipedia.org/wiki/Solano_County_Green_Valley_AVA"}},{"type":"Feature","id":"wd/Q96373547","geometry":{"type":"Point","coordinates":[-122.8756,39.0032]},"properties":{"qid":"Q96373547","name":"Big Valley District-Lake County AVA","classes":["ava"],"country":"US","wikipedia":"https://en.wikipedia.org/wiki/Big_Valley_District-Lake_County_AVA"}},{"type":"Feature","id":"wd/Q1915122","geometry":{"type":"Point","coordinates":[-123.0554,38.9703]},"properties":{"qid":"Q1915122","name":"McDowell Valley AVA","classes":["ava"],"country":"US","wikipedia":"https://en.wikipedia.org/wiki/McDowell_Valley_AVA"}},{"type":"Feature","id":"wd/Q107104695","geometry":{"type":"Point","coordinates":[-123.1574,45.5476]},"properties":{"qid":"Q107104695","name":"Tualatin Hills AVA","classes":["ava"],"country":"US","wikipedia":"https://en.wikipedia.org/wiki/Tualatin_Hills_AVA"}},{"type":"Feature","id":"wd/Q2222903","geometry":{"type":"Point","coordinates":[-122.07693,37.05133]},"properties":{"qid":"Q2222903","name":"Santa Cruz Mountains AVA","classes":["ava"],"country":"US","wikipedia":"https://en.wikipedia.org/wiki/Santa_Cruz_Mountains_AVA"}},{"type":"Feature","id":"wd/Q14712839","geometry":{"type":"Point","coordinates":[-77.7333,38.9667]},"properties":{"qid":"Q14712839","name":"Middleburg AVA","classes":["ava"],"country":"US","wikipedia":"https://en.wikipedia.org/wiki/Middleburg_Virginia_AVA"}},{"type":"Feature","id":"wd/Q768554","geometry":{"type":"Point","coordinates":[-121.26,38.1118]},"properties":{"qid":"Q768554","name":"Mokelumne River AVA","classes":["ava"],"country":"US","image":"https://commons.wikimedia.org/wiki/Special:FilePath/Mokelumne%20River.jpg","wikipedia":"https://en.wikipedia.org/wiki/Mokelumne_River_AVA"}},{"type":"Feature","id":"wd/Q7962694","geometry":{"type":"Point","coordinates":[-118.0,46.0]},"properties":{"qid":"Q7962694","name":"Walla Walla Valley AVA","classes":["ava"],"country":"US","wikipedia":"https://en.wikipedia.org/wiki/Walla_Walla_Valley_AVA"}},{"type":"Feature","id":"wd/Q1572683","geometry":{"type":"Point","coordinates":[-119.454,46.2761]},"properties":{"qid":"Q1572683","name":"Red Mountain AVA","classes":["ava"],"country":"US","image":"https://commons.wikimedia.org/wiki/Special:FilePath/Red%20Mountains%20right%20Rattlesnake%20Left.JPG","wikipedia":"https://en.wikipedia.org/wiki/Red_Mountain_AVA"}},{"type":"Feature","id":"wd/Q6879615","geometry":{"type":"Point","coordinates":[-91.0,38.6]},"properties":{"qid":"Q6879615","name":"Missouri Rhineland","classes":["ava"],"country":"US","wikipedia":"https://en.wikipedia.org/wiki/Missouri_Rhineland"}},{"type":"Feature","id":"wd/Q6525017","geometry":{"type":"Point","coordinates":[-120.8766,35.6311]},"properties":{"qid":"Q6525017","name":"Leona Valley AVA","classes":["ava"],"country":"US","wikipedia":"https://en.wikipedia.org/wiki/Leona_Valley_AVA"}},{"type":"Feature","id":"wd/Q6553771","geometry":{"type":"Point","coordinates":[-77.2667,39.4333]},"properties":{"qid":"Q6553771","name":"Linganore AVA","classes":["ava"],"country":"US","wikipedia":"https://en.wikipedia.org/wiki/Linganore_AVA"}},{"type":"Feature","id":"wd/Q1112474","geometry":{"type":"Point","coordinates":[-121.496,45.718]},"properties":{"qid":"Q1112474","name":"Columbia Gorge AVA","classes":["ava"],"country":"US","image":"https://commons.wikimedia.org/wiki/Special:FilePath/Columbia%20River%20Gorge%202.jpg","wikipedia":"https://en.wikipedia.org/wiki/Columbia_Gorge_AVA"}},{"type":"Feature","id":"wd/Q5167628","geometry":{"type":"Point","coordinates":[-122.22954,38.3165]},"properties":{"qid":"Q5167628","name":"Coombsville AVA","classes":["ava"],"country":"US","wikipedia":"https://en.wikipedia.org/wiki/Coombsville_AVA"}},{"type":"Feature","id":"wd/Q2328901","geometry":{"type":"Point","coordinates":[-122.32359,38.39971]},"properties":{"qid":"Q2328901","name":"Stags Leap District AVA","classes":["ava"],"country":"US","wikipedia":"https://en.wikipedia.org/wiki/Stags_Leap_District_AVA"}},{"type":"Feature","id":"wd/Q6879116","geometry":{"type":"Point","coordinates":[-90.5,34.0]},"properties":{"qid":"Q6879116","name":"Mississippi Delta AVA","classes":["ava"],"country":"US","wikipedia":"https://en.wikipedia.org/wiki/Mississippi_Delta_AVA"}},{"type":"Feature","id":"wd/Q1544659","geometry":{"type":"Point","coordinates":[-122.9,38.42]},"properties":{"qid":"Q1544659","name":"Green Valley of Russian River Valley AVA","classes":["ava"],"country":"US","parent_qid":"Q2177011","parent_name":"Russian River Valley AVA","wikipedia":"https://en.wikipedia.org/wiki/Green_Valley_of_Russian_River_Valley_AVA"}},{"type":"Feature","id":"wd/Q1142996","geometry":{"type":"Point","coordinates":[-117.61,34.1072]},"properties":{"qid":"Q1142996","name":"Cucamonga Valley AVA","classes":["ava"],"country":"US","image":"https://commons.wikimedia.org/wiki/Special:FilePath/View%20of%20Cucamonga%20Valley%20AVA%20from%20Cucamonga%20Peak.jpg","wikipedia":"https://en.wikipedia.org/wiki/Cucamonga_Valley_AVA"}},{"type":"Feature","id":"wd/Q1411155","geometry":{"type":"Point","coordinates":[-120.757,38.51]},"properties":{"qid":"Q1411155","name":"Fiddletown AVA","classes":["ava"],"country":"US","image":"https://commons.wikimedia.org/wiki/Special:FilePath/Creek%20running%20through%20Fiddletown%2C%20California.jpg","wikipedia":"https://en.wikipedia.org/wiki/Fiddletown_AVA"}},{"type":"Feature","id":"wd/Q1646258","geometry":{"type":"Point","coordinates":[-120.47896,38.16211]},"properties":{"qid":"Q1646258","name":"Sierra Foothills AVA","classes":["ava"],"country":"US","wikipedia":"https://en.wikipedia.org/wiki/Sierra_Foothills_AVA"}},{"type":"Feature","id":"wd/Q1454419","geometry":{"type":"Point","coordinates":[-122.8,38.5]},"properties":{"qid":"Q1454419","name":"Northern Sonoma AVA","classes":["ava"],"country":"US","parent_qid":"Q2000573","parent_name":"North Coast AVA","wikipedia":"https://en.wikipedia.org/wiki/Northern_Sonoma_AVA"}},{"type":"Feature","id":"wd/Q1493028","geometry":{"type":"Point","coordinates":[-122.683,38.6333]},"properties":{"qid":"Q1493028","name":"Knights Valley AVA","classes":["ava"],"country":"US","parent_qid":"Q1454419","parent_name":"Northern Sonoma AVA","wikipedia":"https://en.wikipedia.org/wiki/Knights_Valley_AVA"}},{"type":"Feature","id":"wd/Q1340893","geometry":{"type":"Point","coordinates":[-84.33333,40.28333]},"properties":{"qid":"Q1340893","name":"Loramie Creek AVA","classes":["ava"],"country":"US","wikipedia":"https://en.wikipedia.org/wiki/Loramie_Creek_AVA"}},{"type":"Feature","id":"wd/Q1628973","geometry":{"type":"Point","coordinates":[-120.0,46.0]},"properties":{"qid":"Q1628973","name":"Horse Heaven Hills AVA","classes":["ava"],"country":"US","wikipedia":"https://en.wikipedia.org/wiki/Horse_Heaven_Hills_AVA"}},{"type":"Feature","id":"wd/Q1059721","geometry":{"type":"Point","coordinates":[-122.77,38.56]},"properties":{"qid":"Q1059721","name":"Chalk Hill AVA","classes":["ava"],"country":"US","parent_qid":"Q2177011","parent_name":"Russian River Valley AVA","wikipedia":"https://en.wikipedia.org/wiki/Chalk_Hill_AVA"}},{"type":"Feature","id":"wd/Q7304271","geometry":{"type":"Point","coordinates":[-123.275,43.53333]},"properties":{"qid":"Q7304271","name":"Red Hill Douglas County, Oregon AVA","classes":["ava"],"country":"US","wikipedia":"https://en.wikipedia.org/wiki/Red_Hill_Douglas_County_AVA"}},{"type":"Feature","id":"wd/Q6475300","geometry":{"type":"Point","coordinates":[-120.01646,47.84097]},"properties":{"qid":"Q6475300","name":"Lake Chelan AVA","classes":["ava"],"country":"US","wikipedia":"https://en.wikipedia.org/wiki/Lake_Chelan_AVA"}},{"type":"Feature","id":"wd/Q1678633","geometry":{"type":"Point","coordinates":[-120.9559,36.0671]},"properties":{"qid":"Q1678633","name":"San Lucas AVA","classes":["ava"],"country":"US","wikipedia":"https://en.wikipedia.org/wiki/San_Lucas_AVA"}},{"type":"Feature","id":"wd/Q1542850","geometry":{"type":"Point","coordinates":[-81.0513,41.7696]},"properties":{"qid":"Q1542850","name":"Grand River Valley AVA","classes":["ava"],"country":"US","wikipedia":"https://en.wikipedia.org/wiki/Grand_River_Valley_AVA"}},{"type":"Feature","id":"wd/Q5450198","geometry":{"type":"Point","coordinates":[-77.0,42.7]},"properties":{"qid":"Q5450198","name":"Finger Lakes AVA","classes":["ava"],"country":"US","image":"https://commons.wikimedia.org/wiki/Special:FilePath/New%20York%20sparkling%20wine.jpg","wikipedia":"https://en.wikipedia.org/wiki/Finger_Lakes_AVA"}},{"type":"Feature","id":"wd/Q1408902","geometry":{"type":"Point","coordinates":[-76.878,42.5226]},"properties":{"qid":"Q1408902","name":"Seneca Lake AVA","classes":["ava"],"country":"US","image":"https://commons.wikimedia.org/wiki/Special:FilePath/Seneca%20Lake%20vineyards.jpg","wikipedia":"https://en.wikipedia.org/wiki/Seneca_Lake_AVA"}},{"type":"Feature","id":"wd/Q1631986","geometry":{"type":"Point","coordinates":[-122.45,38.58]},"properties":{"qid":"Q1631986","name":"Howell Mountain AVA","classes":["ava"],"country":"US","image":"https://commons.wikimedia.org/wiki/Special:FilePath/Howell%20mountain%20moone%20tsai.jpg","wikipedia":"https://en.wikipedia.org/wiki/Howell_Mountain_AVA"}},{"type":"Feature","id":"wd/Q1068966","geometry":{"type":"Point","coordinates":[-122.967,45.4333]},"properties":{"qid":"Q1068966","name":"Chehalem Mountains AVA","classes":["ava"],"country":"US","wikipedia":"https://en.wikipedia.org/wiki/Chehalem_Mountains_AVA"}},{"type":"Feature","id":"wd/Q2453586","geometry":{"type":"Point","coordinates":[-122.782,40.796]},"properties":{"qid":"Q2453586","name":"Trinity Lakes AVA","classes":["ava"],"country":"US","wikipedia":"https://en.wikipedia.org/wiki/Trinity_Lakes_AVA"}},{"type":"Feature","id":"wd/Q2600872","geometry":{"type":"Point","coordinates":[-123.2097,38.8949]},"properties":{"qid":"Q2600872","name":"Yorkville Highlands AVA","classes":["ava"],"country":"US","image":"https://commons.wikimedia.org/wiki/Special:FilePath/Panorama%20of%20vineyard%20along%20Highway%20128%20south%20of%20Yorkville%2C%20CA.jpg","wikipedia":"https://en.wikipedia.org/wiki/Yorkville_Highlands_AVA"}},{"type":"Feature","id":"wd/Q7511543","geometry":{"type":"Point","coordinates":[-118.313,34.5039]},"properties":{"qid":"Q7511543","name":"Sierra Pelona Valley AVA","classes":["ava"],"country":"US","wikipedia":"https://en.wikipedia.org/wiki/Sierra_Pelona_Valley_AVA"}},{"type":"Feature","id":"wd/Q1570385","geometry":{"type":"Point","coordinates":[-120.266,46.3472]},"properties":{"qid":"Q1570385","name":"Yakima Valley AVA","classes":["ava"],"country":"US","image":"https://commons.wikimedia.org/wiki/Special:FilePath/Yakima%20Valley%20AVA.JPG","wikipedia":"https://en.wikipedia.org/wiki/Yakima_Valley_AVA"}},{"type":"Feature","id":"wd/Q2527817","geometry":{"type":"Point","coordinates":[-75.898,37.49]},"properties":{"qid":"Q2527817","name":"Virginia's Eastern Shore AVA","classes":["ava"],"country":"US","image":"https://commons.wikimedia.org/wiki/Special:FilePath/Delaware%20and%20Chesapeake%20Bays%20satellite%20image.jpg","wikipedia":"https://en.wikipedia.org/wiki/Virginia%27s_Eastern_Shore_AVA"}},{"type":"Feature","id":"wd/Q7595677","geometry":{"type":"Point","coordinates":[-120.28818,34.63406]},"properties":{"qid":"Q7595677","name":"Sta. Rita Hills AVA","classes":["ava"],"country":"US","wikipedia":"https://en.wikipedia.org/wiki/Sta._Rita_Hills_AVA"}},{"type":"Feature","id":"wd/Q2549710","geometry":{"type":"Point","coordinates":[-74.935,40.762]},"properties":{"qid":"Q2549710","name":"Warren Hills AVA","classes":["ava"],"country":"US","wikipedia":"https://en.wikipedia.org/wiki/Warren_Hills_AVA"}},{"type":"Feature","id":"wd/Q1748339","geometry":{"type":"Point","coordinates":[-122.40247,38.4384]},"properties":{"qid":"Q1748339","name":"Oakville AVA","classes":["ava"],"country":"US","image":"https://commons.wikimedia.org/wiki/Special:FilePath/Robert%20Mondavi%20winery.jpg","wikipedia":"https://en.wikipedia.org/wiki/Oakville_AVA"}},{"type":"Feature","id":"wd/Q6821327","geometry":{"type":"Point","coordinates":[-106.77544,32.32659]},"properties":{"qid":"Q6821327","name":"Mesilla Valley AVA","classes":["ava"],"country":"US","wikipedia":"https://en.wikipedia.org/wiki/Mesilla_Valley_AVA"}},{"type":"Feature","id":"wd/Q1367302","geometry":{"type":"Point","coordinates":[-102.72,30.78]},"properties":{"qid":"Q1367302","name":"Escondido Valley AVA","classes":["ava"],"country":"US","wikipedia":"https://en.wikipedia.org/wiki/Escondido_Valley_AVA"}},{"type":"Feature","id":"wd/Q7653432","geometry":{"type":"Point","coordinates":[-80.89449,36.1891]},"properties":{"qid":"Q7653432","name":"Swan Creek AVA","classes":["ava"],"country":"US","wikipedia":"https://en.wikipedia.org/wiki/Swan_Creek_AVA"}},{"type":"Feature","id":"wd/Q1143716","geometry":{"type":"Point","coordinates":[-77.66667,39.91667]},"properties":{"qid":"Q1143716","name":"Cumberland Valley AVA","classes":["ava"],"country":"US","wikipedia":"https://en.wikipedia.org/wiki/Cumberland_Valley_AVA"}},{"type":"Feature","id":"wd/Q7547826","geometry":{"type":"Point","coordinates":[-120.086,46.3161]},"properties":{"qid":"Q7547826","name":"Snipes Mountain AVA","classes":["ava"],"country":"US","wikipedia":"https://en.wikipedia.org/wiki/Snipes_Mountain_AVA"}},{"type":"Feature","id":"wd/Q1404805","geometry":{"type":"Point","coordinates":[-86.172,42.528]},"properties":{"qid":"Q1404805","name":"Fennville AVA","classes":["ava"],"country":"US","wikipedia":"https://en.wikipedia.org/wiki/Fennville_AVA"}},{"type":"Feature","id":"wd/Q1610495","geometry":{"type":"Point","coordinates":[-91.46,38.68]},"properties":{"qid":"Q1610495","name":"Hermann AVA","classes":["ava"],"country":"US","wikipedia":"https://en.wikipedia.org/wiki/Hermann_AVA"}},{"type":"Feature","id":"wd/Q2800372","geometry":{"type":"Point","coordinates":[-123.2016,41.8436]},"properties":{"qid":"Q2800372","name":"Seiad Valley AVA","classes":["ava"],"country":"US","wikipedia":"https://en.wikipedia.org/wiki/Seiad_Valley_AVA"}},{"type":"Feature","id":"wd/Q1633697","geometry":{"type":"Point","coordinates":[-123.6267,40.9695]},"properties":{"qid":"Q1633697","name":"Willow Creek AVA","classes":["ava"],"country":"US","wikipedia":"https://en.wikipedia.org/wiki/Willow_Creek_AVA"}},{"type":"Feature","id":"wd/Q1072890","geometry":{"type":"Point","coordinates":[-122.37104,38.62541]},"properties":{"qid":"Q1072890","name":"Chiles Valley AVA","classes":["ava"],"country":"US","wikipedia":"https://en.wikipedia.org/wiki/Chiles_Valley_AVA"}},{"type":"Feature","id":"wd/Q4771211","geometry":{"type":"Point","coordinates":[-118.2115,34.7547]},"properties":{"qid":"Q4771211","name":"Antelope Valley of the California High Desert AVA","classes":["ava"],"country":"US","wikipedia":"https://en.wikipedia.org/wiki/Antelope_Valley_of_the_California_High_Desert_AVA"}},{"type":"Feature","id":"wd/Q1100382","geometry":{"type":"Point","coordinates":[-121.0306,38.0348]},"properties":{"qid":"Q1100382","name":"Clements Hills AVA","classes":["ava"],"country":"US","wikipedia":"https://en.wikipedia.org/wiki/Clements_Hills_AVA"}},{"type":"Feature","id":"wd/Q2984578","geometry":{"type":"Point","coordinates":[-119.288,47.1211]},"properties":{"qid":"Q2984578","name":"Columbia Valley AVA","classes":["ava"],"country":"US","image":"https://commons.wikimedia.org/wiki/Special:FilePath/Columbia%20Valley%20AVA%20Wash%20map.JPG","wikipedia":"https://en.wikipedia.org/wiki/Columbia_Valley_AVA"}},{"type":"Feature","id":"wd/Q2304646","geometry":{"type":"Point","coordinates":[-71.5,41.5]},"properties":{"qid":"Q2304646","name":"Southeastern New England AVA","classes":["ava"],"country":"US","wikipedia":"https://en.wikipedia.org/wiki/Southeastern_New_England_AVA"}},{"type":"Feature","id":"wd/Q1260347","geometry":{"type":"Point","coordinates":[-84.81918,39.10287]},"properties":{"qid":"Q1260347","name":"Ohio River Valley AVA","classes":["ava"],"country":"US","wikipedia":"https://en.wikipedia.org/wiki/Ohio_River_Valley_AVA"}},{"type":"Feature","id":"wd/Q1569501","geometry":{"type":"Point","coordinates":[-120.256,46.4033]},"properties":{"qid":"Q1569501","name":"Rattlesnake Hills AVA","classes":["ava"],"country":"US","image":"https://commons.wikimedia.org/wiki/Special:FilePath/Rattlesnake-Hills-AVA.jpg","wikipedia":"https://en.wikipedia.org/wiki/Rattlesnake_Hills_AVA"}},{"type":"Feature","id":"wd/Q7491533","geometry":{"type":"Point","coordinates":[-88.83333,37.5]},"properties":{"qid":"Q7491533","name":"Shawnee Hills AVA","classes":["ava"],"country":"US","wikipedia":"https://en.wikipedia.org/wiki/Shawnee_Hills_AVA"}},{"type":"Feature","id":"wd/Q2304380","geometry":{"type":"Point","coordinates":[-117.20446,33.37873]},"properties":{"qid":"Q2304380","name":"South Coast AVA","classes":["ava"],"country":"US","wikipedia":"https://en.wikipedia.org/wiki/South_Coast_AVA"}},{"type":"Feature","id":"wd/Q4720978","geometry":{"type":"Point","coordinates":[-95.3833,45.9667]},"properties":{"qid":"Q4720978","name":"Alexandria Lakes AVA","classes":["ava"],"country":"US","wikipedia":"https://en.wikipedia.org/wiki/Alexandria_Lakes_AVA"}},{"type":"Feature","id":"wd/Q1324076","geometry":{"type":"Point","coordinates":[-120.89239,38.7797]},"properties":{"qid":"Q1324076","name":"El Dorado AVA","classes":["ava"],"country":"US","wikipedia":"https://en.wikipedia.org/wiki/El_Dorado_AVA"}},{"type":"Feature","id":"wd/Q7653431","geometry":{"type":"Point","coordinates":[-80.76028,36.09833]},"properties":{"qid":"Q7653431","name":"Swan Creek","classes":["ava"],"country":"US","wikipedia":"https://en.wikipedia.org/wiki/Swan_Creek,_North_Carolina"}},{"type":"Feature","id":"wd/Q1250917","geometry":{"type":"Point","coordinates":[-123.359,39.722]},"properties":{"qid":"Q1250917","name":"Dos Rios AVA","classes":["ava"],"country":"US","wikipedia":"https://en.wikipedia.org/wiki/Dos_Rios_AVA"}},{"type":"Feature","id":"wd/Q1513613","geometry":{"type":"Point","coordinates":[-118.83021,34.09725]},"properties":{"qid":"Q1513613","name":"Saddle Rock-Malibu AVA","classes":["ava"],"country":"US","wikipedia":"https://en.wikipedia.org/wiki/Saddle_Rock-Malibu_AVA"}},{"type":"Feature","id":"wd/Q1346283","geometry":{"type":"Point","coordinates":[-123.116,45.056]},"properties":{"qid":"Q1346283","name":"Eola-Amity Hills AVA","classes":["ava"],"country":"US","wikipedia":"https://en.wikipedia.org/wiki/Eola-Amity_Hills_AVA"}},{"type":"Feature","id":"wd/Q1561756","geometry":{"type":"Point","coordinates":[-74.01177,41.65803]},"properties":{"qid":"Q1561756","name":"Hudson River Region AVA","classes":["ava"],"country":"US","wikipedia":"https://en.wikipedia.org/wiki/Hudson_River_Region_AVA"}},{"type":"Feature","id":"wd/Q1053753","geometry":{"type":"Point","coordinates":[-74.896,40.449]},"properties":{"qid":"Q1053753","name":"Central Delaware Valley AVA","classes":["ava"],"country":"US","wikipedia":"https://en.wikipedia.org/wiki/Central_Delaware_Valley_AVA"}},{"type":"Feature","id":"wd/Q1669449","geometry":{"type":"Point","coordinates":[-122.9,38.75]},"properties":{"qid":"Q1669449","name":"Alexander Valley AVA","classes":["ava"],"country":"US","image":"https://commons.wikimedia.org/wiki/Special:FilePath/Joseph%20Family%20Vineyards%20%282025%29-L1000290.jpg","wikipedia":"https://en.wikipedia.org/wiki/Alexander_Valley_AVA"}},{"type":"Feature","id":"wd/Q1319214","geometry":{"type":"Point","coordinates":[-122.4456,38.3325]},"properties":{"qid":"Q1319214","name":"Oak Knoll District of Napa Valley AVA","classes":["ava"],"country":"US","wikipedia":"https://en.wikipedia.org/wiki/Oak_Knoll_District_of_Napa_Valley_AVA"}},{"type":"Feature","id":"wd/Q1091786","geometry":{"type":"Point","coordinates":[-121.3883,36.7434]},"properties":{"qid":"Q1091786","name":"Cienega Valley AVA","classes":["ava"],"country":"US","wikipedia":"https://en.wikipedia.org/wiki/Cienega_Valley_AVA"}},{"type":"Feature","id":"wd/Q6862022","geometry":{"type":"Point","coordinates":[-107.97752,32.8525]},"properties":{"qid":"Q6862022","name":"Mimbres Valley AVA","classes":["ava"],"country":"US","wikipedia":"https://en.wikipedia.org/wiki/Mimbres_Valley_AVA"}},{"type":"Feature","id":"wd/Q1478702","geometry":{"type":"Point","coordinates":[-121.41085,37.70099]},"properties":{"qid":"Q1478702","name":"Tracy Hills AVA","classes":["ava"],"country":"US","wikipedia":"https://en.wikipedia.org/wiki/Tracy_Hills_AVA"}},{"type":"Feature","id":"wd/Q1151105","geometry":{"type":"Point","coordinates":[-122.35,38.3867]},"properties":{"qid":"Q1151105","name":"Napa Valley AVA","classes":["ava"],"country":"US","image":"https://commons.wikimedia.org/wiki/Special:FilePath/Lightmatter%20napa%20valley.jpg","wikipedia":"https://en.wikipedia.org/wiki/Napa_Valley_AVA"}},{"type":"Feature","id":"wd/Q6957146","geometry":{"type":"Point","coordinates":[-120.622,46.6281]},"properties":{"qid":"Q6957146","name":"Naches Heights AVA","classes":["ava"],"country":"US","image":"https://commons.wikimedia.org/wiki/Special:FilePath/Naches%20Heights%20from%20the%20air%202.JPG","wikipedia":"https://en.wikipedia.org/wiki/Naches_Heights_AVA"}},{"type":"Feature","id":"wd/Q1454225","geometry":{"type":"Point","coordinates":[-82.81934,41.71484]},"properties":{"qid":"Q1454225","name":"Isle St. George AVA","classes":["ava"],"country":"US","wikipedia":"https://en.wikipedia.org/wiki/Isle_St._George_AVA"}},{"type":"Feature","id":"wd/Q1661388","geometry":{"type":"Point","coordinates":[-101.7898,33.4764]},"properties":{"qid":"Q1661388","name":"Texas High Plains AVA","classes":["ava"],"country":"US","wikipedia":"https://en.wikipedia.org/wiki/Texas_High_Plains_AVA"}},{"type":"Feature","id":"wd/Q1512490","geometry":{"type":"Point","coordinates":[-122.42333,38.45865]},"properties":{"qid":"Q1512490","name":"Rutherford AVA","classes":["ava"],"country":"US","wikipedia":"https://en.wikipedia.org/wiki/Rutherford_AVA"}},{"type":"Feature","id":"wd/Q2570330","geometry":{"type":"Point","coordinates":[-122.20136,38.34331]},"properties":{"qid":"Q2570330","name":"Wild Horse Valley AVA","classes":["ava"],"country":"US","wikipedia":"https://en.wikipedia.org/wiki/Wild_Horse_Valley_AVA"}},{"type":"Feature","id":"wd/Q1287253","geometry":{"type":"Point","coordinates":[-120.60755,35.21732]},"properties":{"qid":"Q1287253","name":"Edna Valley AVA","classes":["ava"],"country":"US","wikipedia":"https://en.wikipedia.org/wiki/Edna_Valley_AVA"}},{"type":"Feature","id":"wd/Q7084546","geometry":{"type":"Point","coordinates":[-85.515,44.878]},"properties":{"qid":"Q7084546","name":"Old Mission Peninsula AVA","classes":["ava"],"country":"US","wikipedia":"https://en.wikipedia.org/wiki/Old_Mission_Peninsula_AVA"}},{"type":"Feature","id":"wd/Q7562193","geometry":{"type":"Point","coordinates":[-122.5,38.3667]},"properties":{"qid":"Q7562193","name":"Sonoma Valley","classes":["ava"],"country":"US","image":"https://commons.wikimedia.org/wiki/Special:FilePath/The%20view%20from%20Gloria%20Ferrer%20-%20Stierch.jpg","wikipedia":"https://en.wikipedia.org/wiki/Sonoma_Valley"}},{"type":"Feature","id":"wd/Q1278962","geometry":{"type":"Point","coordinates":[-123.20774,39.24895]},"properties":{"qid":"Q1278962","name":"Mendocino AVA","classes":["ava"],"country":"US","wikipedia":"https://en.wikipedia.org/wiki/Mendocino_AVA"}},{"type":"Feature","id":"wd/Q1393909","geometry":{"type":"Point","coordinates":[-121.14104,37.43853]},"properties":{"qid":"Q1393909","name":"Salado Creek AVA","classes":["ava"],"country":"US","wikipedia":"https://en.wikipedia.org/wiki/Salado_Creek_AVA"}},{"type":"Feature","id":"wd/Q1095860","geometry":{"type":"Point","coordinates":[-121.53263,38.42639]},"properties":{"qid":"Q1095860","name":"Clarksburg AVA","classes":["ava"],"country":"US","wikipedia":"https://en.wikipedia.org/wiki/Clarksburg_AVA"}},{"type":"Feature","id":"wd/Q1266207","geometry":{"type":"Point","coordinates":[-121.9434,38.8152]},"properties":{"qid":"Q1266207","name":"Dunnigan Hills AVA","classes":["ava"],"country":"US","wikipedia":"https://en.wikipedia.org/wiki/Dunnigan_Hills_AVA"}},{"type":"Feature","id":"wd/Q1207979","geometry":{"type":"Point","coordinates":[-121.256,37.406]},"properties":{"qid":"Q1207979","name":"Diablo Grande AVA","classes":["ava"],"country":"US","wikipedia":"https://en.wikipedia.org/wiki/Diablo_Grande_AVA"}},{"type":"Feature","id":"wd/Q5614823","geometry":{"type":"Point","coordinates":[-122.5282,38.7363]},"properties":{"qid":"Q5614823","name":"Guenoc Valley AVA","classes":["ava"],"country":"US","wikipedia":"https://en.wikipedia.org/wiki/Guenoc_Valley_AVA"}},{"type":"Feature","id":"wd/Q7959818","geometry":{"type":"Point","coordinates":[-119.833,46.75]},"properties":{"qid":"Q7959818","name":"Wahluke Slope AVA","classes":["ava"],"country":"US","image":"https://commons.wikimedia.org/wiki/Special:FilePath/Middle-saddle-mountains-sentinel-gap-looking-northwesterly-P4140091.JPG","wikipedia":"https://en.wikipedia.org/wiki/Wahluke_Slope_AVA"}},{"type":"Feature","id":"wd/Q1624781","geometry":{"type":"Point","coordinates":[-123.2049,39.2957]},"properties":{"qid":"Q1624781","name":"Redwood Valley AVA","classes":["ava"],"country":"US","wikipedia":"https://en.wikipedia.org/wiki/Redwood_Valley_AVA"}},{"type":"Feature","id":"wd/Q1053730","geometry":{"type":"Point","coordinates":[-121.2,36.0]},"properties":{"qid":"Q1053730","name":"Central Coast AVA","classes":["ava"],"country":"US","image":"https://commons.wikimedia.org/wiki/Special:FilePath/Central%20coast%20California%20Cab.jpg","wikipedia":"https://en.wikipedia.org/wiki/Central_Coast_AVA"}},{"type":"Feature","id":"wd/Q1566783","geometry":{"type":"Point","coordinates":[-123.19,45.35]},"properties":{"qid":"Q1566783","name":"Yamhill-Carlton District AVA","classes":["ava"],"country":"US","wikipedia":"https://en.wikipedia.org/wiki/Yamhill-Carlton_AVA"}},{"type":"Feature","id":"wd/Q2402542","geometry":{"type":"Point","coordinates":[-117.043,33.5436]},"properties":{"qid":"Q2402542","name":"Temecula Valley AVA","classes":["ava"],"country":"US","image":"https://commons.wikimedia.org/wiki/Special:FilePath/TemeculaVinesMorning.jpg","wikipedia":"https://en.wikipedia.org/wiki/Temecula_Valley_AVA"}},{"type":"Feature","id":"wd/Q1337328","geometry":{"type":"Point","coordinates":[-80.331,37.3767]},"properties":{"qid":"Q1337328","name":"North Fork of Roanoke AVA","classes":["ava"],"country":"US","image":"https://commons.wikimedia.org/wiki/Special:FilePath/Roanoke-valley-panarama.jpg","wikipedia":"https://en.wikipedia.org/wiki/North_Fork_of_Roanoke_AVA"}},{"type":"Feature","id":"wd/Q7570232","geometry":{"type":"Point","coordinates":[-123.0917,42.4337]},"properties":{"qid":"Q7570232","name":"Southern Oregon AVA","classes":["ava"],"country":"US","wikipedia":"https://en.wikipedia.org/wiki/Southern_Oregon_AVA"}},{"type":"Feature","id":"wd/Q7898802","geometry":{"type":"Point","coordinates":[-92.51394,44.80211]},"properties":{"qid":"Q7898802","name":"Upper Mississippi River Valley AVA","classes":["ava"],"country":"US","wikipedia":"https://en.wikipedia.org/wiki/Upper_Mississippi_River_Valley_AVA"}},{"type":"Feature","id":"wd/Q3419962","geometry":{"type":"Point","coordinates":[4.98853,44.22581]},"properties":{"qid":"Q3419962","name":"Rasteau AOC","classes":["aoc"],"country":"FR","image":"https://commons.wikimedia.org/wiki/Special:FilePath/Village%20de%20Rasteau.jpg","wikipedia":"https://en.wikipedia.org/wiki/Rasteau_AOC"}},{"type":"Feature","id":"wd/Q923449","geometry":{"type":"Point","coordinates":[4.95111,47.15917]},"properties":{"qid":"Q923449","name":"La Tâche AOC","classes":["aoc"],"country":"FR","image":"https://commons.wikimedia.org/wiki/Special:FilePath/La%20T%C3%A2che%20from%20above.jpg","wikipedia":"https://en.wikipedia.org/wiki/La_T%C3%A2che_AOC"}},{"type":"Feature","id":"wd/Q1135592","geometry":{"type":"Point","coordinates":[8.80278,44.68333]},"properties":{"qid":"Q1135592","name":"Cortese di Gavi","classes":["docg"],"country":"IT","image":"https://commons.wikimedia.org/wiki/Special:FilePath/Gavi%20DOCG%20wines.jpg","wikipedia":"https://en.wikipedia.org/wiki/Cortese_di_Gavi"}},{"type":"Feature","id":"wd/Q1124398","geometry":{"type":"Point","coordinates":[1.65056,42.48111]},"properties":{"qid":"Q1124398","name":"Condado de Huelva","classes":["appellation"],"country":"ES","image":"https://commons.wikimedia.org/wiki/Special:FilePath/Tr%C3%ADada-triolog%C3%ADa%20mediterr%C3%A1nea%20bollullos%20par%20del%20condado.jpg","wikipedia":"https://en.wikipedia.org/wiki/Condado_de_Huelva"}},{"type":"Feature","id":"wd/Q106539128","geometry":{"type":"Point","coordinates":[11.42729,49.09422]},"properties":{"qid":"Q106539128","name":"Baudenkmal D-3-73-112-302 in Berching","classes":["vineyard"],"country":"DE","image":"https://commons.wikimedia.org/wiki/Special:FilePath/Weinberg-Trockenmauer%20%28Berching%29%2004.jpg"}},{"type":"Feature","id":"wd/Q61996057","geometry":{"type":"Point","coordinates":[9.6894,49.6304]},"properties":{"qid":"Q61996057","name":"Edelberg","classes":["vineyard"],"country":"DE","image":"https://commons.wikimedia.org/wiki/Special:FilePath/Blick%20auf%20Tauberbischofsheim%20vom%20Edelberg%20-%201.jpg"}},{"type":"Feature","id":"wd/Q1535495","geometry":{"type":"Point","coordinates":[13.663,51.1127]},"properties":{"qid":"Q1535495","name":"Goldener Wagen","classes":["vineyard"],"country":"DE"}},{"type":"Feature","id":"wd/Q56258944","geometry":{"type":"Point","coordinates":[8.37566,45.03937]},"properties":{"qid":"Q56258944","name":"vigneti di Cascina Gasparda","classes":["vineyard"],"country":"IT"}},{"type":"Feature","id":"wd/Q111621253","geometry":{"type":"Point","coordinates":[115.89204,-33.06256]},"properties":{"qid":"Q111621253","name":"Harvey River Estate","classes":["vineyard"],"country":"AU","image":"https://commons.wikimedia.org/wiki/Special:FilePath/The%20Big%20Orange%20Tower%20at%20Harvey%20River%20Estate%2C%20August%202022%2002.jpg"}},{"type":"Feature","id":"wd/Q107676374","geometry":{"type":"Point","coordinates":[11.33752,50.98752]},"properties":{"qid":"Q107676374","name":"Kirschberg","classes":["vineyard"],"country":"DE"}},{"type":"Feature","id":"wd/Q4111562","geometry":{"type":"Point","coordinates":[22.57833,57.04472]},"properties":{"qid":"Q4111562","name":"Vineyard in Sabile","classes":["vineyard"],"country":"LV","image":"https://commons.wikimedia.org/wiki/Special:FilePath/Sabile%20weinberg.jpg"}},{"type":"Feature","id":"wd/Q124398142","geometry":{"type":"Point","coordinates":[16.27672,39.2482]},"properties":{"qid":"Q124398142","name":"CerzaSerra Wine","classes":["vineyard"],"country":"IT"}},