{"type":"FeatureCollection","features":[{"type":"Feature","id":"wd/Q381766","geometry":{"type":"Point","coordinates":[96.629,33.271]},"properties":{"qid":"Q381766","name":"2010 Yushu earthquake","classes":["aoc_vineyard"],"country":"CN","image":"https://commons.wikimedia.org/wiki/Special:FilePath/China-equirect.png","wikipedia":"https://en.wikipedia.org/wiki/2010_Yushu_earthquake"}},{"type":"Feature","id":"wd/Q518303","geometry":{"type":"Point","coordinates":[35.49472,33.82917]},"properties":{"qid":"Q518303","name":"1983 Beirut barracks bombing","classes":["aoc_vineyard"],"country":"LB","image":"https://commons.wikimedia.org/wiki/Special:FilePath/Beirutbarr.jpg","parent_qid":"Q208484","parent_name":"Lebanese Civil War","wikipedia":"https://en.wikipedia.org/wiki/1983_Beirut_barracks_bombings"}},{"type":"Feature","id":"wd/Q843990","geometry":{"type":"Point","coordinates":[114.216,22.4835]},"properties":{"qid":"Q843990","name":"1996 Pat Sin Leng wildfire","classes":["aoc_vineyard"],"image":"https://commons.wikimedia.org/wiki/Special:FilePath/Chun%20Feng%20Shelter.jpg","wikipedia":"https://en.wikipedia.org/wiki/1996_Pat_Sin_Leng_wildfire"}},{"type":"Feature","id":"wd/Q518753","geometry":{"type":"Point","coordinates":[27.8719,-26.6883]},"properties":{"qid":"Q518753","name":"Sharpeville massacre","classes":["aoc_vineyard"],"country":"ZA","image":"https://commons.wikimedia.org/wiki/Special:FilePath/Murder%20at%20Sharpeville%2021%20March%201960.jpg","wikipedia":"https://en.wikipedia.org/wiki/Sharpeville_massacre"}},{"type":"Feature","id":"wd/Q367449","geometry":{"type":"Point","coordinates":[29.987,40.702]},"properties":{"qid":"Q367449","name":"1999 İzmit earthquake","classes":["aoc_vineyard"],"country":"TR","image":"https://commons.wikimedia.org/wiki/Special:FilePath/1999%20%C4%B0zmit%20earthquake%20map.svg","wikipedia":"https://en.wikipedia.org/wiki/1999_%C4%B0zmit_earthquake"}},{"type":"Feature","id":"wd/Q116688","geometry":{"type":"Point","coordinates":[3.634,36.964]},"properties":{"qid":"Q116688","name":"2003 Boumerdès earthquake","classes":["aoc_vineyard"],"country":"DZ","image":"https://commons.wikimedia.org/wiki/Special:FilePath/Seisme%20de%20Boumerdes%202003.jpg","wikipedia":"https://en.wikipedia.org/wiki/2003_Boumerd%C3%A8s_earthquake"}},{"type":"Feature","id":"wd/Q697017","geometry":{"type":"Point","coordinates":[14.0417,50.6583]},"properties":{"qid":"Q697017","name":"Ústí massacre","classes":["aoc_vineyard"],"image":"https://commons.wikimedia.org/wiki/Special:FilePath/Nalet%20usti.gif","wikipedia":"https://en.wikipedia.org/wiki/%C3%9Ast%C3%AD_massacre"}},{"type":"Feature","id":"wd/Q862586","geometry":{"type":"Point","coordinates":[2.3351,48.8531]},"properties":{"qid":"Q862586","name":"September Massacres","classes":["aoc_vineyard"],"image":"https://commons.wikimedia.org/wiki/Special:FilePath/Massacre%20%C3%A0%20la%20Salp%C3%AAtri%C3%A8re.jpg","parent_qid":"Q6534","parent_name":"French Revolution","wikipedia":"https://en.wikipedia.org/wiki/September_Massacres"}},{"type":"Feature","id":"wd/Q369560","geometry":{"type":"Point","coordinates":[44.335,33.3475]},"properties":{"qid":"Q369560","name":"Siege of Baghdad","classes":["aoc_vineyard"],"image":"https://commons.wikimedia.org/wiki/Special:FilePath/Bagdad1258.jpg","parent_qid":"Q113151289","parent_name":"Mongol invasion of Persia and Mesopotamia","wikipedia":"https://en.wikipedia.org/wiki/Siege_of_Baghdad"}},{"type":"Feature","id":"wd/Q695487","geometry":{"type":"Point","coordinates":[12.2508,41.8075]},"properties":{"qid":"Q695487","name":"Rome and Vienna airport attacks","classes":["aoc_vineyard"],"image":"https://commons.wikimedia.org/wiki/Special:FilePath/Fiumicino1985.jpg","wikipedia":"https://en.wikipedia.org/wiki/1985_Rome_and_Vienna_airport_attacks"}},{"type":"Feature","id":"wd/Q105570","geometry":{"type":"Point","coordinates":[21.49639,54.08056]},"properties":{"qid":"Q105570","name":"20 July plot","classes":["aoc_vineyard"],"country":"PL","image":"https://commons.wikimedia.org/wiki/Special:FilePath/Bundesarchiv%20Bild%20146-1972-025-10%2C%20Hitler-Attentat%2C%2020.%20Juli%201944.jpg","parent_qid":"Q362","parent_name":"World War II","wikipedia":"https://en.wikipedia.org/wiki/20_July_plot"}},{"type":"Feature","id":"wd/Q849810","geometry":{"type":"Point","coordinates":[113.744,22.182]},"properties":{"qid":"Q849810","name":"Miss Macao","classes":["aoc_vineyard"],"wikipedia":"https://en.wikipedia.org/wiki/Miss_Macao"}},{"type":"Feature","id":"wd/Q108413","geometry":{"type":"Point","coordinates":[-102.365,43.1425]},"properties":{"qid":"Q108413","name":"Wounded Knee Massacre","classes":["aoc_vineyard"],"country":"US","image":"https://commons.wikimedia.org/wiki/Special:FilePath/Woundedkneesceneafterbattle.jpg","parent_qid":"Q5557072","parent_name":"Ghost Dance War","wikipedia":"https://en.wikipedia.org/wiki/Wounded_Knee_Massacre"}},{"type":"Feature","id":"wd/Q851523","geometry":{"type":"Point","coordinates":[-81.64592,37.79689]},"properties":{"qid":"Q851523","name":"Buffalo Creek Flood","classes":["aoc_vineyard"],"country":"US","image":"https://commons.wikimedia.org/wiki/Special:FilePath/Statue%20of%20Chief%20Logan%20the%20Orator%20%28Logan%2C%20West%20Virginia%29.jpg","wikipedia":"https://en.wikipedia.org/wiki/Buffalo_Creek_flood"}},{"type":"Feature","id":"wd/Q852157","geometry":{"type":"Point","coordinates":[15.61,44.88]},"properties":{"qid":"Q852157","name":"Plitvice Lakes incident","classes":["aoc_vineyard"],"country":"HR","parent_qid":"Q68969","parent_name":"Croatian War of Independence","wikipedia":"https://en.wikipedia.org/wiki/Plitvice_Lakes_incident"}},{"type":"Feature","id":"wd/Q349875","geometry":{"type":"Point","coordinates":[-9.21562,38.7073]},"properties":{"qid":"Q349875","name":"1983 Turkish embassy attack in Lisbon","classes":["aoc_vineyard"],"country":"PT","wikipedia":"https://en.wikipedia.org/wiki/1983_Turkish_embassy_attack_in_Lisbon"}},{"type":"Feature","id":"wd/Q697763","geometry":{"type":"Point","coordinates":[24.01346,49.8286]},"properties":{"qid":"Q697763","name":"massacre of Lviv professors","classes":["aoc_vineyard"],"wikipedia":"https://en.wikipedia.org/wiki/Massacre_of_Lw%C3%B3w_professors"}},{"type":"Feature","id":"wd/Q507829","geometry":{"type":"Point","coordinates":[125.25556,-9.3125]},"properties":{"qid":"Q507829","name":"Suai Church massacre","classes":["aoc_vineyard"],"country":"TL","parent_qid":"Q28136238","parent_name":"East Timor genocide","wikipedia":"https://en.wikipedia.org/wiki/Suai_Church_massacre"}},{"type":"Feature","id":"wd/Q333363","geometry":{"type":"Point","coordinates":[39.1833,21.5]},"properties":{"qid":"Q333363","name":"2009 Jeddah floods","classes":["aoc_vineyard"],"country":"SA","wikipedia":"https://en.wikipedia.org/wiki/2009_Jeddah_floods"}},{"type":"Feature","id":"wd/Q850529","geometry":{"type":"Point","coordinates":[-71.6639,43.9086]},"properties":{"qid":"Q850529","name":"Betty and Barney Hill incident","classes":["aoc_vineyard"],"wikipedia":"https://en.wikipedia.org/wiki/Barney_and_Betty_Hill_incident"}},{"type":"Feature","id":"wd/Q370706","geometry":{"type":"Point","coordinates":[-0.17199,51.50171]},"properties":{"qid":"Q370706","name":"Iranian Embassy Siege","classes":["aoc_vineyard"],"country":"GB","image":"https://commons.wikimedia.org/wiki/Special:FilePath/Zz%20embassy.jpg","parent_qid":"Q15928537","parent_name":"Arab separatism in Khuzestan","wikipedia":"https://en.wikipedia.org/wiki/Iranian_Embassy_siege"}},{"type":"Feature","id":"wd/Q86584","geometry":{"type":"Point","coordinates":[115.17417,-8.71722]},"properties":{"qid":"Q86584","name":"2002 Bali bombings","classes":["aoc_vineyard"],"country":"ID","image":"https://commons.wikimedia.org/wiki/Special:FilePath/Bali%20kuta%20blast%20monument%20ag1.jpg","parent_qid":"Q3029626","parent_name":"terrorism in Indonesia","wikipedia":"https://en.wikipedia.org/wiki/2002_Bali_bombings"}},{"type":"Feature","id":"wd/Q123170","geometry":{"type":"Point","coordinates":[48.283,30.3349]},"properties":{"qid":"Q123170","name":"Cinema Rex fire","classes":["aoc_vineyard"],"image":"https://commons.wikimedia.org/wiki/Special:FilePath/Rex%20Cinema%20Fire.jpg","parent_qid":"Q126065","parent_name":"Iranian Revolution","wikipedia":"https://en.wikipedia.org/wiki/Cinema_Rex_fire"}},{"type":"Feature","id":"wd/Q328663","geometry":{"type":"Point","coordinates":[5.93694,51.14806]},"properties":{"qid":"Q328663","name":"1992 Roermond earthquake","classes":["aoc_vineyard"],"country":"DE","image":"https://commons.wikimedia.org/wiki/Special:FilePath/1992%20Roermond%20intensity.jpg","wikipedia":"https://en.wikipedia.org/wiki/1992_Roermond_earthquake"}},{"type":"Feature","id":"wd/Q698045","geometry":{"type":"Point","coordinates":[11.61667,52.13333]},"properties":{"qid":"Q698045","name":"Sack of Magdeburg","classes":["aoc_vineyard"],"image":"https://commons.wikimedia.org/wiki/Special:FilePath/Magdeburg%201631.jpg","parent_qid":"Q7655000","parent_name":"Swedish intervention in the Thirty Years' War","wikipedia":"https://en.wikipedia.org/wiki/Sack_of_Magdeburg"}},{"type":"Feature","id":"wd/Q852450","geometry":{"type":"Point","coordinates":[130.922,33.949]},"properties":{"qid":"Q852450","name":"Shimonoseki Station massacre","classes":["aoc_vineyard"],"country":"JP","wikipedia":"https://en.wikipedia.org/wiki/Shimonoseki_Station_massacre"}},{"type":"Feature","id":"wd/Q381842","geometry":{"type":"Point","coordinates":[70.91614,22.67772]},"properties":{"qid":"Q381842","name":"1979 Machchhu dam failure","classes":["aoc_vineyard"],"country":"IN","wikipedia":"https://en.wikipedia.org/wiki/1979_Machchhu_dam_failure"}},{"type":"Feature","id":"wd/Q509555","geometry":{"type":"Point","coordinates":[12.55836,38.05822]},"properties":{"qid":"Q509555","name":"Pizzolungo bombing","classes":["aoc_vineyard"],"country":"IT","image":"https://commons.wikimedia.org/wiki/Special:FilePath/Stele%20di%20Pizzolungo.jpg","wikipedia":"https://en.wikipedia.org/wiki/Pizzolungo_bombing"}},{"type":"Feature","id":"wd/Q517941","geometry":{"type":"Point","coordinates":[67.484,30.569]},"properties":{"qid":"Q517941","name":"2008 Pakistan earthquake","classes":["aoc_vineyard"],"country":"PK","wikipedia":"https://en.wikipedia.org/wiki/2008_Ziarat_earthquakes"}},{"type":"Feature","id":"wd/Q99717","geometry":{"type":"Point","coordinates":[116.39167,39.90333]},"properties":{"qid":"Q99717","name":"1989 Tiananmen Square protests and massacre","classes":["aoc_vineyard"],"country":"CN","image":"https://commons.wikimedia.org/wiki/Special:FilePath/%E8%92%B2%E5%BF%97%E5%BC%B719890510.jpg","parent_qid":"Q8683","parent_name":"Cold War","wikipedia":"https://en.wikipedia.org/wiki/1989_Tiananmen_Square_protests_and_massacre"}},{"type":"Feature","id":"wd/Q377665","geometry":{"type":"Point","coordinates":[-103.35667,20.67139]},"properties":{"qid":"Q377665","name":"1992 Guadalajara explosions","classes":["aoc_vineyard"],"country":"MX","image":"https://commons.wikimedia.org/wiki/Special:FilePath/MapaZGMMexico.svg","wikipedia":"https://en.wikipedia.org/wiki/1992_Guadalajara_explosions"}},{"type":"Feature","id":"wd/Q331721","geometry":{"type":"Point","coordinates":[44.8015,41.6934]},"properties":{"qid":"Q331721","name":"1907 Tiflis bank robbery","classes":["aoc_vineyard"],"image":"https://commons.wikimedia.org/wiki/Special:FilePath/Yerevan%20Square%2C%20Tbilisi.jpg","wikipedia":"https://en.wikipedia.org/wiki/1907_Tiflis_bank_robbery"}},{"type":"Feature","id":"wd/Q380572","geometry":{"type":"Point","coordinates":[-8.41,43.389]},"properties":{"qid":"Q380572","name":"Aegean Sea oil spill","classes":["aoc_vineyard"],"country":"ES","image":"https://commons.wikimedia.org/wiki/Special:FilePath/Maregeo%20coruna4.jpg","wikipedia":"https://en.wikipedia.org/wiki/Aegean_Sea_tanker_oil_spill"}},{"type":"Feature","id":"wd/Q698056","geometry":{"type":"Point","coordinates":[-9.69,30.351]},"properties":{"qid":"Q698056","name":"1960 Agadir earthquake","classes":["aoc_vineyard"],"country":"MA","image":"https://commons.wikimedia.org/wiki/Special:FilePath/1960%2002%2029%20Agadir%20earthquake.png","wikipedia":"https://en.wikipedia.org/wiki/1960_Agadir_earthquake"}},{"type":"Feature","id":"wd/Q848918","geometry":{"type":"Point","coordinates":[16.0,-17.4]},"properties":{"qid":"Q848918","name":"2009 Angola, Namibia and Zambia floods","classes":["aoc_vineyard"],"wikipedia":"https://en.wikipedia.org/wiki/2009_Angola,_Namibia_and_Zambia_floods"}},{"type":"Feature","id":"wd/Q844495","geometry":{"type":"Point","coordinates":[-74.7677,40.424]},"properties":{"qid":"Q844495","name":"Lindbergh kidnapping","classes":["aoc_vineyard"],"country":"US","image":"https://commons.wikimedia.org/wiki/Special:FilePath/Lindbergh%20baby%20poster1.jpg","wikipedia":"https://en.wikipedia.org/wiki/Lindbergh_kidnapping"}},{"type":"Feature","id":"wd/Q697281","geometry":{"type":"Point","coordinates":[123.92561,41.83389]},"properties":{"qid":"Q697281","name":"Pingdingshan massacre","classes":["aoc_vineyard"],"image":"https://commons.wikimedia.org/wiki/Special:FilePath/%E6%B2%88%E9%98%B3%E2%80%9C%E4%B9%9D%E4%B8%80%E5%85%AB%E2%80%9D%E5%8E%86%E5%8F%B2%E5%8D%9A%E7%89%A9%E9%A6%86%E6%94%B6%E8%97%8F%E7%9A%84%E5%B9%B3%E9%A1%B6%E5%B1%B1%E6%83%A8%E6%A1%88%E9%81%87%E9%9A%BE%E8%80%85%E9%81%97%E9%AA%A8.jpg","wikipedia":"https://en.wikipedia.org/wiki/Pingdingshan_massacre"}},{"type":"Feature","id":"wd/Q846876","geometry":{"type":"Point","coordinates":[18.07083,59.325]},"properties":{"qid":"Q846876","name":"Stockholm Bloodbath","classes":["aoc_vineyard"],"country":"SE","image":"https://commons.wikimedia.org/wiki/Special:FilePath/Stockholm%20Bloodbath.jpg","wikipedia":"https://en.wikipedia.org/wiki/Stockholm_Bloodbath"}},{"type":"Feature","id":"wd/Q860463","geometry":{"type":"Point","coordinates":[-1.84556,53.5594]},"properties":{"qid":"Q860463","name":"Holmfirth Floods","classes":["aoc_vineyard"],"country":"GB","wikipedia":"https://en.wikipedia.org/wiki/Holmfirth_floods"}},{"type":"Feature","id":"wd/Q324215","geometry":{"type":"Point","coordinates":[0.58222,47.05361]},"properties":{"qid":"Q324215","name":"Maillé massacre","classes":["aoc_vineyard"],"country":"FR","wikipedia":"https://en.wikipedia.org/wiki/Maill%C3%A9_massacre"}},{"type":"Feature","id":"wd/Q370472","geometry":{"type":"Point","coordinates":[-72.8268,41.4637]},"properties":{"qid":"Q370472","name":"1878 Wallingford tornado","classes":["aoc_vineyard"],"country":"US","wikipedia":"https://en.wikipedia.org/wiki/1878_Wallingford_tornado"}},{"type":"Feature","id":"wd/Q854898","geometry":{"type":"Point","coordinates":[-43.19639,-22.90833]},"properties":{"qid":"Q854898","name":"January 2011 Rio de Janeiro floods and mudslides","classes":["aoc_vineyard"],"country":"BR","image":"https://commons.wikimedia.org/wiki/Special:FilePath/FOTOREPORTERDSCF2211.jpg","wikipedia":"https://en.wikipedia.org/wiki/January_2011_Rio_de_Janeiro_floods_and_mudslides"}},{"type":"Feature","id":"wd/Q382170","geometry":{"type":"Point","coordinates":[-119.613,34.3317]},"properties":{"qid":"Q382170","name":"1969 Santa Barbara oil spill","classes":["aoc_vineyard"],"country":"US","image":"https://commons.wikimedia.org/wiki/Special:FilePath/1969%20Santa%20Barbara%20Oil%20Spill%20CA.jpg","wikipedia":"https://en.wikipedia.org/wiki/1969_Santa_Barbara_oil_spill"}},{"type":"Feature","id":"wd/Q327576","geometry":{"type":"Point","coordinates":[34.2824,27.8598]},"properties":{"qid":"Q327576","name":"2005 Sharm el-Sheikh attacks","classes":["aoc_vineyard"],"country":"EG","image":"https://commons.wikimedia.org/wiki/Special:FilePath/Sharm%20el%20Sheikh%20map.png","parent_qid":"Q7703930","parent_name":"terrorism in Egypt","wikipedia":"https://en.wikipedia.org/wiki/2005_Sharm_El_Sheikh_bombings"}},{"type":"Feature","id":"wd/Q85125","geometry":{"type":"Point","coordinates":[90.0,65.0]},"properties":{"qid":"Q85125","name":"population transfer in the Soviet Union","classes":["aoc_vineyard"],"wikipedia":"https://en.wikipedia.org/wiki/Population_transfer_in_the_Soviet_Union"}},{"type":"Feature","id":"wd/Q909737","geometry":{"type":"Point","coordinates":[-99.13611,19.45167]},"properties":{"qid":"Q909737","name":"Tlatelolco massacre","classes":["aoc_vineyard"],"country":"MX","image":"https://commons.wikimedia.org/wiki/Special:FilePath/15-07-20-Plaza-de-las-tres-Culturas-RalfR-N3S%209336.jpg","wikipedia":"https://en.wikipedia.org/wiki/Tlatelolco_massacre"}},{"type":"Feature","id":"wd/Q473893","geometry":{"type":"Point","coordinates":[5.57278,50.645]},"properties":{"qid":"Q473893","name":"2011 Liège attack","classes":["aoc_vineyard"],"country":"BE","image":"https://commons.wikimedia.org/wiki/Special:FilePath/20100722%20liege13.JPG","wikipedia":"https://en.wikipedia.org/wiki/2011_Li%C3%A8ge_attack"}},{"type":"Feature","id":"wd/Q907519","geometry":{"type":"Point","coordinates":[-57.25,44.5]},"properties":{"qid":"Q907519","name":"1929 Grand Banks earthquake","classes":["aoc_vineyard"],"country":"CA","wikipedia":"https://en.wikipedia.org/wiki/1929_Grand_Banks_earthquake"}},{"type":"Feature","id":"wd/Q543309","geometry":{"type":"Point","coordinates":[36.2913,33.5138]},"properties":{"qid":"Q543309","name":"1949 Al-Menashe synagogue attack in Damascus","classes":["aoc_vineyard"],"country":"SY","wikipedia":"https://en.wikipedia.org/wiki/1949_Menarsha_synagogue_bombing"}},{"type":"Feature","id":"wd/Q707547","geometry":{"type":"Point","coordinates":[22.30954,53.28879]},"properties":{"qid":"Q707547","name":"Jedwabne pogrom","classes":["aoc_vineyard"],"country":"PL","image":"https://commons.wikimedia.org/wiki/Special:FilePath/A-438%20Mogi%C5%82a-pomnik%2C%20na%20cmentarzu%20%C5%BCydowskim%2C%201941%20Jedwabne%20B%26W.jpg","wikipedia":"https://en.wikipedia.org/wiki/Jedwabne_pogrom"}},{"type":"Feature","id":"wd/Q546233","geometry":{"type":"Point","coordinates":[0.12755,51.5073]},"properties":{"qid":"Q546233","name":"Great Stink","classes":["aoc_vineyard"],"image":"https://commons.wikimedia.org/wiki/Special:FilePath/The%20silent%20highwayman.jpg","wikipedia":"https://en.wikipedia.org/wiki/Great_Stink"}},{"type":"Feature","id":"wd/Q473866","geometry":{"type":"Point","coordinates":[4.67445,52.14499]},"properties":{"qid":"Q473866","name":"Alphen aan den Rijn shopping mall shooting","classes":["aoc_vineyard"],"image":"https://commons.wikimedia.org/wiki/Special:FilePath/Bloemenzee%20voor%20winkelcentrum%20de%20Ridderhof.jpg","wikipedia":"https://en.wikipedia.org/wiki/Alphen_aan_den_Rijn_shopping_mall_shooting"}},{"type":"Feature","id":"wd/Q473874","geometry":{"type":"Point","coordinates":[7.5302,52.1658]},"properties":{"qid":"Q473874","name":"Emsdetten school shooting","classes":["aoc_vineyard"],"country":"DE","wikipedia":"https://en.wikipedia.org/wiki/Emsdetten_school_shooting"}},{"type":"Feature","id":"wd/Q719153","geometry":{"type":"Point","coordinates":[-117.54,33.9733]},"properties":{"qid":"Q719153","name":"Wineville Chicken Coop Murders","classes":["aoc_vineyard"],"country":"US","wikipedia":"https://en.wikipedia.org/wiki/Wineville_Chicken_Coop_murders"}},{"type":"Feature","id":"wd/Q897779","geometry":{"type":"Point","coordinates":[22.94,40.635]},"properties":{"qid":"Q897779","name":"Great Thessaloniki Fire of 1917","classes":["aoc_vineyard"],"image":"https://commons.wikimedia.org/wiki/Special:FilePath/Thessaloniki-Aerialfire1.png","wikipedia":"https://en.wikipedia.org/wiki/Great_Thessaloniki_Fire_of_1917"}},{"type":"Feature","id":"wd/Q891870","geometry":{"type":"Point","coordinates":[-0.10716,51.52448]},"properties":{"qid":"Q891870","name":"Clerkenwell explosion","classes":["aoc_vineyard"],"image":"https://commons.wikimedia.org/wiki/Special:FilePath/Clerkenwell%20bombing%20house%20of%20detention.jpg","wikipedia":"https://en.wikipedia.org/wiki/Clerkenwell_explosion"}},{"type":"Feature","id":"wd/Q901315","geometry":{"type":"Point","coordinates":[1.4275,43.56722]},"properties":{"qid":"Q901315","name":"Explosion in AZF","classes":["aoc_vineyard"],"country":"FR","image":"https://commons.wikimedia.org/wiki/Special:FilePath/AZF%2020010921%20-15Fi11165-01.jpg","wikipedia":"https://en.wikipedia.org/wiki/Toulouse_chemical_factory_explosion"}},{"type":"Feature","id":"wd/Q714320","geometry":{"type":"Point","coordinates":[120.982,23.772]},"properties":{"qid":"Q714320","name":"1999 Jiji earthquake","classes":["aoc_vineyard"],"country":"TW","image":"https://commons.wikimedia.org/wiki/Special:FilePath/Tonshin%20Building%20collapsed%20after%20921%20earthquake.jpg","wikipedia":"https://en.wikipedia.org/wiki/1999_Jiji_earthquake"}},{"type":"Feature","id":"wd/Q473889","geometry":{"type":"Point","coordinates":[22.18081,62.42948]},"properties":{"qid":"Q473889","name":"Kauhajoki school shooting","classes":["aoc_vineyard"],"country":"FI","image":"https://commons.wikimedia.org/wiki/Special:FilePath/Kauhajoen%20koulusurma.jpg","wikipedia":"https://en.wikipedia.org/wiki/Kauhajoki_school_shooting"}},{"type":"Feature","id":"wd/Q708250","geometry":{"type":"Point","coordinates":[121.689,23.763]},"properties":{"qid":"Q708250","name":"2009 Hualien earthquake","classes":["aoc_vineyard"],"country":"TW","wikipedia":"https://en.wikipedia.org/wiki/2009_Hualien_earthquake"}},{"type":"Feature","id":"wd/Q891877","geometry":{"type":"Point","coordinates":[24.85333,60.26014]},"properties":{"qid":"Q891877","name":"Myyrmanni bombing","classes":["aoc_vineyard"],"country":"FI","image":"https://commons.wikimedia.org/wiki/Special:FilePath/Myyrmannin%20r%C3%A4j%C3%A4hdys.jpg","wikipedia":"https://en.wikipedia.org/wiki/Myyrmanni_bombing"}},{"type":"Feature","id":"wd/Q569255","geometry":{"type":"Point","coordinates":[115.13833,-8.36917]},"properties":{"qid":"Q569255","name":"2005 Bali bombings","classes":["aoc_vineyard"],"country":"ID","image":"https://commons.wikimedia.org/wiki/Special:FilePath/Bali%20blast%202005.jpg","wikipedia":"https://en.wikipedia.org/wiki/2005_Bali_bombings"}},{"type":"Feature","id":"wd/Q473897","geometry":{"type":"Point","coordinates":[-43.41745,-22.88357]},"properties":{"qid":"Q473897","name":"Rio de Janeiro school shooting","classes":["aoc_vineyard"],"country":"BR","image":"https://commons.wikimedia.org/wiki/Special:FilePath/Escola%20Tasso%20da%20Silveira.jpg","wikipedia":"https://en.wikipedia.org/wiki/Rio_de_Janeiro_school_shooting"}},{"type":"Feature","id":"wd/Q473865","geometry":{"type":"Point","coordinates":[10.56972,49.30111]},"properties":{"qid":"Q473865","name":"Ansbach school attack","classes":["aoc_vineyard"],"country":"DE","wikipedia":"https://en.wikipedia.org/wiki/Ansbach_school_attack"}},{"type":"Feature","id":"wd/Q473877","geometry":{"type":"Point","coordinates":[11.01472,50.98139]},"properties":{"qid":"Q473877","name":"Erfurt massacre","classes":["aoc_vineyard"],"country":"DE","image":"https://commons.wikimedia.org/wiki/Special:FilePath/GutenbergGymErfurt.JPG","wikipedia":"https://en.wikipedia.org/wiki/Erfurt_school_massacre"}},{"type":"Feature","id":"wd/Q897762","geometry":{"type":"Point","coordinates":[-74.02687,40.73875]},"properties":{"qid":"Q897762","name":"1900 Hoboken Docks Fire","classes":["aoc_vineyard"],"country":"US","wikipedia":"https://en.wikipedia.org/wiki/1900_Hoboken_Docks_fire"}},{"type":"Feature","id":"wd/Q474092","geometry":{"type":"Point","coordinates":[3.52131,50.98667]},"properties":{"qid":"Q474092","name":"Vinkt Massacre","classes":["aoc_vineyard"],"country":"BE","image":"https://commons.wikimedia.org/wiki/Special:FilePath/Oorlogsmonument%20Tweede%20Wereldoorlog%20-%20Vinkt%20-%20Belgi%C3%AB.jpg","wikipedia":"https://en.wikipedia.org/wiki/Vinkt_massacre"}},{"type":"Feature","id":"wd/Q473868","geometry":{"type":"Point","coordinates":[170.70333,-45.7775]},"properties":{"qid":"Q473868","name":"Aramoana massacre","classes":["aoc_vineyard"],"country":"NZ","image":"https://commons.wikimedia.org/wiki/Special:FilePath/M%C3%A9morial%20de%20Aramoana.JPG","wikipedia":"https://en.wikipedia.org/wiki/Aramoana_massacre"}},{"type":"Feature","id":"wd/Q891879","geometry":{"type":"Point","coordinates":[-0.57175,51.23705]},"properties":{"qid":"Q891879","name":"Guildford pub bombings","classes":["aoc_vineyard"],"country":"GB","image":"https://commons.wikimedia.org/wiki/Special:FilePath/Guildford%20Bombing%20Memorial.jpg","wikipedia":"https://en.wikipedia.org/wiki/Guildford_pub_bombings"}},{"type":"Feature","id":"wd/Q712897","geometry":{"type":"Point","coordinates":[35.299,33.209]},"properties":{"qid":"Q712897","name":"1996 Qana massacre","classes":["aoc_vineyard"],"country":"LB","parent_qid":"Q1473919","parent_name":"Operation Grapes of Wrath","wikipedia":"https://en.wikipedia.org/wiki/Qana_massacre"}},{"type":"Feature","id":"wd/Q569292","geometry":{"type":"Point","coordinates":[41.7978,36.2311]},"properties":{"qid":"Q569292","name":"2007 Yazidi communities bombings","classes":["aoc_vineyard"],"country":"IQ","image":"https://commons.wikimedia.org/wiki/Special:FilePath/Kahtaniya-Iraq.png","wikipedia":"https://en.wikipedia.org/wiki/Qahtaniyah_bombings"}},{"type":"Feature","id":"wd/Q568880","geometry":{"type":"Point","coordinates":[24.41667,35.08333]},"properties":{"qid":"Q568880","name":"massacre of Kondomari","classes":["aoc_vineyard"],"wikipedia":"https://en.wikipedia.org/wiki/Massacre_of_Kondomari"}},{"type":"Feature","id":"wd/Q569232","geometry":{"type":"Point","coordinates":[44.42583,33.30694]},"properties":{"qid":"Q569232","name":"2010 Baghdad church attack","classes":["aoc_vineyard"],"country":"IQ","image":"https://commons.wikimedia.org/wiki/Special:FilePath/Sayedat%20al-najat.JPG","parent_qid":"Q17514348","parent_name":"persecution of Christians by the Islamic State","wikipedia":"https://en.wikipedia.org/wiki/2010_Baghdad_church_siege"}},{"type":"Feature","id":"wd/Q473859","geometry":{"type":"Point","coordinates":[16.98117,48.20548]},"properties":{"qid":"Q473859","name":"2010 Bratislava shooting","classes":["aoc_vineyard"],"image":"https://commons.wikimedia.org/wiki/Special:FilePath/Slovakia%20Bratislava%20DevinskaNovaVes02.JPG","wikipedia":"https://en.wikipedia.org/wiki/2010_Bratislava_shooting"}},{"type":"Feature","id":"wd/Q707956","geometry":{"type":"Point","coordinates":[116.8,39.8]},"properties":{"qid":"Q707956","name":"Tungchow Mutiny","classes":["aoc_vineyard"],"image":"https://commons.wikimedia.org/wiki/Special:FilePath/Occupied%20Tongzhou%20by%20IJA.JPG","wikipedia":"https://en.wikipedia.org/wiki/Tongzhou_mutiny"}},{"type":"Feature","id":"wd/Q906933","geometry":{"type":"Point","coordinates":[-73.2786,41.42]},"properties":{"qid":"Q906933","name":"Sandy Hook Elementary School shooting","classes":["aoc_vineyard"],"country":"US","image":"https://commons.wikimedia.org/wiki/Special:FilePath/Police%20at%20Sandy%20Hook.PNG","parent_qid":"Q6637354","parent_name":"list of school shootings in the United States","wikipedia":"https://en.wikipedia.org/wiki/Sandy_Hook_Elementary_School_shooting"}},{"type":"Feature","id":"wd/Q897768","geometry":{"type":"Point","coordinates":[-71.06833,42.35]},"properties":{"qid":"Q897768","name":"Cocoanut Grove fire","classes":["aoc_vineyard"],"country":"US","wikipedia":"https://en.wikipedia.org/wiki/Cocoanut_Grove_fire"}},{"type":"Feature","id":"wd/Q473862","geometry":{"type":"Point","coordinates":[-97.79639,31.1425]},"properties":{"qid":"Q473862","name":"2009 Fort Hood shooting","classes":["aoc_vineyard"],"country":"US","image":"https://commons.wikimedia.org/wiki/Special:FilePath/Army%20mil-55427-2009-11-07-171121.jpg","wikipedia":"https://en.wikipedia.org/wiki/2009_Fort_Hood_shooting"}},{"type":"Feature","id":"wd/Q569278","geometry":{"type":"Point","coordinates":[-58.38019,-34.59156]},"properties":{"qid":"Q569278","name":"1992 attack on Israeli embassy in Buenos Aires","classes":["aoc_vineyard"],"country":"AR","image":"https://commons.wikimedia.org/wiki/Special:FilePath/Arroyo%20910%20-%20Embajada%20de%20Israel%20en%20Argentina.jpg","wikipedia":"https://en.wikipedia.org/wiki/1992_Buenos_Aires_Israeli_embassy_bombing"}},{"type":"Feature","id":"wd/Q550756","geometry":{"type":"Point","coordinates":[37.6391,55.8874]},"properties":{"qid":"Q550756","name":"2012 Moscow shooting","classes":["aoc_vineyard"],"country":"RU","wikipedia":"https://en.wikipedia.org/wiki/2012_Moscow_shooting"}},{"type":"Feature","id":"wd/Q912835","geometry":{"type":"Point","coordinates":[-118.4,34.41]},"properties":{"qid":"Q912835","name":"1971 San Fernando earthquake","classes":["aoc_vineyard"],"country":"US","image":"https://commons.wikimedia.org/wiki/Special:FilePath/USGS%20-%201971%20San%20Fernando%20earthquake%20-%20San%20Gabriel%20Mountains%20-%20Veterans%20Hospital.jpg","wikipedia":"https://en.wikipedia.org/wiki/1971_San_Fernando_earthquake"}},{"type":"Feature","id":"wd/Q473896","geometry":{"type":"Point","coordinates":[-117.05417,32.55589]},"properties":{"qid":"Q473896","name":"San Ysidro McDonald's massacre","classes":["aoc_vineyard"],"country":"US","image":"https://commons.wikimedia.org/wiki/Special:FilePath/Mcdonaldsmassacre.jpg","wikipedia":"https://en.wikipedia.org/wiki/San_Ysidro_McDonald%27s_massacre"}},{"type":"Feature","id":"wd/Q559291","geometry":{"type":"Point","coordinates":[20.98351,52.23869]},"properties":{"qid":"Q559291","name":"Wola massacre","classes":["aoc_vineyard"],"country":"PL","image":"https://commons.wikimedia.org/wiki/Special:FilePath/Bundesarchiv%20Bild%20101I-695-0412-15%2C%20Warschauer%20Aufstand%2C%20Zivilisten.jpg","wikipedia":"https://en.wikipedia.org/wiki/Wola_massacre"}},{"type":"Feature","id":"wd/Q898037","geometry":{"type":"Point","coordinates":[6.766,51.282]},"properties":{"qid":"Q898037","name":"Düsseldorf Airport fire","classes":["aoc_vineyard"],"country":"DE","wikipedia":"https://en.wikipedia.org/wiki/D%C3%BCsseldorf_Airport_fire"}},{"type":"Feature","id":"wd/Q708503","geometry":{"type":"Point","coordinates":[120.5,23.1]},"properties":{"qid":"Q708503","name":"1964 Baihe earthquake","classes":["aoc_vineyard"],"country":"TW","wikipedia":"https://en.wikipedia.org/wiki/1964_Baihe_earthquake"}},{"type":"Feature","id":"wd/Q897786","geometry":{"type":"Point","coordinates":[-77.00889,38.88972]},"properties":{"qid":"Q897786","name":"Burning of Washington","classes":["aoc_vineyard"],"country":"US","image":"https://commons.wikimedia.org/wiki/Special:FilePath/British%20Burning%20Washington.jpg","parent_qid":"Q26013","parent_name":"War of 1812","wikipedia":"https://en.wikipedia.org/wiki/Burning_of_Washington"}},{"type":"Feature","id":"wd/Q897785","geometry":{"type":"Point","coordinates":[37.63,55.75]},"properties":{"qid":"Q897785","name":"Fire of Moscow","classes":["aoc_vineyard"],"image":"https://commons.wikimedia.org/wiki/Special:FilePath/Napoleon%20Moscow%20Fire.JPG","parent_qid":"Q179250","parent_name":"French invasion of Russia","wikipedia":"https://en.wikipedia.org/wiki/Fire_of_Moscow_(1812)"}},{"type":"Feature","id":"wd/Q477444","geometry":{"type":"Point","coordinates":[-120.3,35.7]},"properties":{"qid":"Q477444","name":"1857 Fort Tejon earthquake","classes":["aoc_vineyard"],"country":"US","image":"https://commons.wikimedia.org/wiki/Special:FilePath/San-Andreas-Spalte.jpg","wikipedia":"https://en.wikipedia.org/wiki/1857_Fort_Tejon_earthquake"}},{"type":"Feature","id":"wd/Q548057","geometry":{"type":"Point","coordinates":[35.485,33.90139]},"properties":{"qid":"Q548057","name":"1983 United States embassy bombing","classes":["aoc_vineyard"],"country":"LB","image":"https://commons.wikimedia.org/wiki/Special:FilePath/Beirutembassy.jpg","parent_qid":"Q208484","parent_name":"Lebanese Civil War","wikipedia":"https://en.wikipedia.org/wiki/1983_US_embassy_bombing_in_Beirut"}},{"type":"Feature","id":"wd/Q715495","geometry":{"type":"Point","coordinates":[144.0,39.5]},"properties":{"qid":"Q715495","name":"1896 Sanriku earthquake","classes":["aoc_vineyard"],"country":"US","image":"https://commons.wikimedia.org/wiki/Special:FilePath/Sanriku%20Great%20Tsunami.JPG","wikipedia":"https://en.wikipedia.org/wiki/1896_Sanriku_earthquake"}},{"type":"Feature","id":"wd/Q891878","geometry":{"type":"Point","coordinates":[-1.9025,52.48]},"properties":{"qid":"Q891878","name":"Birmingham pub bombings","classes":["aoc_vineyard"],"country":"GB","image":"https://commons.wikimedia.org/wiki/Special:FilePath/New%20Street%20-Birmingham%20-England.jpg","parent_qid":"Q815436","parent_name":"The Troubles","wikipedia":"https://en.wikipedia.org/wiki/Birmingham_pub_bombings"}},{"type":"Feature","id":"wd/Q473880","geometry":{"type":"Point","coordinates":[-1.52,51.41]},"properties":{"qid":"Q473880","name":"Hungerford massacre","classes":["aoc_vineyard"],"country":"GB","wikipedia":"https://en.wikipedia.org/wiki/Hungerford_massacre"}},{"type":"Feature","id":"wd/Q552243","geometry":{"type":"Point","coordinates":[30.73989,46.47826]},"properties":{"qid":"Q552243","name":"Anti-Jewish Odessa pogroms","classes":["aoc_vineyard"],"parent_qid":"Q247735","parent_name":"Anti-Jewish pogroms in the Russian Empire","wikipedia":"https://en.wikipedia.org/wiki/Odessa_pogroms"}},{"type":"Feature","id":"wd/Q473863","geometry":{"type":"Point","coordinates":[-85.8767,31.0381]},"properties":{"qid":"Q473863","name":"Geneva County massacre","classes":["aoc_vineyard"],"country":"US","wikipedia":"https://en.wikipedia.org/wiki/Geneva_County_massacre"}},{"type":"Feature","id":"wd/Q895905","geometry":{"type":"Point","coordinates":[173.745,-35.047]},"properties":{"qid":"Q895905","name":"Boyd massacre","classes":["aoc_vineyard"],"country":"NZ","image":"https://commons.wikimedia.org/wiki/Special:FilePath/Louis%20John%20Steel%20-%20The%20blowing%20up%20of%20the%20Boyd%20Steele%20%281889%29.jpg","wikipedia":"https://en.wikipedia.org/wiki/Boyd_massacre"}},{"type":"Feature","id":"wd/Q716629","geometry":{"type":"Point","coordinates":[112.24528,29.15556]},"properties":{"qid":"Q716629","name":"Changjiao massacre","classes":["aoc_vineyard"],"country":"CN","parent_qid":"Q170314","parent_name":"Second Sino-Japanese War","wikipedia":"https://en.wikipedia.org/wiki/Changjiao_massacre"}},{"type":"Feature","id":"wd/Q710356","geometry":{"type":"Point","coordinates":[120.78083,22.15194]},"properties":{"qid":"Q710356","name":"Mudan Incident of 1871","classes":["aoc_vineyard"],"image":"https://commons.wikimedia.org/wiki/Special:FilePath/Mudan%20Incident%20of%201871%20tombstone.jpg","wikipedia":"https://en.wikipedia.org/wiki/Mudan_incident"}},{"type":"Feature","id":"wd/Q708189","geometry":{"type":"Point","coordinates":[121.25694,38.85083]},"properties":{"qid":"Q708189","name":"Port Arthur massacre","classes":["aoc_vineyard"],"wikipedia":"https://en.wikipedia.org/wiki/Port_Arthur_massacre_(China)"}},{"type":"Feature","id":"wd/Q473894","geometry":{"type":"Point","coordinates":[2.20574,48.8923]},"properties":{"qid":"Q473894","name":"Nanterre massacre","classes":["aoc_vineyard"],"country":"FR","wikipedia":"https://en.wikipedia.org/wiki/Nanterre_massacre"}},{"type":"Feature","id":"wd/Q473845","geometry":{"type":"Point","coordinates":[-105.07472,39.60333]},"properties":{"qid":"Q473845","name":"Columbine High School massacre","classes":["aoc_vineyard"],"country":"US","image":"https://commons.wikimedia.org/wiki/Special:FilePath/Columbine%20Shooting%20Security%20Camera.jpg","wikipedia":"https://en.wikipedia.org/wiki/Columbine_High_School_massacre"}},{"type":"Feature","id":"wd/Q897772","geometry":{"type":"Point","coordinates":[-87.62861,41.88472]},"properties":{"qid":"Q897772","name":"Iroquois Theatre fire","classes":["aoc_vineyard"],"country":"US","image":"https://commons.wikimedia.org/wiki/Special:FilePath/IroquoisTheater.jpg","wikipedia":"https://en.wikipedia.org/wiki/Iroquois_Theatre_fire"}},{"type":"Feature","id":"wd/Q476345","geometry":{"type":"Point","coordinates":[7.7458,48.5833]},"properties":{"qid":"Q476345","name":"Strasbourg massacre","classes":["aoc_vineyard"],"image":"https://commons.wikimedia.org/wiki/Special:FilePath/Doutielt1.jpg","wikipedia":"https://en.wikipedia.org/wiki/Strasbourg_massacre"}},{"type":"Feature","id":"wd/Q547328","geometry":{"type":"Point","coordinates":[-6.45086,54.21547]},"properties":{"qid":"Q547328","name":"Kingsmill massacre","classes":["aoc_vineyard"],"country":"GB","wikipedia":"https://en.wikipedia.org/wiki/Kingsmill_massacre"}},{"type":"Feature","id":"wd/Q569287","geometry":{"type":"Point","coordinates":[11.34292,44.50597]},"properties":{"qid":"Q569287","name":"Bologna massacre","classes":["aoc_vineyard"],"country":"IT","image":"https://commons.wikimedia.org/wiki/Special:FilePath/Stragedibologna-2.jpg","wikipedia":"https://en.wikipedia.org/wiki/Bologna_massacre"}},{"type":"Feature","id":"wd/Q712907","geometry":{"type":"Point","coordinates":[106.682,10.7694]},"properties":{"qid":"Q712907","name":"1964 Brinks Hotel bombing","classes":["aoc_vineyard"],"image":"https://commons.wikimedia.org/wiki/Special:FilePath/1964%20Brinks%20Hotel%20bombing.JPG","wikipedia":"https://en.wikipedia.org/wiki/1964_Brinks_Hotel_bombing"}},{"type":"Feature","id":"wd/Q477332","geometry":{"type":"Point","coordinates":[20.37,54.72]},"properties":{"qid":"Q477332","name":"Metgethen massacre","classes":["aoc_vineyard"],"image":"https://commons.wikimedia.org/wiki/Special:FilePath/Germans%20killed%20by%20Soviet%20army.jpg","parent_qid":"Q362","parent_name":"World War II","wikipedia":"https://en.wikipedia.org/wiki/Metgethen_massacre"}},{"type":"Feature","id":"wd/Q473856","geometry":{"type":"Point","coordinates":[8.78638,53.09359]},"properties":{"qid":"Q473856","name":"Bremen school shooting","classes":["aoc_vineyard"],"wikipedia":"https://en.wikipedia.org/wiki/Bremen_school_shooting"}},{"type":"Feature","id":"wd/Q897803","geometry":{"type":"Point","coordinates":[-100.35493,25.67416]},"properties":{"qid":"Q897803","name":"2011 Monterrey casino attack","classes":["aoc_vineyard"],"country":"MX","image":"https://commons.wikimedia.org/wiki/Special:FilePath/Casino%20Royale%20Monterrey.jpg","parent_qid":"Q475678","parent_name":"Mexican drug war","wikipedia":"https://en.wikipedia.org/wiki/2011_Monterrey_casino_attack"}},{"type":"Feature","id":"wd/Q897808","geometry":{"type":"Point","coordinates":[37.02,39.75]},"properties":{"qid":"Q897808","name":"Sivas massacre","classes":["aoc_vineyard"],"country":"TR","image":"https://commons.wikimedia.org/wiki/Special:FilePath/2%20Temmuz%20K%C3%BClt%C3%BCr%20%C5%9Eehitleri%20An%C4%B1t%C4%B1%2C%20Kar%C5%9F%C4%B1yaka%20Mezarl%C4%B1%C4%9F%C4%B1%2C%20Ankara.jpg","wikipedia":"https://en.wikipedia.org/wiki/Sivas_massacre"}},{"type":"Feature","id":"wd/Q866653","geometry":{"type":"Point","coordinates":[121.435,31.2375]},"properties":{"qid":"Q866653","name":"2010 Shanghai fire","classes":["aoc_vineyard"],"country":"CN","image":"https://commons.wikimedia.org/wiki/Special:FilePath/Shanghai%20jiaozhou%20road%20fire.jpg","wikipedia":"https://en.wikipedia.org/wiki/2010_Shanghai_fire"}},{"type":"Feature","id":"wd/Q529783","geometry":{"type":"Point","coordinates":[5.4,43.7]},"properties":{"qid":"Q529783","name":"1909 Lambesc earthquake","classes":["aoc_vineyard"],"country":"FR","image":"https://commons.wikimedia.org/wiki/Special:FilePath/Vern%C3%A8gues%20-%20tremblement%20de%20terre%20du%2011%20juin%201909%20%281%29.jpg","wikipedia":"https://en.wikipedia.org/wiki/1909_Provence_earthquake"}},{"type":"Feature","id":"wd/Q430700","geometry":{"type":"Point","coordinates":[27.945,54.335]},"properties":{"qid":"Q430700","name":"Khatyn massacre","classes":["aoc_vineyard"],"country":"BY","wikipedia":"https://en.wikipedia.org/wiki/Khatyn_massacre"}},{"type":"Feature","id":"wd/Q150495","geometry":{"type":"Point","coordinates":[99.949,20.705]},"properties":{"qid":"Q150495","name":"2011 Tarlay earthquake","classes":["aoc_vineyard"],"country":"LA","wikipedia":"https://en.wikipedia.org/wiki/2011_Shan_earthquake"}},{"type":"Feature","id":"wd/Q455408","geometry":{"type":"Point","coordinates":[-89.6,36.4]},"properties":{"qid":"Q455408","name":"1812 New Madrid earthquake","classes":["aoc_vineyard"],"country":"US","image":"https://commons.wikimedia.org/wiki/Special:FilePath/New%20Madrid%20Erdbeben.jpg","wikipedia":"https://en.wikipedia.org/wiki/1811%E2%80%931812_New_Madrid_earthquakes"}},{"type":"Feature","id":"wd/Q699527","geometry":{"type":"Point","coordinates":[-3.18722,58.85083]},"properties":{"qid":"Q699527","name":"Scuttling of the German Fleet in Scapa Flow","classes":["aoc_vineyard"],"image":"https://commons.wikimedia.org/wiki/Special:FilePath/SMS%20Bayern%20sinking.jpg","parent_qid":"Q361","parent_name":"World War I","wikipedia":"https://en.wikipedia.org/wiki/Scuttling_of_the_German_fleet_at_Scapa_Flow"}},{"type":"Feature","id":"wd/Q460731","geometry":{"type":"Point","coordinates":[174.77167,-36.84222]},"properties":{"qid":"Q460731","name":"sinking of the Rainbow Warrior","classes":["aoc_vineyard"],"country":"NZ","image":"https://commons.wikimedia.org/wiki/Special:FilePath/Pacific%20Nuclear%20Testing-%20a%20French%20letter%20to%20the%20NZ%20Embassy%20in%20Paris%20%2827726454900%29.jpg","wikipedia":"https://en.wikipedia.org/wiki/Sinking_of_the_Rainbow_Warrior"}},{"type":"Feature","id":"wd/Q424764","geometry":{"type":"Point","coordinates":[-88.4553,47.2484]},"properties":{"qid":"Q424764","name":"Italian Hall disaster","classes":["aoc_vineyard"],"country":"US","wikipedia":"https://en.wikipedia.org/wiki/Italian_Hall_disaster"}},{"type":"Feature","id":"wd/Q863582","geometry":{"type":"Point","coordinates":[139.74889,35.67056]},"properties":{"qid":"Q863582","name":"Toranomon Incident","classes":["aoc_vineyard"],"image":"https://commons.wikimedia.org/wiki/Special:FilePath/Monument%20of%20Toranomon%20-01.jpg","wikipedia":"https://en.wikipedia.org/wiki/Toranomon_incident"}},{"type":"Feature","id":"wd/Q456343","geometry":{"type":"Point","coordinates":[13.33417,52.49472]},"properties":{"qid":"Q456343","name":"Mykonos restaurant assassinations","classes":["aoc_vineyard"],"country":"DE","image":"https://commons.wikimedia.org/wiki/Special:FilePath/Wilmersdorf%20Prager%20Stra%C3%9Fe-4.jpg","parent_qid":"Q6328021","parent_name":"KDPI insurgency","wikipedia":"https://en.wikipedia.org/wiki/Mykonos_restaurant_assassinations"}},{"type":"Feature","id":"wd/Q867691","geometry":{"type":"Point","coordinates":[110.458,-7.962]},"properties":{"qid":"Q867691","name":"May 2006 Java earthquake","classes":["aoc_vineyard"],"country":"ID","image":"https://commons.wikimedia.org/wiki/Special:FilePath/Jakarta%20Earthquake%20Epicenter.gif","wikipedia":"https://en.wikipedia.org/wiki/2006_Yogyakarta_earthquake"}},{"type":"Feature","id":"wd/Q523680","geometry":{"type":"Point","coordinates":[-2.934,54.895]},"properties":{"qid":"Q523680","name":"Appin Murder","classes":["aoc_vineyard"],"country":"GB","image":"https://commons.wikimedia.org/wiki/Special:FilePath/Seumas%20a%27%20Ghlinne%20memorial%20cairn-geograph.org.uk-1651543.jpg","wikipedia":"https://en.wikipedia.org/wiki/Appin_Murder"}},{"type":"Feature","id":"wd/Q406588","geometry":{"type":"Point","coordinates":[-12.81667,51.06]},"properties":{"qid":"Q406588","name":"Air India Flight 182","classes":["aoc_vineyard"],"image":"https://commons.wikimedia.org/wiki/Special:FilePath/1985-06-10%20VT-EFO%20Air%20India%20EGLL.jpg","wikipedia":"https://en.wikipedia.org/wiki/Air_India_Flight_182"}},{"type":"Feature","id":"wd/Q386242","geometry":{"type":"Point","coordinates":[3.86763,50.6685]},"properties":{"qid":"Q386242","name":"Ghislenghien gas explosion","classes":["aoc_vineyard"],"country":"BE","wikipedia":"https://en.wikipedia.org/wiki/Ghislenghien_disaster"}},{"type":"Feature","id":"wd/Q867316","geometry":{"type":"Point","coordinates":[-73.99528,40.73]},"properties":{"qid":"Q867316","name":"Triangle Shirtwaist Factory fire","classes":["aoc_vineyard"],"country":"US","image":"https://commons.wikimedia.org/wiki/Special:FilePath/Image%20of%20Triangle%20Shirtwaist%20Factory%20fire%20on%20March%2025%20-%201911.jpg","wikipedia":"https://en.wikipedia.org/wiki/Triangle_Shirtwaist_Factory_fire"}},{"type":"Feature","id":"wd/Q460887","geometry":{"type":"Point","coordinates":[-2.95986,53.44267]},"properties":{"qid":"Q460887","name":"murder of James Bulger","classes":["aoc_vineyard"],"country":"GB","wikipedia":"https://en.wikipedia.org/wiki/Murder_of_James_Bulger"}},{"type":"Feature","id":"wd/Q444959","geometry":{"type":"Point","coordinates":[8.589,50.0526]},"properties":{"qid":"Q444959","name":"2011 Frankfurt Airport shooting","classes":["aoc_vineyard"],"country":"DE","wikipedia":"https://en.wikipedia.org/wiki/2011_Frankfurt_Airport_shooting"}},{"type":"Feature","id":"wd/Q698921","geometry":{"type":"Point","coordinates":[120.54,21.83]},"properties":{"qid":"Q698921","name":"2006 Hengchun earthquake","classes":["aoc_vineyard"],"country":"TW","wikipedia":"https://en.wikipedia.org/wiki/2006_Hengchun_earthquakes"}},{"type":"Feature","id":"wd/Q383991","geometry":{"type":"Point","coordinates":[93.072,2.348]},"properties":{"qid":"Q383991","name":"2012 Indian Ocean earthquakes","classes":["aoc_vineyard"],"country":"ID","wikipedia":"https://en.wikipedia.org/wiki/2012_Indian_Ocean_earthquakes"}},{"type":"Feature","id":"wd/Q428208","geometry":{"type":"Point","coordinates":[27.53,40.02]},"properties":{"qid":"Q428208","name":"Yenice–Gönen earthquake of 1953","classes":["aoc_vineyard"],"country":"TR","wikipedia":"https://en.wikipedia.org/wiki/1953_Yenice%E2%80%93G%C3%B6nen_earthquake"}},{"type":"Feature","id":"wd/Q431888","geometry":{"type":"Point","coordinates":[16.52139,31.19556]},"properties":{"qid":"Q431888","name":"killing of Muammar Gaddafi","classes":["aoc_vineyard"],"country":"LY","image":"https://commons.wikimedia.org/wiki/Special:FilePath/2011%20Battle%20of%20Sirte.svg","parent_qid":"Q81545","parent_name":"Libyan Civil War","wikipedia":"https://en.wikipedia.org/wiki/Killing_of_Muammar_Gaddafi"}},{"type":"Feature","id":"wd/Q698231","geometry":{"type":"Point","coordinates":[120.75,24.3]},"properties":{"qid":"Q698231","name":"1935 Hsinchu-Taichung earthquake","classes":["aoc_vineyard"],"image":"https://commons.wikimedia.org/wiki/Special:FilePath/1935%20Taiwan%20earthquake.jpg","wikipedia":"https://en.wikipedia.org/wiki/1935_Shinchiku-Taich%C5%AB_earthquake"}},{"type":"Feature","id":"wd/Q386799","geometry":{"type":"Point","coordinates":[17.49583,47.08861]},"properties":{"qid":"Q386799","name":"Ajka alumina plant accident","classes":["aoc_vineyard"],"country":"HU","image":"https://commons.wikimedia.org/wiki/Special:FilePath/Ajka%20accident%20d38e36f0e9%20b.jpg","wikipedia":"https://en.wikipedia.org/wiki/Ajka_alumina_plant_accident"}},{"type":"Feature","id":"wd/Q151835","geometry":{"type":"Point","coordinates":[-72.733,-35.909]},"properties":{"qid":"Q151835","name":"2010 Chile earthquake","classes":["aoc_vineyard"],"country":"CL","image":"https://commons.wikimedia.org/wiki/Special:FilePath/2010%20Chile%20earthquake%20-%20Building%20destroyed%20in%20Concepci%C3%B3n.jpg","wikipedia":"https://en.wikipedia.org/wiki/2010_Chile_earthquake"}},{"type":"Feature","id":"wd/Q444003","geometry":{"type":"Point","coordinates":[9.953,53.5517]},"properties":{"qid":"Q444003","name":"Altona Bloody Sunday","classes":["aoc_vineyard"],"country":"DE","wikipedia":"https://en.wikipedia.org/wiki/Altona_Bloody_Sunday"}},{"type":"Feature","id":"wd/Q699787","geometry":{"type":"Point","coordinates":[120.975,14.59]},"properties":{"qid":"Q699787","name":"Manila massacre","classes":["aoc_vineyard"],"image":"https://commons.wikimedia.org/wiki/Special:FilePath/Manila%20Walled%20City%20Destruction%20May%201945.jpg","parent_qid":"Q696931","parent_name":"Battle of Manila","wikipedia":"https://en.wikipedia.org/wiki/Manila_massacre"}},{"type":"Feature","id":"wd/Q460143","geometry":{"type":"Point","coordinates":[-95.2359,38.96427]},"properties":{"qid":"Q460143","name":"Lawrence Massacre","classes":["aoc_vineyard"],"country":"US","image":"https://commons.wikimedia.org/wiki/Special:FilePath/Battle%20of%20Lawrence.png","parent_qid":"Q8676","parent_name":"American Civil War","wikipedia":"https://en.wikipedia.org/wiki/Lawrence_Massacre"}},{"type":"Feature","id":"wd/Q428045","geometry":{"type":"Point","coordinates":[24.858,60.629]},"properties":{"qid":"Q428045","name":"Hyvinkää shooting","classes":["aoc_vineyard"],"country":"FI","wikipedia":"https://en.wikipedia.org/wiki/Hyvink%C3%A4%C3%A4_shooting"}},{"type":"Feature","id":"wd/Q386352","geometry":{"type":"Point","coordinates":[135.865,35.0069]},"properties":{"qid":"Q386352","name":"Ōtsu incident","classes":["aoc_vineyard"],"image":"https://commons.wikimedia.org/wiki/Special:FilePath/Attentat%20contre%20le%20tsar%C3%A9vitch%20au%20Japon%20%28Gironde%20illustr%C3%A9e%2C%201891-05-24%29.JPEG","parent_qid":"Q2471929","parent_name":"Eastern journey of Nicholas II","wikipedia":"https://en.wikipedia.org/wiki/%C5%8Ctsu_incident"}},{"type":"Feature","id":"wd/Q386230","geometry":{"type":"Point","coordinates":[-61.1675,14.8075]},"properties":{"qid":"Q386230","name":"1902 eruption of Mount Pelée","classes":["aoc_vineyard"],"country":"FR","image":"https://commons.wikimedia.org/wiki/Special:FilePath/The%20National%20geographic%20magazine%20%281902%29%20%2814595295848%29.jpg","wikipedia":"https://en.wikipedia.org/wiki/1902_eruption_of_Mount_Pel%C3%A9e"}},{"type":"Feature","id":"wd/Q386074","geometry":{"type":"Point","coordinates":[63.65982,45.97542]},"properties":{"qid":"Q386074","name":"Nedelin catastrophe","classes":["aoc_vineyard"],"image":"https://commons.wikimedia.org/wiki/Special:FilePath/%D0%9F%D0%B0%D0%BC%D1%8F%D1%82%D0%BD%D0%B8%D0%BA%20%D1%80%D0%B0%D0%BA%D0%B5%D1%82%D1%87%D0%B8%D0%BA%D0%B0%D0%BC%2C%20%D0%BF%D0%BE%D0%B3%D0%B8%D0%B1%D1%88%D0%B8%D1%85%20%D0%BF%D1%80%D0%B8%20%D0%B2%D0%B7%D1%80%D1%8B%D0%B2%D0%B5%20%D1%80%D0%B0%D0%BA%D0%B5%D1%82%D1%8B%20%D0%A0-16%2024%20%D0%BE%D0%BA%D1%82%D1%8F%D0%B1%D1%80%D1%8F%201960%20%D0%B3%D0%BE%D0%B4%D0%B0%20%28%D0%91%D0%B0%D0%B9%D0%BA%D0%BE%D0%BD%D1%83%D1%80%29.jpg","wikipedia":"https://en.wikipedia.org/wiki/Nedelin_catastrophe"}},{"type":"Feature","id":"wd/Q520741","geometry":{"type":"Point","coordinates":[19.0592,45.2956]},"properties":{"qid":"Q520741","name":"Vukovar massacre","classes":["aoc_vineyard"],"country":"HR","image":"https://commons.wikimedia.org/wiki/Special:FilePath/Ovcara-Memorial-4.JPG","wikipedia":"https://en.wikipedia.org/wiki/Vukovar_massacre"}},{"type":"Feature","id":"wd/Q699461","geometry":{"type":"Point","coordinates":[123.40333,41.80889]},"properties":{"qid":"Q699461","name":"Huanggutun Incident","classes":["aoc_vineyard"],"image":"https://commons.wikimedia.org/wiki/Special:FilePath/Huanggutun%20Incident.jpg","wikipedia":"https://en.wikipedia.org/wiki/Huanggutun_incident"}},{"type":"Feature","id":"wd/Q384291","geometry":{"type":"Point","coordinates":[-3.3475,51.69472]},"properties":{"qid":"Q384291","name":"Aberfan disaster","classes":["aoc_vineyard"],"country":"GB","image":"https://commons.wikimedia.org/wiki/Special:FilePath/Aberfan%20spoil%20heaps%20post%20disaster.tif","wikipedia":"https://en.wikipedia.org/wiki/Aberfan_disaster"}},{"type":"Feature","id":"wd/Q866062","geometry":{"type":"Point","coordinates":[14.5,37.01667]},"properties":{"qid":"Q866062","name":"Biscari massacre","classes":["aoc_vineyard"],"country":"IT","wikipedia":"https://en.wikipedia.org/wiki/Biscari_massacre"}},{"type":"Feature","id":"wd/Q390710","geometry":{"type":"Point","coordinates":[-66.61353,18.00931]},"properties":{"qid":"Q390710","name":"Ponce massacre","classes":["aoc_vineyard"],"image":"https://commons.wikimedia.org/wiki/Special:FilePath/Ponce%20Massacre.JPG","wikipedia":"https://en.wikipedia.org/wiki/Ponce_massacre"}},{"type":"Feature","id":"wd/Q522837","geometry":{"type":"Point","coordinates":[88.7311,23.9888]},"properties":{"qid":"Q522837","name":"Bengal famine of 1943","classes":["aoc_vineyard"],"image":"https://commons.wikimedia.org/wiki/Special:FilePath/Bengal%20famine%201943%20photo.jpg","wikipedia":"https://en.wikipedia.org/wiki/Bengal_famine_of_1943"}},{"type":"Feature","id":"wd/Q526104","geometry":{"type":"Point","coordinates":[19.02,45.43]},"properties":{"qid":"Q526104","name":"Dalj massacre","classes":["aoc_vineyard"],"wikipedia":"https://en.wikipedia.org/wiki/Dalj_massacre"}},{"type":"Feature","id":"wd/Q401654","geometry":{"type":"Point","coordinates":[-94.98194,40.92972]},"properties":{"qid":"Q401654","name":"Villisca Axe Murders","classes":["aoc_vineyard"],"country":"US","wikipedia":"https://en.wikipedia.org/wiki/Villisca_axe_murders"}},{"type":"Feature","id":"wd/Q383549","geometry":{"type":"Point","coordinates":[27.56194,53.90194]},"properties":{"qid":"Q383549","name":"2011 Minsk Metro bombing","classes":["aoc_vineyard"],"country":"BY","image":"https://commons.wikimedia.org/wiki/Special:FilePath/Cordon%20Minsk%20blast.jpg","wikipedia":"https://en.wikipedia.org/wiki/2011_Minsk_Metro_bombing"}},{"type":"Feature","id":"wd/Q385906","geometry":{"type":"Point","coordinates":[11.50067,46.32058]},"properties":{"qid":"Q385906","name":"Val di Stava dam collapse","classes":["aoc_vineyard"],"country":"IT","wikipedia":"https://en.wikipedia.org/wiki/Val_di_Stava_dam_collapse"}},{"type":"Feature","id":"wd/Q130754","geometry":{"type":"Point","coordinates":[95.982,3.295]},"properties":{"qid":"Q130754","name":"2004 Indian Ocean earthquake","classes":["aoc_vineyard"],"country":"SO","image":"https://commons.wikimedia.org/wiki/Special:FilePath/2004-tsunami.jpg","wikipedia":"https://en.wikipedia.org/wiki/2004_Indian_Ocean_earthquake_and_tsunami"}},{"type":"Feature","id":"wd/Q124693","geometry":{"type":"Point","coordinates":[-70.29,19.631]},"properties":{"qid":"Q124693","name":"Parsley massacre","classes":["aoc_vineyard"],"wikipedia":"https://en.wikipedia.org/wiki/Parsley_massacre"}},{"type":"Feature","id":"wd/Q134301","geometry":{"type":"Point","coordinates":[31.78889,54.77333]},"properties":{"qid":"Q134301","name":"Katyn massacre","classes":["aoc_vineyard"],"image":"https://commons.wikimedia.org/wiki/Special:FilePath/Trzy%20krzyze.jpg","parent_qid":"Q2305266","parent_name":"Soviet invasion of Poland","wikipedia":"https://en.wikipedia.org/wiki/Katyn_massacre"}},{"type":"Feature","id":"wd/Q144604","geometry":{"type":"Point","coordinates":[-121.12722,47.7475]},"properties":{"qid":"Q144604","name":"Wellington, Washington avalanche","classes":["aoc_vineyard"],"country":"US","image":"https://commons.wikimedia.org/wiki/Special:FilePath/Train%20wreckage%20from%20Wellington%20WA%20avalanche%20cph.3b13980.jpg","wikipedia":"https://en.wikipedia.org/wiki/Wellington,_Washington_avalanche"}},{"type":"Feature","id":"wd/Q125955","geometry":{"type":"Point","coordinates":[22.06556,54.52]},"properties":{"qid":"Q125955","name":"Nemmersdorf massacre","classes":["aoc_vineyard"],"image":"https://commons.wikimedia.org/wiki/Special:FilePath/Bundesarchiv%20Bild%20101I-464-0383I-26%2C%20Nemmersdorf%20%28Ostpreu%C3%9Fen%29%2C%20ermordete%20Deutsche.jpg","parent_qid":"Q189266","parent_name":"Eastern Front","wikipedia":"https://en.wikipedia.org/wiki/Nemmersdorf_massacre"}},{"type":"Feature","id":"wd/Q128869","geometry":{"type":"Point","coordinates":[44.03,39.12]},"properties":{"qid":"Q128869","name":"Muradiye earthquake of 1976","classes":["aoc_vineyard"],"country":"TR","wikipedia":"https://en.wikipedia.org/wiki/1976_%C3%87ald%C4%B1ran%E2%80%93Muradiye_earthquake"}},{"type":"Feature","id":"wd/Q136935","geometry":{"type":"Point","coordinates":[90.3126,23.9295]},"properties":{"qid":"Q136935","name":"2012 Dhaka fire","classes":["aoc_vineyard"],"country":"BD","image":"https://commons.wikimedia.org/wiki/Special:FilePath/Tazrin%20garments%20ltd%202012%20Dhaka%20fire%20%28Burned%29.jpg","wikipedia":"https://en.wikipedia.org/wiki/2012_Dhaka_garment_factory_fire"}},{"type":"Feature","id":"wd/Q171178","geometry":{"type":"Point","coordinates":[141.0325,37.42139]},"properties":{"qid":"Q171178","name":"Fukushima Daiichi nuclear disaster","classes":["aoc_vineyard"],"country":"JP","image":"https://commons.wikimedia.org/wiki/Special:FilePath/Appearance%20of%20Fukushima%20I%20Nuclear%20Power%20Plant%20Unit%203%20after%20the%20explosion%2020110315.jpg","parent_qid":"Q1136168","parent_name":"aftermath of the 2011 Tōhoku earthquake and tsunami","wikipedia":"https://en.wikipedia.org/wiki/Fukushima_nuclear_accident"}},{"type":"Feature","id":"wd/Q170334","geometry":{"type":"Point","coordinates":[19.3,44.1]},"properties":{"qid":"Q170334","name":"Srebrenica genocide","classes":["aoc_vineyard"],"country":"BA","image":"https://commons.wikimedia.org/wiki/Special:FilePath/Map%20of%20Bosnia%20and%20Hercegovina%20showing%20Srebrenica.png","parent_qid":"Q181533","parent_name":"War in Bosnia and Herzegovina","wikipedia":"https://en.wikipedia.org/wiki/Srebrenica_massacre"}},{"type":"Feature","id":"wd/Q748301","geometry":{"type":"Point","coordinates":[140.88,39.02833]},"properties":{"qid":"Q748301","name":"2008 Iwate-Miyagi Nairiku earthquake","classes":["aoc_vineyard"],"country":"JP","image":"https://commons.wikimedia.org/wiki/Special:FilePath/%E5%B2%A9%E6%89%8B%E3%83%BB%E5%AE%AE%E5%9F%8E%E5%86%85%E9%99%B8%E5%9C%B0%E9%9C%87%E3%81%AB%E3%82%88%E3%82%8B%E6%B2%B3%E9%81%93%E9%96%89%E5%A1%9E%EF%BC%88%E8%BF%AB%E5%B7%9D%E3%83%BB%E6%A0%97%E5%8E%9F%E5%B8%82%E6%B5%85%E5%B8%83%E5%9C%B0%E5%8C%BA%EF%BC%89.jpg","wikipedia":"https://en.wikipedia.org/wiki/2008_Iwate%E2%80%93Miyagi_Nairiku_earthquake"}},{"type":"Feature","id":"wd/Q751452","geometry":{"type":"Point","coordinates":[18.6983,44.5353]},"properties":{"qid":"Q751452","name":"1992 Yugoslav People's Army column incident in Tuzla","classes":["aoc_vineyard"],"country":"BA","parent_qid":"Q181533","parent_name":"War in Bosnia and Herzegovina","wikipedia":"https://en.wikipedia.org/wiki/1992_Yugoslav_People%27s_Army_column_incident_in_Tuzla"}},{"type":"Feature","id":"wd/Q757963","geometry":{"type":"Point","coordinates":[-90.05757,35.13454]},"properties":{"qid":"Q757963","name":"assassination of Martin Luther King Jr.","classes":["aoc_vineyard"],"country":"US","image":"https://commons.wikimedia.org/wiki/Special:FilePath/Martin%20Luther%20King%20Jr%20NYWTS.jpg","wikipedia":"https://en.wikipedia.org/wiki/Assassination_of_Martin_Luther_King_Jr."}},{"type":"Feature","id":"wd/Q751139","geometry":{"type":"Point","coordinates":[26.76,45.77]},"properties":{"qid":"Q751139","name":"1977 Vrancea earthquake","classes":["aoc_vineyard"],"country":"RO","image":"https://commons.wikimedia.org/wiki/Special:FilePath/1977%20Vrancea%20earthquake.jpg","wikipedia":"https://en.wikipedia.org/wiki/1977_Vrancea_earthquake"}},{"type":"Feature","id":"wd/Q740534","geometry":{"type":"Point","coordinates":[-90.29958,16.91203]},"properties":{"qid":"Q740534","name":"Dos Erres massacre","classes":["aoc_vineyard"],"country":"GT","image":"https://commons.wikimedia.org/wiki/Special:FilePath/ICE%20removes%20former%20member%20of%20Guatemalan%20army%20linked%20to%201982%20massacre%20%2850044957112%29.jpg","wikipedia":"https://en.wikipedia.org/wiki/Dos_Erres_massacre"}},{"type":"Feature","id":"wd/Q924948","geometry":{"type":"Point","coordinates":[40.1,38.807]},"properties":{"qid":"Q924948","name":"Elâzığ earthquake of 2010","classes":["aoc_vineyard"],"country":"TR","image":"https://commons.wikimedia.org/wiki/Special:FilePath/March%202010%20Turkey%20earthquake%20intensity%20USGS.jpg","wikipedia":"https://en.wikipedia.org/wiki/2010_Elaz%C4%B1%C4%9F_earthquake"}},{"type":"Feature","id":"wd/Q921497","geometry":{"type":"Point","coordinates":[-172.034,-15.509]},"properties":{"qid":"Q921497","name":"2009 Samoa earthquake","classes":["aoc_vineyard"],"image":"https://commons.wikimedia.org/wiki/Special:FilePath/2009-09-29%20Samoa%20Island%20Region%20earthquake%20location.jpg","wikipedia":"https://en.wikipedia.org/wiki/2009_Samoa_earthquake_and_tsunami"}},{"type":"Feature","id":"wd/Q924005","geometry":{"type":"Point","coordinates":[156.978,-8.481]},"properties":{"qid":"Q924005","name":"2007 Solomon Islands earthquake","classes":["aoc_vineyard"],"country":"SB","wikipedia":"https://en.wikipedia.org/wiki/2007_Solomon_Islands_earthquake"}},{"type":"Feature","id":"wd/Q749610","geometry":{"type":"Point","coordinates":[-147.65,61.02]},"properties":{"qid":"Q749610","name":"1964 Alaska great earthquake and tsunami","classes":["aoc_vineyard"],"country":"US","image":"https://commons.wikimedia.org/wiki/Special:FilePath/AlaskaQuake-FourthAve.jpg","wikipedia":"https://en.wikipedia.org/wiki/1964_Alaska_earthquake"}},{"type":"Feature","id":"wd/Q571354","geometry":{"type":"Point","coordinates":[40.06,47.47]},"properties":{"qid":"Q571354","name":"Novocherkassk massacre","classes":["aoc_vineyard"],"image":"https://commons.wikimedia.org/wiki/Special:FilePath/%D0%9C%D0%B5%D0%BC%D0%BE%D1%80%D0%B8%D0%B0%D0%BB%D1%8C%D0%BD%D0%B0%D1%8F%20%D0%B4%D0%BE%D1%81%D0%BA%D0%B0%20%D0%B2%20%D0%BF%D0%B0%D0%BC%D1%8F%D1%82%D1%8C%20%D0%BE%20%D0%9D%D0%BE%D0%B2%D0%BE%D1%87%D0%B5%D1%80%D0%BA%D0%B0%D1%81%D1%81%D0%BA%D0%BE%D0%B9%20%D1%82%D1%80%D0%B0%D0%B3%D0%B5%D0%B4%D0%B8%D0%B8%201962.jpg","parent_qid":"Q2991155","parent_name":"political repression in the Soviet Union","wikipedia":"https://en.wikipedia.org/wiki/Novocherkassk_massacre"}},{"type":"Feature","id":"wd/Q939106","geometry":{"type":"Point","coordinates":[97.01611,2.07639]},"properties":{"qid":"Q939106","name":"2005 Sumatra earthquake","classes":["aoc_vineyard"],"country":"ID","image":"https://commons.wikimedia.org/wiki/Special:FilePath/Tsumap.jpg","wikipedia":"https://en.wikipedia.org/wiki/2005_Nias%E2%80%93Simeulue_earthquake"}},{"type":"Feature","id":"wd/Q941606","geometry":{"type":"Point","coordinates":[-80.32632,25.65682]},"properties":{"qid":"Q941606","name":"1986 FBI Miami shootout","classes":["aoc_vineyard"],"country":"US","image":"https://commons.wikimedia.org/wiki/Special:FilePath/Crime%20scene%20photo%20of%20the%20FBI%20Miami%20shootout%2C%20showing%20suspect%20and%20agents%27%20vehicles%20and%20battle%20debris.%20Photo%20by%20Miami-Dade%20PD.jpg","wikipedia":"https://en.wikipedia.org/wiki/1986_FBI_Miami_shootout"}},{"type":"Feature","id":"wd/Q571891","geometry":{"type":"Point","coordinates":[88.064,27.723]},"properties":{"qid":"Q571891","name":"2011 Sikkim earthquake","classes":["aoc_vineyard"],"country":"CN","image":"https://commons.wikimedia.org/wiki/Special:FilePath/2011-Sikkim%20earthquake%20Shakemap.jpg","wikipedia":"https://en.wikipedia.org/wiki/2011_Sikkim_earthquake"}},{"type":"Feature","id":"wd/Q951474","geometry":{"type":"Point","coordinates":[44.38333,35.45]},"properties":{"qid":"Q951474","name":"2009 Kirkuk bombing","classes":["aoc_vineyard"],"image":"https://commons.wikimedia.org/wiki/Special:FilePath/Kirkuk.png","wikipedia":"https://en.wikipedia.org/wiki/2009_Kirkuk_bombing"}},{"type":"Feature","id":"wd/Q569308","geometry":{"type":"Point","coordinates":[7.21333,9.10444]},"properties":{"qid":"Q569308","name":"December 2011 Nigeria bombings","classes":["aoc_vineyard"],"country":"NG","wikipedia":"https://en.wikipedia.org/wiki/Christmas_2011_Nigeria_attacks"}},{"type":"Feature","id":"wd/Q952516","geometry":{"type":"Point","coordinates":[-98.15833,24.8475]},"properties":{"qid":"Q952516","name":"2010 San Fernando massacre","classes":["aoc_vineyard"],"country":"MX","wikipedia":"https://en.wikipedia.org/wiki/2010_San_Fernando_massacre"}},{"type":"Feature","id":"wd/Q750144","geometry":{"type":"Point","coordinates":[171.83,-43.522]},"properties":{"qid":"Q750144","name":"2010 Canterbury earthquake","classes":["aoc_vineyard"],"country":"NZ","wikipedia":"https://en.wikipedia.org/wiki/2010_Canterbury_earthquake"}},{"type":"Feature","id":"wd/Q945668","geometry":{"type":"Point","coordinates":[76.98319,29.30961]},"properties":{"qid":"Q945668","name":"2007 Samjhauta Express bombings","classes":["aoc_vineyard"],"country":"IN","wikipedia":"https://en.wikipedia.org/wiki/2007_Samjhauta_Express_bombings"}},{"type":"Feature","id":"wd/Q738854","geometry":{"type":"Point","coordinates":[96.5,28.5]},"properties":{"qid":"Q738854","name":"1950 Assam–Tibet earthquake","classes":["aoc_vineyard"],"country":"CN","wikipedia":"https://en.wikipedia.org/wiki/1950_Assam%E2%80%93Tibet_earthquake"}},{"type":"Feature","id":"wd/Q955749","geometry":{"type":"Point","coordinates":[-68.816,-32.883]},"properties":{"qid":"Q955749","name":"1985 Mendoza earthquake","classes":["aoc_vineyard"],"country":"AR","wikipedia":"https://en.wikipedia.org/wiki/1985_Mendoza_earthquake"}},{"type":"Feature","id":"wd/Q953414","geometry":{"type":"Point","coordinates":[-46.64069,-23.54958]},"properties":{"qid":"Q953414","name":"Joelma fire","classes":["aoc_vineyard"],"country":"BR","wikipedia":"https://en.wikipedia.org/wiki/Joelma_Building_fire"}},{"type":"Feature","id":"wd/Q934470","geometry":{"type":"Point","coordinates":[28.985,41.03694]},"properties":{"qid":"Q934470","name":"Istanbul pogrom","classes":["aoc_vineyard"],"country":"TR","wikipedia":"https://en.wikipedia.org/wiki/Istanbul_pogrom"}},{"type":"Feature","id":"wd/Q569394","geometry":{"type":"Point","coordinates":[-7.60664,33.57846]},"properties":{"qid":"Q569394","name":"2003 Casablanca bombing","classes":["aoc_vineyard"],"country":"MA","image":"https://commons.wikimedia.org/wiki/Special:FilePath/May%2016%20memorial%20%28cropped%29.png","wikipedia":"https://en.wikipedia.org/wiki/2003_Casablanca_bombings"}},{"type":"Feature","id":"wd/Q757979","geometry":{"type":"Point","coordinates":[-77.0454,38.9161]},"properties":{"qid":"Q757979","name":"attempted assassination of Ronald Reagan","classes":["aoc_vineyard"],"country":"US","image":"https://commons.wikimedia.org/wiki/Special:FilePath/Photograph%20of%20chaos%20outside%20the%20Washington%20Hilton%20Hotel%20after%20the%20assassination%20attempt%20on%20President%20Reagan%20%28white%20border%20removed%29.png","wikipedia":"https://en.wikipedia.org/wiki/Attempted_assassination_of_Ronald_Reagan"}},{"type":"Feature","id":"wd/Q757982","geometry":{"type":"Point","coordinates":[2.23532,48.77883]},"properties":{"qid":"Q757982","name":"Petit-Clamart attack","classes":["aoc_vineyard"],"country":"FR","wikipedia":"https://en.wikipedia.org/wiki/Petit-Clamart_attack"}},{"type":"Feature","id":"wd/Q939859","geometry":{"type":"Point","coordinates":[-89.166,13.666]},"properties":{"qid":"Q939859","name":"1932 Salvadoran peasant massacre","classes":["aoc_vineyard"],"image":"https://commons.wikimedia.org/wiki/Special:FilePath/Mapa%20levantamiento%20campesino%201932.svg","wikipedia":"https://en.wikipedia.org/wiki/La_Matanza"}},{"type":"Feature","id":"wd/Q745411","geometry":{"type":"Point","coordinates":[107.328,-7.778]},"properties":{"qid":"Q745411","name":"2009 West Java earthquake","classes":["aoc_vineyard"],"country":"ID","image":"https://commons.wikimedia.org/wiki/Special:FilePath/2009-September-Java-quake-shake-map-USGS.jpg","wikipedia":"https://en.wikipedia.org/wiki/2009_West_Java_earthquake"}},{"type":"Feature","id":"wd/Q942894","geometry":{"type":"Point","coordinates":[37.53111,55.78722]},"properties":{"qid":"Q942894","name":"Khodynka Tragedy","classes":["aoc_vineyard"],"image":"https://commons.wikimedia.org/wiki/Special:FilePath/Chodynka.jpg","wikipedia":"https://en.wikipedia.org/wiki/Khodynka_Tragedy"}},{"type":"Feature","id":"wd/Q165058","geometry":{"type":"Point","coordinates":[32.0,49.0]},"properties":{"qid":"Q165058","name":"Holodomor","classes":["aoc_vineyard"],"image":"https://commons.wikimedia.org/wiki/Special:FilePath/HolodomorKharkiv%201933%20Wienerberger.jpg","parent_qid":"Q2497254","parent_name":"Soviet famine of 1932–1933","wikipedia":"https://en.wikipedia.org/wiki/Holodomor"}},{"type":"Feature","id":"wd/Q931639","geometry":{"type":"Point","coordinates":[22.30556,55.96111]},"properties":{"qid":"Q931639","name":"Rainiai massacre","classes":["aoc_vineyard"],"country":"LT","image":"https://commons.wikimedia.org/wiki/Special:FilePath/Ceremony%20at%20the%20Memorial%20to%20Rainiai%20massacre%201995.jpg","parent_qid":"Q2655890","parent_name":"NKVD prisoner massacres","wikipedia":"https://en.wikipedia.org/wiki/Rainiai_massacre"}},{"type":"Feature","id":"wd/Q738843","geometry":{"type":"Point","coordinates":[91.0,26.0]},"properties":{"qid":"Q738843","name":"1897 Assam earthquake","classes":["aoc_vineyard"],"wikipedia":"https://en.wikipedia.org/wiki/1897_Assam_earthquake"}},{"type":"Feature","id":"wd/Q924446","geometry":{"type":"Point","coordinates":[-86.1,12.3]},"properties":{"qid":"Q924446","name":"1972 Nicaragua earthquake","classes":["aoc_vineyard"],"country":"NI","image":"https://commons.wikimedia.org/wiki/Special:FilePath/1972Nicaraguaquake2.jpg","wikipedia":"https://en.wikipedia.org/wiki/1972_Nicaragua_earthquake"}},{"type":"Feature","id":"wd/Q734004","geometry":{"type":"Point","coordinates":[49.85209,40.37293]},"properties":{"qid":"Q734004","name":"Black January","classes":["aoc_vineyard"],"image":"https://commons.wikimedia.org/wiki/Special:FilePath/The%20tragedy%20of%20January%2020.jpg","parent_qid":"Q5167679","parent_name":"dissolution of the Soviet Union","wikipedia":"https://en.wikipedia.org/wiki/Black_January"}},{"type":"Feature","id":"wd/Q183421","geometry":{"type":"Point","coordinates":[108.86944,15.17833]},"properties":{"qid":"Q183421","name":"My Lai Massacre","classes":["aoc_vineyard"],"image":"https://commons.wikimedia.org/wiki/Special:FilePath/My%20Lai%20massacre.jpg","parent_qid":"Q8740","parent_name":"Vietnam War","wikipedia":"https://en.wikipedia.org/wiki/My_Lai_massacre"}},{"type":"Feature","id":"wd/Q941312","geometry":{"type":"Point","coordinates":[3.21899,43.3476]},"properties":{"qid":"Q941312","name":"Massacre at Béziers","classes":["aoc_vineyard"],"country":"FR","image":"https://commons.wikimedia.org/wiki/Special:FilePath/Les%20Crois%C3%A9s%20devant%20B%C3%A9ziers%20%281209%29.png","parent_qid":"Q51657","parent_name":"Albigensian Crusade","wikipedia":"https://en.wikipedia.org/wiki/Massacre_at_B%C3%A9ziers"}},{"type":"Feature","id":"wd/Q929108","geometry":{"type":"Point","coordinates":[173.7,-41.8]},"properties":{"qid":"Q929108","name":"1848 Marlborough earthquake","classes":["aoc_vineyard"],"country":"NZ","wikipedia":"https://en.wikipedia.org/wiki/1848_Marlborough_earthquake"}},{"type":"Feature","id":"wd/Q746131","geometry":{"type":"Point","coordinates":[125.34194,-8.5875]},"properties":{"qid":"Q746131","name":"Liquiçá Church massacre","classes":["aoc_vineyard"],"country":"TL","parent_qid":"Q28136238","parent_name":"East Timor genocide","wikipedia":"https://en.wikipedia.org/wiki/Liqui%C3%A7%C3%A1_Church_massacre"}},{"type":"Feature","id":"wd/Q572368","geometry":{"type":"Point","coordinates":[8.41833,49.5178]},"properties":{"qid":"Q572368","name":"Oppau explosion","classes":["aoc_vineyard"],"image":"https://commons.wikimedia.org/wiki/Special:FilePath/Oppau%20Explosion%201921.JPG","wikipedia":"https://en.wikipedia.org/wiki/Oppau_explosion"}},{"type":"Feature","id":"wd/Q757965","geometry":{"type":"Point","coordinates":[35.4945,33.90196]},"properties":{"qid":"Q757965","name":"assassination of Rafic Hariri","classes":["aoc_vineyard"],"country":"LB","wikipedia":"https://en.wikipedia.org/wiki/Assassination_of_Rafic_Hariri"}},{"type":"Feature","id":"wd/Q925618","geometry":{"type":"Point","coordinates":[-94.8914,29.3775]},"properties":{"qid":"Q925618","name":"Texas City disaster","classes":["aoc_vineyard"],"country":"US","image":"https://commons.wikimedia.org/wiki/Special:FilePath/Grandcampanchor.jpg","wikipedia":"https://en.wikipedia.org/wiki/Texas_City_disaster"}},{"type":"Feature","id":"wd/Q175113","geometry":{"type":"Point","coordinates":[18.00028,53.12194]},"properties":{"qid":"Q175113","name":"Bloody Sunday","classes":["aoc_vineyard"],"country":"PL","image":"https://commons.wikimedia.org/wiki/Special:FilePath/Bundesarchiv%20Bild%20183-E10593%2C%20Bromberg%2C%20Leichen%20get%C3%B6teter%20Volksdeutscher.jpg","wikipedia":"https://en.wikipedia.org/wiki/Bloody_Sunday_(1939)"}},{"type":"Feature","id":"wd/Q952031","geometry":{"type":"Point","coordinates":[-109.03611,31.59]},"properties":{"qid":"Q952031","name":"Skeleton Canyon Massacres","classes":["aoc_vineyard"],"country":"US","wikipedia":"https://en.wikipedia.org/wiki/Skeleton_Canyon_massacres"}},{"type":"Feature","id":"wd/Q928629","geometry":{"type":"Point","coordinates":[171.4825,-42.20556]},"properties":{"qid":"Q928629","name":"Pike River Mine disaster","classes":["aoc_vineyard"],"country":"NZ","image":"https://commons.wikimedia.org/wiki/Special:FilePath/Gg-aug20-greymouthpikeriver%20067-2.jpg","wikipedia":"https://en.wikipedia.org/wiki/Pike_River_Mine_disaster"}},{"type":"Feature","id":"wd/Q925737","geometry":{"type":"Point","coordinates":[139.77139,35.69972]},"properties":{"qid":"Q925737","name":"Akihabara massacre","classes":["aoc_vineyard"],"country":"JP","image":"https://commons.wikimedia.org/wiki/Special:FilePath/Akihabara%20massacre%2002.JPG","wikipedia":"https://en.wikipedia.org/wiki/2008_Akihabara_massacre"}},{"type":"Feature","id":"wd/Q589437","geometry":{"type":"Point","coordinates":[71.5,34.0]},"properties":{"qid":"Q589437","name":"March 2011 Peshawar bombing","classes":["aoc_vineyard"],"wikipedia":"https://en.wikipedia.org/wiki/March_2011_Peshawar_bombing"}},{"type":"Feature","id":"wd/Q497145","geometry":{"type":"Point","coordinates":[-75.7,4.5]},"properties":{"qid":"Q497145","name":"1999 Armenia, Colombia earthquake","classes":["aoc_vineyard"],"country":"CO","wikipedia":"https://en.wikipedia.org/wiki/1999_Colombia_earthquake"}},{"type":"Feature","id":"wd/Q775339","geometry":{"type":"Point","coordinates":[-87.34,11.742]},"properties":{"qid":"Q775339","name":"1992 Nicaragua earthquake","classes":["aoc_vineyard"],"wikipedia":"https://en.wikipedia.org/wiki/1992_Nicaragua_earthquake"}},{"type":"Feature","id":"wd/Q770728","geometry":{"type":"Point","coordinates":[139.8,34.7]},"properties":{"qid":"Q770728","name":"1703 Genroku earthquake","classes":["aoc_vineyard"],"country":"JP","wikipedia":"https://en.wikipedia.org/wiki/1703_Genroku_earthquake"}},{"type":"Feature","id":"wd/Q760494","geometry":{"type":"Point","coordinates":[23.04889,40.63889]},"properties":{"qid":"Q760494","name":"1978 Thessaloniki earthquake","classes":["aoc_vineyard"],"country":"GR","image":"https://commons.wikimedia.org/wiki/Special:FilePath/USGS%20Shakemap%20-%201978%20Thessaloniki%20earthquake.jpg","wikipedia":"https://en.wikipedia.org/wiki/1978_Thessaloniki_earthquake"}},{"type":"Feature","id":"wd/Q189079","geometry":{"type":"Point","coordinates":[43.486,38.628]},"properties":{"qid":"Q189079","name":"Van earthquake of 2011","classes":["aoc_vineyard"],"country":"TR","image":"https://commons.wikimedia.org/wiki/Special:FilePath/Anatolian%20Plate.png","wikipedia":"https://en.wikipedia.org/wiki/2011_Van_earthquakes"}},{"type":"Feature","id":"wd/Q495739","geometry":{"type":"Point","coordinates":[126.67259,37.956]},"properties":{"qid":"Q495739","name":"Korean axe murder incident","classes":["aoc_vineyard"],"country":"KP","image":"https://commons.wikimedia.org/wiki/Special:FilePath/DMZ%20incident%20tree.jpg","parent_qid":"Q6608098","parent_name":"list of border incidents involving North Korea","wikipedia":"https://en.wikipedia.org/wiki/Panmunjom_axe_murder_incident"}},{"type":"Feature","id":"wd/Q775045","geometry":{"type":"Point","coordinates":[12.5693,55.6766]},"properties":{"qid":"Q775045","name":"Copenhagen Fire of 1728","classes":["aoc_vineyard"],"country":"DK","wikipedia":"https://en.wikipedia.org/wiki/Copenhagen_Fire_of_1728"}},{"type":"Feature","id":"wd/Q497157","geometry":{"type":"Point","coordinates":[23.6,38.11]},"properties":{"qid":"Q497157","name":"1999 Athens earthquake","classes":["aoc_vineyard"],"country":"GR","wikipedia":"https://en.wikipedia.org/wiki/1999_Athens_earthquake"}},{"type":"Feature","id":"wd/Q975813","geometry":{"type":"Point","coordinates":[-2.69611,51.57806]},"properties":{"qid":"Q975813","name":"Severn Tunnel rail accident","classes":["aoc_vineyard"],"country":"GB","wikipedia":"https://en.wikipedia.org/wiki/Severn_Tunnel_rail_accident"}},{"type":"Feature","id":"wd/Q487582","geometry":{"type":"Point","coordinates":[128.21222,36.72389]},"properties":{"qid":"Q487582","name":"Mungyeong massacre","classes":["aoc_vineyard"],"country":"KR","wikipedia":"https://en.wikipedia.org/wiki/Mungyeong_massacre"}},{"type":"Feature","id":"wd/Q493814","geometry":{"type":"Point","coordinates":[-9.05,53.78]},"properties":{"qid":"Q493814","name":"1879 Irish Famine","classes":["aoc_vineyard"],"wikipedia":"https://en.wikipedia.org/wiki/Irish_Famine_(1879)"}},{"type":"Feature","id":"wd/Q491018","geometry":{"type":"Point","coordinates":[127.92556,35.5675]},"properties":{"qid":"Q491018","name":"Geochang massacre","classes":["aoc_vineyard"],"wikipedia":"https://en.wikipedia.org/wiki/Geochang_massacre"}},{"type":"Feature","id":"wd/Q963554","geometry":{"type":"Point","coordinates":[-92.588,17.972]},"properties":{"qid":"Q963554","name":"2007 Tabasco flood","classes":["aoc_vineyard"],"country":"MX","wikipedia":"https://en.wikipedia.org/wiki/2007_Tabasco_flood"}},{"type":"Feature","id":"wd/Q497328","geometry":{"type":"Point","coordinates":[-102.084,18.048]},"properties":{"qid":"Q497328","name":"1981 Playa Azul earthquake","classes":["aoc_vineyard"],"country":"MX","wikipedia":"https://en.wikipedia.org/wiki/1981_Playa_Azul_earthquake"}},{"type":"Feature","id":"wd/Q961334","geometry":{"type":"Point","coordinates":[-96.931,16.059]},"properties":{"qid":"Q961334","name":"1999 Oaxaca earthquake","classes":["aoc_vineyard"],"country":"MX","wikipedia":"https://en.wikipedia.org/wiki/1999_Oaxaca_earthquake"}},{"type":"Feature","id":"wd/Q490811","geometry":{"type":"Point","coordinates":[128.59417,35.87111]},"properties":{"qid":"Q490811","name":"Daegu subway fire","classes":["aoc_vineyard"],"country":"KR","image":"https://commons.wikimedia.org/wiki/Special:FilePath/2003%EB%85%84%202%EC%9B%94%20%EB%8C%80%EA%B5%AC%EA%B4%91%EC%97%AD%EC%8B%9C%20%EB%8C%80%EA%B5%AC%20%EC%A7%80%ED%95%98%EC%B2%A0%20%ED%99%94%EC%9E%AC%20%EC%B0%B8%EC%82%AC%20%EC%97%B4%EC%B0%A8%20%EB%82%B4%EB%B6%80%20%EC%82%AC%EC%A7%84%20Daegumetrofire02.jpg","wikipedia":"https://en.wikipedia.org/wiki/Daegu_subway_fire"}},{"type":"Feature","id":"wd/Q975430","geometry":{"type":"Point","coordinates":[69.11333,34.45472]},"properties":{"qid":"Q975430","name":"Tajbeg Palace assault","classes":["aoc_vineyard"],"image":"https://commons.wikimedia.org/wiki/Special:FilePath/Evstafiev-40th%20army%20HQ-Amin-palace-Kabul.jpg","parent_qid":"Q83085","parent_name":"Soviet-Afghan War","wikipedia":"https://en.wikipedia.org/wiki/Operation_Storm-333"}},{"type":"Feature","id":"wd/Q976493","geometry":{"type":"Point","coordinates":[-64.7,-24.8]},"properties":{"qid":"Q976493","name":"1844 Salta earthquake","classes":["aoc_vineyard"],"country":"AR","wikipedia":"https://en.wikipedia.org/wiki/1844_Salta_earthquake"}},{"type":"Feature","id":"wd/Q764967","geometry":{"type":"Point","coordinates":[72.35,40.78306]},"properties":{"qid":"Q764967","name":"Andijan massacre","classes":["aoc_vineyard"],"country":"UZ","image":"https://commons.wikimedia.org/wiki/Special:FilePath/Panorama%20of%20Navoi%20Square%20%28Formerly%20Bobur%20Square%29%20-%20Where%202005%20Massacre%20Took%20Place%20-%20Andijon%20-%20Uzbekistan%20-%2001%20%287543269364%29%20%28cropped%29.jpg","wikipedia":"https://en.wikipedia.org/wiki/Andijan_massacre"}},{"type":"Feature","id":"wd/Q774314","geometry":{"type":"Point","coordinates":[-78.305,-1.237]},"properties":{"qid":"Q774314","name":"1949 Pelileo earthquake","classes":["aoc_vineyard"],"country":"EC","wikipedia":"https://en.wikipedia.org/wiki/1949_Ambato_earthquake"}},{"type":"Feature","id":"wd/Q973979","geometry":{"type":"Point","coordinates":[59.809,33.825]},"properties":{"qid":"Q973979","name":"1997 Qayen earthquake","classes":["aoc_vineyard"],"country":"IR","wikipedia":"https://en.wikipedia.org/wiki/1997_Qayen_earthquake"}},{"type":"Feature","id":"wd/Q582997","geometry":{"type":"Point","coordinates":[57.08968,54.94807]},"properties":{"qid":"Q582997","name":"Ufa train disaster","classes":["aoc_vineyard"],"image":"https://commons.wikimedia.org/wiki/Special:FilePath/Ufa%20train%20disaster%2009.jpg","wikipedia":"https://en.wikipedia.org/wiki/Ufa_train_disaster"}},{"type":"Feature","id":"wd/Q584613","geometry":{"type":"Point","coordinates":[-1.556,37.697]},"properties":{"qid":"Q584613","name":"2011 Lorca earthquake","classes":["aoc_vineyard"],"country":"ES","image":"https://commons.wikimedia.org/wiki/Special:FilePath/Lorca%20earthquake.jpg","wikipedia":"https://en.wikipedia.org/wiki/2011_Lorca_earthquake"}},{"type":"Feature","id":"wd/Q776377","geometry":{"type":"Point","coordinates":[45.35,42.88333]},"properties":{"qid":"Q776377","name":"Khaibakh massacre","classes":["aoc_vineyard"],"parent_qid":"Q654363","parent_name":"deportation of the Chechens and Ingush","wikipedia":"https://en.wikipedia.org/wiki/Khaibakh_massacre"}},{"type":"Feature","id":"wd/Q757986","geometry":{"type":"Point","coordinates":[-110.97514,32.33597]},"properties":{"qid":"Q757986","name":"2011 Tucson shooting","classes":["aoc_vineyard"],"country":"US","image":"https://commons.wikimedia.org/wiki/Special:FilePath/Gabrielle%20Giffords%20shooting%20scene.jpg","wikipedia":"https://en.wikipedia.org/wiki/2011_Tucson_shooting"}},{"type":"Feature","id":"wd/Q578179","geometry":{"type":"Point","coordinates":[21.4333,42.0]},"properties":{"qid":"Q578179","name":"1963 Skopje earthquake","classes":["aoc_vineyard"],"image":"https://commons.wikimedia.org/wiki/Special:FilePath/1963%20Skopje%20earthquake.png","wikipedia":"https://en.wikipedia.org/wiki/1963_Skopje_earthquake"}},{"type":"Feature","id":"wd/Q494418","geometry":{"type":"Point","coordinates":[96.14766,16.80254]},"properties":{"qid":"Q494418","name":"Rangoon bombing","classes":["aoc_vineyard"],"country":"MM","image":"https://commons.wikimedia.org/wiki/Special:FilePath/Chun%20Doo-hwan.png","wikipedia":"https://en.wikipedia.org/wiki/Rangoon_bombing"}},{"type":"Feature","id":"wd/Q583937","geometry":{"type":"Point","coordinates":[-70.14719,-20.21786]},"properties":{"qid":"Q583937","name":"Santa María School massacre","classes":["aoc_vineyard"],"country":"CL","image":"https://commons.wikimedia.org/wiki/Special:FilePath/Escuela%20Santa%20Mar%C3%ADa%20de%20Iquique%20hacia%201907.jpg","wikipedia":"https://en.wikipedia.org/wiki/Santa_Mar%C3%ADa_School_massacre"}},{"type":"Feature","id":"wd/Q769031","geometry":{"type":"Point","coordinates":[2.15,42.37]},"properties":{"qid":"Q769031","name":"1428 Catalonia earthquake","classes":["aoc_vineyard"],"wikipedia":"https://en.wikipedia.org/wiki/1428_Catalonia_earthquake"}},{"type":"Feature","id":"wd/Q965477","geometry":{"type":"Point","coordinates":[20.5945,52.1446]},"properties":{"qid":"Q965477","name":"Grossaktion Warsaw","classes":["aoc_vineyard"],"country":"PL","parent_qid":"Q158044","parent_name":"Operation Reinhard","wikipedia":"https://en.wikipedia.org/wiki/Grossaktion_Warsaw"}},{"type":"Feature","id":"wd/Q975050","geometry":{"type":"Point","coordinates":[-92.33056,19.41389]},"properties":{"qid":"Q975050","name":"Ixtoc I oil spill","classes":["aoc_vineyard"],"country":"MX","image":"https://commons.wikimedia.org/wiki/Special:FilePath/IXTOC%20I%20oil%20well%20blowout%202.jpg","wikipedia":"https://en.wikipedia.org/wiki/Ixtoc_I_oil_spill"}},{"type":"Feature","id":"wd/Q578858","geometry":{"type":"Point","coordinates":[114.58361,58.18528]},"properties":{"qid":"Q578858","name":"Lena massacre","classes":["aoc_vineyard"],"image":"https://commons.wikimedia.org/wiki/Special:FilePath/Lena%2017%2004%201912.jpg","wikipedia":"https://en.wikipedia.org/wiki/Lena_massacre"}},{"type":"Feature","id":"wd/Q188799","geometry":{"type":"Point","coordinates":[-80.4231,37.2294]},"properties":{"qid":"Q188799","name":"Virginia Tech shooting","classes":["aoc_vineyard"],"country":"US","image":"https://commons.wikimedia.org/wiki/Special:FilePath/Virginia%20Tech%20massacre%20Damiano%20photo%20from%20Holden%20Hall%20modified2.jpg","wikipedia":"https://en.wikipedia.org/wiki/Virginia_Tech_shooting"}},{"type":"Feature","id":"wd/Q496145","geometry":{"type":"Point","coordinates":[127.87361,35.41694]},"properties":{"qid":"Q496145","name":"Sancheong-Hamyang massacre","classes":["aoc_vineyard"],"country":"KR","image":"https://commons.wikimedia.org/wiki/Special:FilePath/South%20Gyeongsang%20map.png","wikipedia":"https://en.wikipedia.org/wiki/Sancheong%E2%80%93Hamyang_massacre"}},{"type":"Feature","id":"wd/Q772874","geometry":{"type":"Point","coordinates":[11.25694,43.77306]},"properties":{"qid":"Q772874","name":"Pazzi conspiracy","classes":["aoc_vineyard"],"image":"https://commons.wikimedia.org/wiki/Special:FilePath/Bertoldo%20di%20giovanni%2C%20medaglia%20della%20congiura%20dei%20pazzi%20%28lorenzo%29%2C%201478.JPG","parent_qid":"Q130515269","parent_name":"Pazzi War","wikipedia":"https://en.wikipedia.org/wiki/Pazzi_conspiracy"}},{"type":"Feature","id":"wd/Q494043","geometry":{"type":"Point","coordinates":[128.4115,36.0124]},"properties":{"qid":"Q494043","name":"Hill 303 massacre","classes":["aoc_vineyard"],"country":"KR","image":"https://commons.wikimedia.org/wiki/Special:FilePath/Hill303.png","wikipedia":"https://en.wikipedia.org/wiki/Hill_303_massacre"}},{"type":"Feature","id":"wd/Q778218","geometry":{"type":"Point","coordinates":[-122.18667,46.20028]},"properties":{"qid":"Q778218","name":"1980 eruption of Mount St. Helens","classes":["aoc_vineyard"],"country":"US","image":"https://commons.wikimedia.org/wiki/Special:FilePath/MSH80%20eruption%20mount%20st%20helens%20plume%2005-18-80.jpg","wikipedia":"https://en.wikipedia.org/wiki/1980_eruption_of_Mount_St._Helens"}},{"type":"Feature","id":"wd/Q487163","geometry":{"type":"Point","coordinates":[85.32,27.7156]},"properties":{"qid":"Q487163","name":"Nepalese royal massacre","classes":["aoc_vineyard"],"country":"NP","image":"https://commons.wikimedia.org/wiki/Special:FilePath/Narayanhiti%20Palace%20Museum.jpg","wikipedia":"https://en.wikipedia.org/wiki/Nepalese_royal_massacre"}},{"type":"Feature","id":"wd/Q576390","geometry":{"type":"Point","coordinates":[97.994,24.71]},"properties":{"qid":"Q576390","name":"2011 Yunnan earthquake","classes":["aoc_vineyard"],"country":"MM","image":"https://commons.wikimedia.org/wiki/Special:FilePath/China-equirect.png","wikipedia":"https://en.wikipedia.org/wiki/2011_Yunnan_earthquake"}},{"type":"Feature","id":"wd/Q777916","geometry":{"type":"Point","coordinates":[141.66,-38.2784]},"properties":{"qid":"Q777916","name":"Convincing Ground massacre","classes":["aoc_vineyard"],"country":"AU","parent_qid":"Q2889339","parent_name":"Australian frontier wars","wikipedia":"https://en.wikipedia.org/wiki/Convincing_Ground_massacre"}},{"type":"Feature","id":"wd/Q770498","geometry":{"type":"Point","coordinates":[45.35,2.03333]},"properties":{"qid":"Q770498","name":"2011 Mogadishu bombing","classes":["aoc_vineyard"],"country":"SO","image":"https://commons.wikimedia.org/wiki/Special:FilePath/So-map.png","wikipedia":"https://en.wikipedia.org/wiki/2011_Mogadishu_bombing"}},{"type":"Feature","id":"wd/Q494058","geometry":{"type":"Point","coordinates":[124.60056,37.92917]},"properties":{"qid":"Q494058","name":"ROKS Cheonan sinking","classes":["aoc_vineyard"],"country":"KR","image":"https://commons.wikimedia.org/wiki/Special:FilePath/2010.4.12%20%EC%B2%9C%EC%95%88%ED%95%A8%20%ED%95%A8%EB%AF%B8%20%EB%B6%80%EB%B6%84%20%EC%9D%B8%EC%96%91%EC%9E%91%EC%97%85%20%287445519368%29.jpg","wikipedia":"https://en.wikipedia.org/wiki/Sinking_of_ROKS_Cheonan"}},{"type":"Feature","id":"wd/Q968395","geometry":{"type":"Point","coordinates":[-119.6566,34.4574]},"properties":{"qid":"Q968395","name":"Tea Fire","classes":["aoc_vineyard"],"country":"US","image":"https://commons.wikimedia.org/wiki/Special:FilePath/Montecito%20Tea%20Fire.jpg","wikipedia":"https://en.wikipedia.org/wiki/Tea_Fire"}},{"type":"Feature","id":"wd/Q489990","geometry":{"type":"Point","coordinates":[126.941,37.556]},"properties":{"qid":"Q489990","name":"Dog poop girl","classes":["aoc_vineyard"],"country":"KR","wikipedia":"https://en.wikipedia.org/wiki/Dog_poop_girl"}},{"type":"Feature","id":"wd/Q186166","geometry":{"type":"Point","coordinates":[-94.8258,29.2811]},"properties":{"qid":"Q186166","name":"1900 Galveston hurricane","classes":["aoc_vineyard"],"country":"US","image":"https://commons.wikimedia.org/wiki/Special:FilePath/Galveston%20Hurricane%20%281900%29%20SWA.JPG","wikipedia":"https://en.wikipedia.org/wiki/1900_Galveston_hurricane"}},{"type":"Feature","id":"wd/Q579179","geometry":{"type":"Point","coordinates":[45.98333,35.18333]},"properties":{"qid":"Q579179","name":"Halabja massacre","classes":["aoc_vineyard"],"image":"https://commons.wikimedia.org/wiki/Special:FilePath/Family%20Graves%20for%20Victims%20of%201988%20Chemical%20Attack%20-%20Halabja%20-%20Kurdistan%20-%20Iraq.jpg","parent_qid":"Q6133239","parent_name":"Operation Zafar 7","wikipedia":"https://en.wikipedia.org/wiki/Halabja_massacre"}},{"type":"Feature","id":"wd/Q491346","geometry":{"type":"Point","coordinates":[139.76128,35.68474]},"properties":{"qid":"Q491346","name":"kidnapping of Kim Dae-jung","classes":["aoc_vineyard"],"country":"JP","wikipedia":"https://en.wikipedia.org/wiki/Kidnapping_of_Kim_Dae-jung"}},{"type":"Feature","id":"wd/Q764222","geometry":{"type":"Point","coordinates":[29.074,39.137]},"properties":{"qid":"Q764222","name":"2011 Kütahya earthquake","classes":["aoc_vineyard"],"country":"TR","wikipedia":"https://en.wikipedia.org/wiki/2011_K%C3%BCtahya_earthquake"}},{"type":"Feature","id":"wd/Q587127","geometry":{"type":"Point","coordinates":[13.27,46.36]},"properties":{"qid":"Q587127","name":"1976 Friuli earthquake","classes":["aoc_vineyard"],"country":"YU","wikipedia":"https://en.wikipedia.org/wiki/1976_Friuli_earthquake"}},{"type":"Feature","id":"wd/Q769918","geometry":{"type":"Point","coordinates":[21.59583,51.2225]},"properties":{"qid":"Q769918","name":"Massacre in Ciepielów","classes":["aoc_vineyard"],"country":"PL","image":"https://commons.wikimedia.org/wiki/Special:FilePath/Polish%20POWs%20shot%20by%20Wehrmacht%201939.jpg","wikipedia":"https://en.wikipedia.org/wiki/Ciepiel%C3%B3w_massacre"}},{"type":"Feature","id":"wd/Q495446","geometry":{"type":"Point","coordinates":[127.88028,36.21528]},"properties":{"qid":"Q495446","name":"No Gun Ri Massacre","classes":["aoc_vineyard"],"country":"KR","image":"https://commons.wikimedia.org/wiki/Special:FilePath/1st%20Cavalry%20Division%20troops%20withdraw%2C%20July%2029%2C%201950.jpg","wikipedia":"https://en.wikipedia.org/wiki/No_Gun_Ri_massacre"}},{"type":"Feature","id":"wd/Q188371","geometry":{"type":"Point","coordinates":[-7.921,53.351]},"properties":{"qid":"Q188371","name":"Great Irish Famine","classes":["aoc_vineyard"],"image":"https://commons.wikimedia.org/wiki/Special:FilePath/Irish%20potato%20famine%20Bridget%20O%27Donnel.jpg","wikipedia":"https://en.wikipedia.org/wiki/Great_Famine_(Ireland)"}},{"type":"Feature","id":"wd/Q958575","geometry":{"type":"Point","coordinates":[-59.00167,-27.33278]},"properties":{"qid":"Q958575","name":"Massacre of Margarita Belén","classes":["aoc_vineyard"],"country":"AR","wikipedia":"https://en.wikipedia.org/wiki/Margarita_Bel%C3%A9n_massacre"}},{"type":"Feature","id":"wd/Q5442472","geometry":{"type":"Point","coordinates":[-1.57056,54.9553]},"properties":{"qid":"Q5442472","name":"Felling mine disaster","classes":["aoc_vineyard"],"country":"GB","wikipedia":"https://en.wikipedia.org/wiki/Felling_mine_disasters"}},{"type":"Feature","id":"wd/Q5506562","geometry":{"type":"Point","coordinates":[-97.1453,33.2152]},"properties":{"qid":"Q5506562","name":"Fry Street Fire","classes":["aoc_vineyard"],"country":"US","wikipedia":"https://en.wikipedia.org/wiki/Fry_Street_Fire"}},{"type":"Feature","id":"wd/Q5518640","geometry":{"type":"Point","coordinates":[91.6492,24.6653]},"properties":{"qid":"Q5518640","name":"Galimpur massacre","classes":["aoc_vineyard"],"wikipedia":"https://en.wikipedia.org/wiki/Galimpur_massacre"}},{"type":"Feature","id":"wd/Q5406414","geometry":{"type":"Point","coordinates":[-110.3587,53.83119]},"properties":{"qid":"Q5406414","name":"Frog Lake Massacre","classes":["aoc_vineyard"],"country":"CA","image":"https://commons.wikimedia.org/wiki/Special:FilePath/Frog%20Lake%20National%20Historic%20Site.JPG","parent_qid":"Q1506788","parent_name":"North-West Rebellion","wikipedia":"https://en.wikipedia.org/wiki/Frog_Lake_Massacre"}},{"type":"Feature","id":"wd/Q5493873","geometry":{"type":"Point","coordinates":[-84.17417,36.19556]},"properties":{"qid":"Q5493873","name":"Fraterville Mine disaster","classes":["aoc_vineyard"],"country":"US","image":"https://commons.wikimedia.org/wiki/Special:FilePath/Fraterville-miners-circle-tn1.jpg","wikipedia":"https://en.wikipedia.org/wiki/Fraterville_Mine_disaster"}},{"type":"Feature","id":"wd/Q5501244","geometry":{"type":"Point","coordinates":[-117.65,33.8817]},"properties":{"qid":"Q5501244","name":"Freeway Complex Fire","classes":["aoc_vineyard"],"country":"US","image":"https://commons.wikimedia.org/wiki/Special:FilePath/Freeway%20Complex%20Fire.jpg","wikipedia":"https://en.wikipedia.org/wiki/Freeway_Complex_Fire"}},{"type":"Feature","id":"wd/Q5373650","geometry":{"type":"Point","coordinates":[44.422,33.325]},"properties":{"qid":"Q5373650","name":"emo killings in Iraq","classes":["aoc_vineyard"],"country":"IQ","wikipedia":"https://en.wikipedia.org/wiki/2012_emo_killings_in_Iraq"}},{"type":"Feature","id":"wd/Q211386","geometry":{"type":"Point","coordinates":[-122.55,37.75]},"properties":{"qid":"Q211386","name":"1906 San Francisco earthquake","classes":["aoc_vineyard"],"country":"US","image":"https://commons.wikimedia.org/wiki/Special:FilePath/Post-and-Grant-Avenue-Look.jpg","wikipedia":"https://en.wikipedia.org/wiki/1906_San_Francisco_earthquake"}},{"type":"Feature","id":"wd/Q5435902","geometry":{"type":"Point","coordinates":[-80.254,39.5386]},"properties":{"qid":"Q5435902","name":"Farmington Mine disaster","classes":["aoc_vineyard"],"country":"US","image":"https://commons.wikimedia.org/wiki/Special:FilePath/Farmington-Mine-Disaster-smoke.jpg","wikipedia":"https://en.wikipedia.org/wiki/Farmington_Mine_disaster"}},{"type":"Feature","id":"wd/Q4110438","geometry":{"type":"Point","coordinates":[88.08278,53.78361]},"properties":{"qid":"Q4110438","name":"Raspadskaya mine explosion","classes":["aoc_vineyard"],"country":"RU","image":"https://commons.wikimedia.org/wiki/Special:FilePath/Vladimir%20Putin%20in%20Kemerovo%20Oblast%20%282010-05-11%29%2002.jpg","wikipedia":"https://en.wikipedia.org/wiki/Raspadskaya_mine_explosion"}},{"type":"Feature","id":"wd/Q210137","geometry":{"type":"Point","coordinates":[73.6289,34.4931]},"properties":{"qid":"Q210137","name":"2005 Kashmir earthquake","classes":["aoc_vineyard"],"country":"AF","image":"https://commons.wikimedia.org/wiki/Special:FilePath/2005%20Pakistan%20earthquake.png","wikipedia":"https://en.wikipedia.org/wiki/2005_Kashmir_earthquake"}},{"type":"Feature","id":"wd/Q1075913","geometry":{"type":"Point","coordinates":[-72.33333,19.1]},"properties":{"qid":"Q1075913","name":"2010–2012 Haiti cholera outbreak","classes":["aoc_vineyard"],"country":"HT","wikipedia":"https://en.wikipedia.org/wiki/2010s_Haiti_cholera_outbreak"}},{"type":"Feature","id":"wd/Q1062375","geometry":{"type":"Point","coordinates":[70.96722,32.43111]},"properties":{"qid":"Q1062375","name":"2010 Lakki Marwat suicide bombing","classes":["aoc_vineyard"],"country":"PK","image":"https://commons.wikimedia.org/wiki/Special:FilePath/Mitshubishi%20Pajero%20Mk%20I.jpg","wikipedia":"https://en.wikipedia.org/wiki/2010_Lakki_Marwat_suicide_bombing"}},{"type":"Feature","id":"wd/Q5353272","geometry":{"type":"Point","coordinates":[-90.833,34.354]},"properties":{"qid":"Q5353272","name":"Elaine Race Riot","classes":["aoc_vineyard"],"country":"US","image":"https://commons.wikimedia.org/wiki/Special:FilePath/AR%20elaine%20riot.jpg","parent_qid":"Q2981049","parent_name":"Red Summer of 1919","wikipedia":"https://en.wikipedia.org/wiki/Elaine_massacre"}},{"type":"Feature","id":"wd/Q1087721","geometry":{"type":"Point","coordinates":[52.8,43.3]},"properties":{"qid":"Q1087721","name":"2011 Zhanaozen riots","classes":["aoc_vineyard"],"country":"KZ","image":"https://commons.wikimedia.org/wiki/Special:FilePath/Mangystau%20Union%20Square%20Protest%20%282011-12-18%29.jpg","wikipedia":"https://en.wikipedia.org/wiki/Zhanaozen_massacre"}},{"type":"Feature","id":"wd/Q4110399","geometry":{"type":"Point","coordinates":[144.98827,-37.83826]},"properties":{"qid":"Q4110399","name":"Melbourne Turkish consulate bombing","classes":["aoc_vineyard"],"country":"AU","wikipedia":"https://en.wikipedia.org/wiki/1986_Turkish_consulate_bombing_in_Melbourne"}},{"type":"Feature","id":"wd/Q1089686","geometry":{"type":"Point","coordinates":[2.29833,48.85611]},"properties":{"qid":"Q1089686","name":"Champ de Mars Massacre","classes":["aoc_vineyard"],"country":"FR","image":"https://commons.wikimedia.org/wiki/Special:FilePath/Malheureuse%20journ%C3%A9e%20du%2017%20juillet%201791.jpg","parent_qid":"Q6534","parent_name":"French Revolution","wikipedia":"https://en.wikipedia.org/wiki/Champ_de_Mars_massacre"}},{"type":"Feature","id":"wd/Q5528422","geometry":{"type":"Point","coordinates":[74.80918,34.07477]},"properties":{"qid":"Q5528422","name":"1990 Gawkadal massacre","classes":["aoc_vineyard"],"country":"IN","parent_qid":"Q749970","parent_name":"insurgency in Jammu and Kashmir","wikipedia":"https://en.wikipedia.org/wiki/1990_Gawkadal_massacre"}},{"type":"Feature","id":"wd/Q5439089","geometry":{"type":"Point","coordinates":[48.336,29.453]},"properties":{"qid":"Q5439089","name":"Faylaka Island attack","classes":["aoc_vineyard"],"wikipedia":"https://en.wikipedia.org/wiki/Failaka_Island_attack"}},{"type":"Feature","id":"wd/Q4110404","geometry":{"type":"Point","coordinates":[40.566,64.537]},"properties":{"qid":"Q4110404","name":"2004 Arkhangelsk explosion","classes":["aoc_vineyard"],"image":"https://commons.wikimedia.org/wiki/Special:FilePath/Explosion%20of%20Arkhangelsk%20house%202004%2003.jpg","wikipedia":"https://en.wikipedia.org/wiki/2004_Arkhangelsk_apartment_explosion"}},{"type":"Feature","id":"wd/Q202951","geometry":{"type":"Point","coordinates":[42.16667,39.31667]},"properties":{"qid":"Q202951","name":"Zilan massacre","classes":["aoc_vineyard"],"country":"TR","image":"https://commons.wikimedia.org/wiki/Special:FilePath/Zilanmassacre.jpg","wikipedia":"https://en.wikipedia.org/wiki/Zilan_massacre"}},{"type":"Feature","id":"wd/Q207513","geometry":{"type":"Point","coordinates":[37.90611,55.40861]},"properties":{"qid":"Q207513","name":"Domodedovo International Airport bombing","classes":["aoc_vineyard"],"country":"RU","image":"https://commons.wikimedia.org/wiki/Special:FilePath/Domodedovo-terminal.jpg","wikipedia":"https://en.wikipedia.org/wiki/Domodedovo_International_Airport_bombing"}},{"type":"Feature","id":"wd/Q5463419","geometry":{"type":"Point","coordinates":[116.808,-20.581]},"properties":{"qid":"Q5463419","name":"Flying Foam massacre","classes":["aoc_vineyard"],"country":"AU","parent_qid":"Q2889339","parent_name":"Australian frontier wars","wikipedia":"https://en.wikipedia.org/wiki/Flying_Foam_massacre"}},{"type":"Feature","id":"wd/Q4110410","geometry":{"type":"Point","coordinates":[37.7525,55.8]},"properties":{"qid":"Q4110410","name":"2006 Moscow market bombing","classes":["aoc_vineyard"],"wikipedia":"https://en.wikipedia.org/wiki/2006_Moscow_market_bombing"}},{"type":"Feature","id":"wd/Q5365924","geometry":{"type":"Point","coordinates":[121.63,38.92]},"properties":{"qid":"Q5365924","name":"Xingang Port oil spill","classes":["aoc_vineyard"],"country":"CN","wikipedia":"https://en.wikipedia.org/wiki/Xingang_Port_oil_spill"}},{"type":"Feature","id":"wd/Q5439819","geometry":{"type":"Point","coordinates":[67.01,24.86]},"properties":{"qid":"Q5439819","name":"February 2010 Karachi bombings","classes":["aoc_vineyard"],"wikipedia":"https://en.wikipedia.org/wiki/February_2010_Karachi_bombings"}},{"type":"Feature","id":"wd/Q5437858","geometry":{"type":"Point","coordinates":[-58.98114,-34.4448]},"properties":{"qid":"Q5437858","name":"Fatima Massacre","classes":["aoc_vineyard"],"country":"AR","parent_qid":"Q75984","parent_name":"dirty war in Argentina","wikipedia":"https://en.wikipedia.org/wiki/Fatima_massacre"}},{"type":"Feature","id":"wd/Q210981","geometry":{"type":"Point","coordinates":[-76.51,-13.353]},